{"meta": {"code": 200, "requestId": "5e1f6c2360ba08001b13ed3f"}, "response": {"headerLocation": "Toronto", "headerFullLocation": "Toronto", "headerLocationGranularity": "city", "totalResults": 4, "suggestedBounds": {"ne": {"lat": 43.7754921045, "lng": -79.21069729639068}, "sw": {"lat": 43.7664920955, "lng": -79.22313750360935}}, "groups": [{"type": "Recommended Places", "name": "recommended", "items": [{"reasons": {"count": 0, "items": [{"summary": "This spot is popular", "type": "general", "reasonName": "globalInteractionReason"}]}, "venue": {"id": "4cc1d28c06c254815ac18547", "name": "Starbucks", "location": {"address": "300 Borough Dr", "crossStreet": "Scarborough Town Centre", "lat": 43.770037201625215, "lng": -79.22115586641958, "labeledLatLngs": [{"label": "display", "lat": 43.770037201625215, "lng": -79.22115586641958}], "distance": 356, "cc": "CA", "city": "Scarborough", "state": "ON", "country": "Canada", "formattedAddress": ["300 Borough Dr (Scarborough Town Centre)", "Scarborough ON", "Canada"]}, "categories": [{"id": "4bf58dd8d48988d1e0931735", "name": "Coffee Shop", "pluralName": "Coffee Shops", "shortName": "Coffee Shop", "icon": {"prefix": "https://ss3.4sqi.net/img/categories_v2/food/coffeeshop_", "suffix": ".png"}, "primary": true}], "photos": {"count": 0, "groups": []}}, "referralId": "e-0-4cc1d28c06c254815ac18547-0"}, {"reasons": {"count": 0, "items": [{"summary": "This spot is popular", "type": "general", "reasonName": "globalInteractionReason"}]}, "venue": {"id": "5164bf50e4b0ca7ab1d9ed8b", "name": "Tim Hortons", "location": {"address": "1100 Markham Rd", "crossStreet": "Ellesmere Rd", "lat": 43.7708270725628, "lng": -79.22307810384153, "labeledLatLngs": [{"label": "display", "lat": 43.7708270725628, "lng": -79.22307810384153}], "distance": 495, "cc": "CA", "city": "Scarborough", "state": "ON", "country": "Canada", "formattedAddress": ["1100 Markham Rd (Ellesmere Rd)", "Scarborough ON", "Canada"]}, "categories": [{"id": "4bf58dd8d48988d1e0931735", "name": "Coffee Shop", "pluralName": "Coffee Shops", "shortName": "Coffee Shop", "icon": {"prefix": "https://ss3.4sqi.net/img/categories_v2/food/coffeeshop_", "suffix": ".png"}, "primary": true}], "photos": {"count": 0, "groups": []}}, "referralId": "e-0-5164bf50e4b0ca7ab1d9ed8b-1"}, {"reasons": {"count": 0, "items": [{"summary": "This spot is popular", "type": "general", "reasonName": "globalInteractionReason"}]}, "venue": {"id": "4de0403ed4c040523ea079f4", "name": "Korean Grill House", "location": {"address": "369 Yonge Street", "lat": 43.7708117291354, "lng": -79.21450208834013, "labeledLatLngs": [{"label": "display", "lat": 43.7708117291354, "lng": -79.21450208834013}], "distance": 195, "cc": "CA", "city": "Toronto", "state": "ON", "country": "Canada", "formattedAddress": ["369 Yonge Street", "Toronto ON", "Canada"]}, "categories": [{"id": "4bf58dd8d48988d113941735", "name": "Korean Restaurant", "pluralName": "Korean Restaurants", "shortName": "Korean", "icon": {"prefix": "https://ss3.4sqi.net/img/categories_v2/food/korean_", "suffix": ".png"}, "primary": true}], "photos": {"count": 0, "groups": []}}, "referralId": "e-0-4de0403ed4c040523ea079f4-2"}, {"reasons": {"count": 0, "items": [{"summary": "This spot is popular", "type": "general", "reasonName": "globalInteractionReason"}]}, "venue": {"id": "51054768e4b095f21f31a672", "name": "Toronto Ali Sami Yen Spor Kompleksi (Lionhill)", "location": {"lat": 43.76767, "lng": -79.21821, "labeledLatLngs": [{"label": "display", "lat": 43.76767, "lng": -79.21821}], "distance": 384, "cc": "CA", "country": "Canada", "formattedAddress": ["Canada"]}, "categories": [{"id": "4cce455aebf7b749d5e191f5", "name": "Soccer Field", "pluralName": "Soccer Fields", "shortName": "Soccer Field", "icon": {"prefix": "https://ss3.4sqi.net/img/categories_v2/arts_entertainment/stadium_soccer_", "suffix": ".png"}, "primary": true}], "photos": {"count": 0, "groups": []}}, "referralId": "e-0-51054768e4b095f21f31a672-3"}]}]}}