{"meta": {"code": 200, "requestId": "5e1f6bca95feaf001bd76903"}, "response": {"headerLocation": "Bayview Woods - Steeles", "headerFullLocation": "Bayview Woods - Steeles, Toronto", "headerLocationGranularity": "neighborhood", "totalResults": 4, "suggestedBounds": {"ne": {"lat": 43.791447304500004, "lng": -79.37975323634863}, "sw": {"lat": 43.7824472955, "lng": -79.39219676365137}}, "groups": [{"type": "Recommended Places", "name": "recommended", "items": [{"reasons": {"count": 0, "items": [{"summary": "This spot is popular", "type": "general", "reasonName": "globalInteractionReason"}]}, "venue": {"id": "4bd396d041b9ef3b799c00e6", "name": "Sun Star Chinese Cuisine \u7fe0\u666f\u5c0f\u7092", "location": {"address": "636 Finch Avenue East", "crossStreet": "btwn Leslie St and Bayview Av", "lat": 43.78791448422642, "lng": -79.38123404311649, "labeledLatLngs": [{"label": "display", "lat": 43.78791448422642, "lng": -79.38123404311649}], "distance": 395, "postalCode": "M2K 2E6", "cc": "CA", "city": "Toronto", "state": "ON", "country": "Canada", "formattedAddress": ["636 Finch Avenue East (btwn Leslie St and Bayview Av)", "Toronto ON M2K 2E6", "Canada"]}, "categories": [{"id": "4bf58dd8d48988d145941735", "name": "Chinese Restaurant", "pluralName": "Chinese Restaurants", "shortName": "Chinese", "icon": {"prefix": "https://ss3.4sqi.net/img/categories_v2/food/asian_", "suffix": ".png"}, "primary": true}], "photos": {"count": 0, "groups": []}}, "referralId": "e-0-4bd396d041b9ef3b799c00e6-0"}, {"reasons": {"count": 0, "items": [{"summary": "This spot is popular", "type": "general", "reasonName": "globalInteractionReason"}]}, "venue": {"id": "4b6dc5fcf964a5207d8e2ce3", "name": "TD Canada Trust", "location": {"address": "686 Finch Ave E", "crossStreet": "btw Bayview Ave & Leslie St", "lat": 43.7880740139986, "lng": -79.38036672770977, "labeledLatLngs": [{"label": "display", "lat": 43.7880740139986, "lng": -79.38036672770977}], "distance": 467, "postalCode": "M2K 2E6", "cc": "CA", "neighborhood": "Bayview Woods - Steeles", "city": "North York", "state": "ON", "country": "Canada", "formattedAddress": ["686 Finch Ave E (btw Bayview Ave & Leslie St)", "North York ON M2K 2E6", "Canada"]}, "categories": [{"id": "4bf58dd8d48988d10a951735", "name": "Bank", "pluralName": "Banks", "shortName": "Bank", "icon": {"prefix": "https://ss3.4sqi.net/img/categories_v2/shops/financial_", "suffix": ".png"}, "primary": true}], "photos": {"count": 0, "groups": []}}, "referralId": "e-0-4b6dc5fcf964a5207d8e2ce3-1"}, {"reasons": {"count": 0, "items": [{"summary": "This spot is popular", "type": "general", "reasonName": "globalInteractionReason"}]}, "venue": {"id": "4bdc7dd8c79cc9287ecc86e9", "name": "Maxim's Cafe and Patisserie", "location": {"address": "676 Finch Ave E", "crossStreet": "btwn Leslie St & Bayview Ave", "lat": 43.78786337669778, "lng": -79.38075094208715, "labeledLatLngs": [{"label": "display", "lat": 43.78786337669778, "lng": -79.38075094208715}], "distance": 432, "postalCode": "M2K 2E6", "cc": "CA", "neighborhood": "Bayview Woods - Steeles", "city": "Toronto", "state": "ON", "country": "Canada", "formattedAddress": ["676 Finch Ave E (btwn Leslie St & Bayview Ave)", "Toronto ON M2K 2E6", "Canada"]}, "categories": [{"id": "4bf58dd8d48988d16d941735", "name": "Caf\u00e9", "pluralName": "Caf\u00e9s", "shortName": "Caf\u00e9", "icon": {"prefix": "https://ss3.4sqi.net/img/categories_v2/food/cafe_", "suffix": ".png"}, "primary": true}], "photos": {"count": 0, "groups": []}}, "referralId": "e-0-4bdc7dd8c79cc9287ecc86e9-2"}, {"reasons": {"count": 0, "items": [{"summary": "This spot is popular", "type": "general", "reasonName": "globalInteractionReason"}]}, "venue": {"id": "5404d153498ebbc7332f3e4e", "name": "Kaga Sushi", "location": {"address": "652 Finch Ave E", "crossStreet": "Between Bayview & Leslie", "lat": 43.78775840092113, "lng": -79.38108976991016, "labeledLatLngs": [{"label": "display", "lat": 43.78775840092113, "lng": -79.38108976991016}], "distance": 402, "cc": "CA", "city": "North York", "state": "ON", "country": "Canada", "formattedAddress": ["652 Finch Ave E (Between Bayview & Leslie)", "North York ON", "Canada"]}, "categories": [{"id": "4bf58dd8d48988d111941735", "name": "Japanese Restaurant", "pluralName": "Japanese Restaurants", "shortName": "Japanese", "icon": {"prefix": "https://ss3.4sqi.net/img/categories_v2/food/japanese_", "suffix": ".png"}, "primary": true}], "photos": {"count": 0, "groups": []}}, "referralId": "e-0-5404d153498ebbc7332f3e4e-3"}]}]}}