{"meta": {"code": 200, "requestId": "5e1f6c0f3907e70022d25daf"}, "response": {"suggestedFilters": {"header": "Tap to show:", "filters": [{"name": "Open now", "key": "openNow"}]}, "headerLocation": "University of Toronto", "headerFullLocation": "University of Toronto, Toronto", "headerLocationGranularity": "neighborhood", "totalResults": 35, "suggestedBounds": {"ne": {"lat": 43.6671956045, "lng": -79.39384042790832}, "sw": {"lat": 43.6581955955, "lng": -79.4062581720917}}, "groups": [{"type": "Recommended Places", "name": "recommended", "items": [{"reasons": {"count": 0, "items": [{"summary": "This spot is popular", "type": "general", "reasonName": "globalInteractionReason"}]}, "venue": {"id": "5362c366498e602fbe1db395", "name": "Yasu", "location": {"address": "81 Harbord St.", "lat": 43.66283719650635, "lng": -79.40321739973975, "labeledLatLngs": [{"label": "display", "lat": 43.66283719650635, "lng": -79.40321739973975}], "distance": 255, "postalCode": "M5S 1G4", "cc": "CA", "neighborhood": "Harbord Village, Toronto, ON", "city": "Toronto", "state": "ON", "country": "Canada", "formattedAddress": ["81 Harbord St.", "Toronto ON M5S 1G4", "Canada"]}, "categories": [{"id": "4bf58dd8d48988d111941735", "name": "Japanese Restaurant", "pluralName": "Japanese Restaurants", "shortName": "Japanese", "icon": {"prefix": "https://ss3.4sqi.net/img/categories_v2/food/japanese_", "suffix": ".png"}, "primary": true}], "photos": {"count": 0, "groups": []}}, "referralId": "e-0-5362c366498e602fbe1db395-0"}, {"reasons": {"count": 0, "items": [{"summary": "This spot is popular", "type": "general", "reasonName": "globalInteractionReason"}]}, "venue": {"id": "5a4fe33db8fd9d1e3273654e", "name": "The Dessert Kitchen", "location": {"address": "73 Harbord St", "lat": 43.66282317865166, "lng": -79.40274569154498, "labeledLatLngs": [{"label": "display", "lat": 43.66282317865166, "lng": -79.40274569154498}], "distance": 217, "postalCode": "M5S 1G4", "cc": "CA", "neighborhood": "Downtown Toronto", "city": "Toronto", "state": "ON", "country": "Canada", "formattedAddress": ["73 Harbord St", "Toronto ON M5S 1G4", "Canada"]}, "categories": [{"id": "4bf58dd8d48988d1d0941735", "name": "Dessert Shop", "pluralName": "Dessert Shops", "shortName": "Desserts", "icon": {"prefix": "https://ss3.4sqi.net/img/categories_v2/food/dessert_", "suffix": ".png"}, "primary": true}], "photos": {"count": 0, "groups": []}}, "referralId": "e-0-5a4fe33db8fd9d1e3273654e-1"}, {"reasons": {"count": 0, "items": [{"summary": "This spot is popular", "type": "general", "reasonName": "globalInteractionReason"}]}, "venue": {"id": "56eb72e3498eefb98d82274b", "name": "Piano Piano", "location": {"address": "88 Harbord St.", "crossStreet": "Harbord & Spadina", "lat": 43.66294872979362, "lng": -79.40289804116937, "labeledLatLngs": [{"label": "display", "lat": 43.66294872979362, "lng": -79.40289804116937}], "distance": 231, "postalCode": "M5S 1G5", "cc": "CA", "city": "Toronto", "state": "ON", "country": "Canada", "formattedAddress": ["88 Harbord St. (Harbord & Spadina)", "Toronto ON M5S 1G5", "Canada"]}, "categories": [{"id": "4bf58dd8d48988d110941735", "name": "Italian Restaurant", "pluralName": "Italian Restaurants", "shortName": "Italian", "icon": {"prefix": "https://ss3.4sqi.net/img/categories_v2/food/italian_", "suffix": ".png"}, "primary": true}], "photos": {"count": 0, "groups": []}}, "referralId": "e-0-56eb72e3498eefb98d82274b-2"}, {"reasons": {"count": 0, "items": [{"summary": "This spot is popular", "type": "general", "reasonName": "globalInteractionReason"}]}, "venue": {"id": "527d450111d25050de4ea0d8", "name": "Rasa", "location": {"address": "196 Robert Street", "lat": 43.662756751275445, "lng": -79.40398803188654, "labeledLatLngs": [{"label": "display", "lat": 43.662756751275445, "lng": -79.40398803188654}], "distance": 317, "postalCode": "M5S 2K8", "cc": "CA", "neighborhood": "Downtown Toronto", "city": "Toronto", "state": "ON", "country": "Canada", "formattedAddress": ["196 Robert Street", "Toronto ON M5S 2K8", "Canada"]}, "categories": [{"id": "4bf58dd8d48988d1c4941735", "name": "Restaurant", "pluralName": "Restaurants", "shortName": "Restaurant", "icon": {"prefix": "https://ss3.4sqi.net/img/categories_v2/food/default_", "suffix": ".png"}, "primary": true}], "photos": {"count": 0, "groups": []}}, "referralId": "e-0-527d450111d25050de4ea0d8-3"}, {"reasons": {"count": 0, "items": [{"summary": "This spot is popular", "type": "general", "reasonName": "globalInteractionReason"}]}, "venue": {"id": "5707bcb9498e709b544e20b2", "name": "Her Father's Cider Bar + Kitchen", "location": {"address": "119 Harbord Street", "crossStreet": "at Major St", "lat": 43.66244824890102, "lng": -79.40470324675829, "labeledLatLngs": [{"label": "display", "lat": 43.66244824890102, "lng": -79.40470324675829}], "distance": 375, "postalCode": "M5S 1G7", "cc": "CA", "neighborhood": "Downtown Toronto", "city": "Toronto", "state": "ON", "country": "Canada", "formattedAddress": ["119 Harbord Street (at Major St)", "Toronto ON M5S 1G7", "Canada"]}, "categories": [{"id": "56aa371ce4b08b9a8d57356c", "name": "Beer Bar", "pluralName": "Beer Bars", "shortName": "Beer Bar", "icon": {"prefix": "https://ss3.4sqi.net/img/categories_v2/nightlife/pub_", "suffix": ".png"}, "primary": true}], "photos": {"count": 0, "groups": []}}, "referralId": "e-0-5707bcb9498e709b544e20b2-4"}, {"reasons": {"count": 0, "items": [{"summary": "This spot is popular", "type": "general", "reasonName": "globalInteractionReason"}]}, "venue": {"id": "4d84f8f950913704f5db8b5b", "name": "Bakka Phoenix Books", "location": {"address": "86 Harbord St.", "crossStreet": "at Spadina Ave.", "lat": 43.662958633796144, "lng": -79.40260149079198, "labeledLatLngs": [{"label": "display", "lat": 43.662958633796144, "lng": -79.40260149079198}], "distance": 207, "postalCode": "M5S 2H7", "cc": "CA", "city": "Toronto", "state": "ON", "country": "Canada", "formattedAddress": ["86 Harbord St. (at Spadina Ave.)", "Toronto ON M5S 2H7", "Canada"]}, "categories": [{"id": "4bf58dd8d48988d114951735", "name": "Bookstore", "pluralName": "Bookstores", "shortName": "Bookstore", "icon": {"prefix": "https://ss3.4sqi.net/img/categories_v2/shops/bookstore_", "suffix": ".png"}, "primary": true}], "photos": {"count": 0, "groups": []}}, "referralId": "e-0-4d84f8f950913704f5db8b5b-5"}, {"reasons": {"count": 0, "items": [{"summary": "This spot is popular", "type": "general", "reasonName": "globalInteractionReason"}]}, "venue": {"id": "53b74e05498efc27ecea1954", "name": "Almond Butterfly", "location": {"address": "100 Harbord St", "lat": 43.66283554072087, "lng": -79.40336494731255, "labeledLatLngs": [{"label": "display", "lat": 43.66283554072087, "lng": -79.40336494731255}], "distance": 267, "postalCode": "M5S 1G6", "cc": "CA", "city": "Toronto", "state": "ON", "country": "Canada", "formattedAddress": ["100 Harbord St", "Toronto ON M5S 1G6", "Canada"]}, "categories": [{"id": "4bf58dd8d48988d16a941735", "name": "Bakery", "pluralName": "Bakeries", "shortName": "Bakery", "icon": {"prefix": "https://ss3.4sqi.net/img/categories_v2/food/bakery_", "suffix": ".png"}, "primary": true}], "photos": {"count": 0, "groups": []}}, "referralId": "e-0-53b74e05498efc27ecea1954-6"}, {"reasons": {"count": 0, "items": [{"summary": "This spot is popular", "type": "general", "reasonName": "globalInteractionReason"}]}, "venue": {"id": "4ae8c418f964a52019b221e3", "name": "Athletic Centre", "location": {"address": "55 Harbord St", "crossStreet": "University of Toronto", "lat": 43.66248699305214, "lng": -79.40065676565847, "labeledLatLngs": [{"label": "display", "lat": 43.66248699305214, "lng": -79.40065676565847}], "distance": 54, "postalCode": "M5S 2W6", "cc": "CA", "city": "Toronto", "state": "ON", "country": "Canada", "formattedAddress": ["55 Harbord St (University of Toronto)", "Toronto ON M5S 2W6", "Canada"]}, "categories": [{"id": "4bf58dd8d48988d1b2941735", "name": "College Gym", "pluralName": "College Gyms", "shortName": "Gym", "icon": {"prefix": "https://ss3.4sqi.net/img/categories_v2/building/gym_", "suffix": ".png"}, "primary": true}], "photos": {"count": 0, "groups": []}}, "referralId": "e-0-4ae8c418f964a52019b221e3-7"}, {"reasons": {"count": 0, "items": [{"summary": "This spot is popular", "type": "general", "reasonName": "globalInteractionReason"}]}, "venue": {"id": "59319e3ae185f3283a4fc06a", "name": "Cafe Cancan", "location": {"address": "89 Harbord St.", "lat": 43.662735486588865, "lng": -79.40344738555669, "labeledLatLngs": [{"label": "display", "lat": 43.662735486588865, "lng": -79.40344738555669}], "distance": 273, "postalCode": "M5S 1G4", "cc": "CA", "city": "Toronto", "state": "ON", "country": "Canada", "formattedAddress": ["89 Harbord St.", "Toronto ON M5S 1G4", "Canada"]}, "categories": [{"id": "4bf58dd8d48988d10c941735", "name": "French Restaurant", "pluralName": "French Restaurants", "shortName": "French", "icon": {"prefix": "https://ss3.4sqi.net/img/categories_v2/food/french_", "suffix": ".png"}, "primary": true}], "photos": {"count": 0, "groups": []}}, "referralId": "e-0-59319e3ae185f3283a4fc06a-8"}, {"reasons": {"count": 0, "items": [{"summary": "This spot is popular", "type": "general", "reasonName": "globalInteractionReason"}]}, "venue": {"id": "4aec4c24f964a520e9c521e3", "name": "Harbord Bakery & Calandria", "location": {"address": "115 Harbord St.", "crossStreet": "at Spadina Ave.", "lat": 43.662519096022976, "lng": -79.40444270567404, "labeledLatLngs": [{"label": "display", "lat": 43.662519096022976, "lng": -79.40444270567404}], "distance": 354, "postalCode": "M5S 1G8", "cc": "CA", "city": "Toronto", "state": "ON", "country": "Canada", "formattedAddress": ["115 Harbord St. (at Spadina Ave.)", "Toronto ON M5S 1G8", "Canada"]}, "categories": [{"id": "4bf58dd8d48988d16a941735", "name": "Bakery", "pluralName": "Bakeries", "shortName": "Bakery", "icon": {"prefix": "https://ss3.4sqi.net/img/categories_v2/food/bakery_", "suffix": ".png"}, "primary": true}], "photos": {"count": 0, "groups": []}}, "referralId": "e-0-4aec4c24f964a520e9c521e3-9"}, {"reasons": {"count": 0, "items": [{"summary": "This spot is popular", "type": "general", "reasonName": "globalInteractionReason"}]}, "venue": {"id": "4ade455bf964a520837421e3", "name": "Harbord House", "location": {"address": "150 Harbord St.", "lat": 43.66246595195944, "lng": -79.40541041671369, "labeledLatLngs": [{"label": "display", "lat": 43.66246595195944, "lng": -79.40541041671369}], "distance": 432, "postalCode": "M5S 1H2", "cc": "CA", "city": "Toronto", "state": "ON", "country": "Canada", "formattedAddress": ["150 Harbord St.", "Toronto ON M5S 1H2", "Canada"]}, "categories": [{"id": "4bf58dd8d48988d116941735", "name": "Bar", "pluralName": "Bars", "shortName": "Bar", "icon": {"prefix": "https://ss3.4sqi.net/img/categories_v2/nightlife/pub_", "suffix": ".png"}, "primary": true}], "photos": {"count": 0, "groups": []}, "venuePage": {"id": "58019843"}}, "referralId": "e-0-4ade455bf964a520837421e3-10"}, {"reasons": {"count": 0, "items": [{"summary": "This spot is popular", "type": "general", "reasonName": "globalInteractionReason"}]}, "venue": {"id": "4b6cbfd2f964a52072512ce3", "name": "Akai Sushi", "location": {"address": "168 Major St.", "crossStreet": "at Harbord St.", "lat": 43.66246971191281, "lng": -79.40494572728848, "labeledLatLngs": [{"label": "display", "lat": 43.66246971191281, "lng": -79.40494572728848}], "distance": 395, "postalCode": "M5S 1G8", "cc": "CA", "city": "Toronto", "state": "ON", "country": "Canada", "formattedAddress": ["168 Major St. (at Harbord St.)", "Toronto ON M5S 1G8", "Canada"]}, "categories": [{"id": "4bf58dd8d48988d1d2941735", "name": "Sushi Restaurant", "pluralName": "Sushi Restaurants", "shortName": "Sushi", "icon": {"prefix": "https://ss3.4sqi.net/img/categories_v2/food/sushi_", "suffix": ".png"}, "primary": true}], "photos": {"count": 0, "groups": []}}, "referralId": "e-0-4b6cbfd2f964a52072512ce3-11"}, {"reasons": {"count": 0, "items": [{"summary": "This spot is popular", "type": "general", "reasonName": "globalInteractionReason"}]}, "venue": {"id": "56b2d44e498e65064938373c", "name": "FLOCK Rotisserie + Greens", "location": {"address": "97 Harbord St", "crossStreet": "at Robert St", "lat": 43.66263716795857, "lng": -79.4037981720113, "labeledLatLngs": [{"label": "display", "lat": 43.66263716795857, "lng": -79.4037981720113}], "distance": 301, "postalCode": "M5S 1G4", "cc": "CA", "city": "Toronto", "state": "ON", "country": "Canada", "formattedAddress": ["97 Harbord St (at Robert St)", "Toronto ON M5S 1G4", "Canada"]}, "categories": [{"id": "52e81612bcbc57f1066b7a00", "name": "Comfort Food Restaurant", "pluralName": "Comfort Food Restaurants", "shortName": "Comfort Food", "icon": {"prefix": "https://ss3.4sqi.net/img/categories_v2/food/default_", "suffix": ".png"}, "primary": true}], "photos": {"count": 0, "groups": []}}, "referralId": "e-0-56b2d44e498e65064938373c-12"}, {"reasons": {"count": 0, "items": [{"summary": "This spot is popular", "type": "general", "reasonName": "globalInteractionReason"}]}, "venue": {"id": "5012bdc3e4b0907580260b70", "name": "Innis Cafe", "location": {"address": "2 Sussex Ave.", "lat": 43.665401003815745, "lng": -79.39971478706231, "labeledLatLngs": [{"label": "display", "lat": 43.665401003815745, "lng": -79.39971478706231}], "distance": 302, "cc": "CA", "city": "Toronto", "state": "ON", "country": "Canada", "formattedAddress": ["2 Sussex Ave.", "Toronto ON", "Canada"]}, "categories": [{"id": "4bf58dd8d48988d16d941735", "name": "Caf\u00e9", "pluralName": "Caf\u00e9s", "shortName": "Caf\u00e9", "icon": {"prefix": "https://ss3.4sqi.net/img/categories_v2/food/cafe_", "suffix": ".png"}, "primary": true}], "photos": {"count": 0, "groups": []}}, "referralId": "e-0-5012bdc3e4b0907580260b70-13"}, {"reasons": {"count": 0, "items": [{"summary": "This spot is popular", "type": "general", "reasonName": "globalInteractionReason"}]}, "venue": {"id": "59f7bad335811b13a241e498", "name": "Gyubee", "location": {"address": "355 Bloor St W", "lat": 43.66708824997601, "lng": -79.4005710246546, "labeledLatLngs": [{"label": "display", "lat": 43.66708824997601, "lng": -79.4005710246546}], "distance": 490, "postalCode": "M5S", "cc": "CA", "city": "Toronto", "state": "ON", "country": "Canada", "formattedAddress": ["355 Bloor St W", "Toronto ON M5S", "Canada"]}, "categories": [{"id": "4bf58dd8d48988d111941735", "name": "Japanese Restaurant", "pluralName": "Japanese Restaurants", "shortName": "Japanese", "icon": {"prefix": "https://ss3.4sqi.net/img/categories_v2/food/japanese_", "suffix": ".png"}, "primary": true}], "photos": {"count": 0, "groups": []}}, "referralId": "e-0-59f7bad335811b13a241e498-14"}, {"reasons": {"count": 0, "items": [{"summary": "This spot is popular", "type": "general", "reasonName": "globalInteractionReason"}]}, "venue": {"id": "517ae303011ced68fcc25005", "name": "Harvest Kitchen", "location": {"address": "124 Harbord St", "crossStreet": "Spadina Avenue", "lat": 43.662713770749434, "lng": -79.40433001263669, "labeledLatLngs": [{"label": "display", "lat": 43.662713770749434, "lng": -79.40433001263669}], "distance": 344, "postalCode": "M5S 1G6", "cc": "CA", "city": "Toronto", "state": "ON", "country": "Canada", "formattedAddress": ["124 Harbord St (Spadina Avenue)", "Toronto ON M5S 1G6", "Canada"]}, "categories": [{"id": "4bf58dd8d48988d1c4941735", "name": "Restaurant", "pluralName": "Restaurants", "shortName": "Restaurant", "icon": {"prefix": "https://ss3.4sqi.net/img/categories_v2/food/default_", "suffix": ".png"}, "primary": true}], "photos": {"count": 0, "groups": []}}, "referralId": "e-0-517ae303011ced68fcc25005-15"}, {"reasons": {"count": 0, "items": [{"summary": "This spot is popular", "type": "general", "reasonName": "globalInteractionReason"}]}, "venue": {"id": "4c1281007f7f2d7ff76cdd68", "name": "Coach House Printing", "location": {"address": "80 bpNichol Lane", "lat": 43.66631964001284, "lng": -79.40027745050322, "labeledLatLngs": [{"label": "display", "lat": 43.66631964001284, "lng": -79.40027745050322}], "distance": 403, "postalCode": "M5S 3J4", "cc": "CA", "city": "Toronto", "state": "ON", "country": "Canada", "formattedAddress": ["80 bpNichol Lane", "Toronto ON M5S 3J4", "Canada"]}, "categories": [{"id": "4bf58dd8d48988d114951735", "name": "Bookstore", "pluralName": "Bookstores", "shortName": "Bookstore", "icon": {"prefix": "https://ss3.4sqi.net/img/categories_v2/shops/bookstore_", "suffix": ".png"}, "primary": true}], "photos": {"count": 0, "groups": []}}, "referralId": "e-0-4c1281007f7f2d7ff76cdd68-16"}, {"reasons": {"count": 0, "items": [{"summary": "This spot is popular", "type": "general", "reasonName": "globalInteractionReason"}]}, "venue": {"id": "4ce47a4bc850721e2b8bc38a", "name": "Hart House Theatre", "location": {"address": "7 Hart House Cir.", "crossStreet": "University of Toronto", "lat": 43.66357134217992, "lng": -79.3946163990837, "labeledLatLngs": [{"label": "display", "lat": 43.66357134217992, "lng": -79.3946163990837}], "distance": 448, "postalCode": "M5S 3H3", "cc": "CA", "city": "Toronto", "state": "ON", "country": "Canada", "formattedAddress": ["7 Hart House Cir. (University of Toronto)", "Toronto ON M5S 3H3", "Canada"]}, "categories": [{"id": "4bf58dd8d48988d137941735", "name": "Theater", "pluralName": "Theaters", "shortName": "Theater", "icon": {"prefix": "https://ss3.4sqi.net/img/categories_v2/arts_entertainment/performingarts_theater_", "suffix": ".png"}, "primary": true}], "photos": {"count": 0, "groups": []}}, "referralId": "e-0-4ce47a4bc850721e2b8bc38a-17"}, {"reasons": {"count": 0, "items": [{"summary": "This spot is popular", "type": "general", "reasonName": "globalInteractionReason"}]}, "venue": {"id": "4ad4c062f964a520e6f720e3", "name": "Innis Town Hall", "location": {"address": "2 Sussex Ave", "crossStreet": "at St. George St", "lat": 43.66541957367295, "lng": -79.39954635185894, "labeledLatLngs": [{"label": "display", "lat": 43.66541957367295, "lng": -79.39954635185894}], "distance": 305, "postalCode": "M5S 1J5", "cc": "CA", "city": "Toronto", "state": "ON", "country": "Canada", "formattedAddress": ["2 Sussex Ave (at St. George St)", "Toronto ON M5S 1J5", "Canada"]}, "categories": [{"id": "4bf58dd8d48988d199941735", "name": "College Arts Building", "pluralName": "College Arts Buildings", "shortName": "Arts", "icon": {"prefix": "https://ss3.4sqi.net/img/categories_v2/arts_entertainment/default_", "suffix": ".png"}, "primary": true}], "photos": {"count": 0, "groups": []}}, "referralId": "e-0-4ad4c062f964a520e6f720e3-18"}, {"reasons": {"count": 0, "items": [{"summary": "This spot is popular", "type": "general", "reasonName": "globalInteractionReason"}]}, "venue": {"id": "51b8ebe8e4b051460c6dfa24", "name": "The Clubhouse", "location": {"address": "455a Spadina", "crossStreet": "College", "lat": 43.6582455666801, "lng": -79.39989387989043, "labeledLatLngs": [{"label": "display", "lat": 43.6582455666801, "lng": -79.39989387989043}], "distance": 495, "cc": "CA", "city": "Toronto", "state": "ON", "country": "Canada", "formattedAddress": ["455a Spadina (College)", "Toronto ON", "Canada"]}, "categories": [{"id": "4bf58dd8d48988d1c5941735", "name": "Sandwich Place", "pluralName": "Sandwich Places", "shortName": "Sandwiches", "icon": {"prefix": "https://ss3.4sqi.net/img/categories_v2/food/deli_", "suffix": ".png"}, "primary": true}], "photos": {"count": 0, "groups": []}}, "referralId": "e-0-51b8ebe8e4b051460c6dfa24-19"}, {"reasons": {"count": 0, "items": [{"summary": "This spot is popular", "type": "general", "reasonName": "globalInteractionReason"}]}, "venue": {"id": "51cc15e1ccda974166ee304b", "name": "Red Fish Blue Fish Creative Cafe", "location": {"address": "73 Harbord St", "crossStreet": "at Sussex Mews", "lat": 43.662826909852434, "lng": -79.40281748771667, "labeledLatLngs": [{"label": "display", "lat": 43.662826909852434, "lng": -79.40281748771667}], "distance": 223, "postalCode": "M5S 1G4", "cc": "CA", "city": "Toronto", "state": "ON", "country": "Canada", "formattedAddress": ["73 Harbord St (at Sussex Mews)", "Toronto ON M5S 1G4", "Canada"]}, "categories": [{"id": "4bf58dd8d48988d16d941735", "name": "Caf\u00e9", "pluralName": "Caf\u00e9s", "shortName": "Caf\u00e9", "icon": {"prefix": "https://ss3.4sqi.net/img/categories_v2/food/cafe_", "suffix": ".png"}, "primary": true}], "photos": {"count": 0, "groups": []}}, "referralId": "e-0-51cc15e1ccda974166ee304b-20"}, {"reasons": {"count": 0, "items": [{"summary": "This spot is popular", "type": "general", "reasonName": "globalInteractionReason"}]}, "venue": {"id": "4b340703f964a5200d2425e3", "name": "River Tai Restaurant", "location": {"address": "92 Harbord St", "lat": 43.66290213, "lng": -79.403167, "labeledLatLngs": [{"label": "display", "lat": 43.66290213, "lng": -79.403167}], "distance": 252, "postalCode": "M5S 1G5", "cc": "CA", "city": "Toronto", "state": "ON", "country": "Canada", "formattedAddress": ["92 Harbord St", "Toronto ON M5S 1G5", "Canada"]}, "categories": [{"id": "4bf58dd8d48988d145941735", "name": "Chinese Restaurant", "pluralName": "Chinese Restaurants", "shortName": "Chinese", "icon": {"prefix": "https://ss3.4sqi.net/img/categories_v2/food/asian_", "suffix": ".png"}, "primary": true}], "photos": {"count": 0, "groups": []}}, "referralId": "e-0-4b340703f964a5200d2425e3-21"}, {"reasons": {"count": 0, "items": [{"summary": "This spot is popular", "type": "general", "reasonName": "globalInteractionReason"}]}, "venue": {"id": "4b76f3a0f964a520d86d2ee3", "name": "Second Cup", "location": {"address": "66 Harbord Street", "crossStreet": "Harbord and Spadina", "lat": 43.66355135916493, "lng": -79.40178748741704, "labeledLatLngs": [{"label": "display", "lat": 43.66355135916493, "lng": -79.40178748741704}], "distance": 169, "postalCode": "M5S 1G2", "cc": "CA", "city": "Toronto", "state": "ON", "country": "Canada", "formattedAddress": ["66 Harbord Street (Harbord and Spadina)", "Toronto ON M5S 1G2", "Canada"]}, "categories": [{"id": "4bf58dd8d48988d16d941735", "name": "Caf\u00e9", "pluralName": "Caf\u00e9s", "shortName": "Caf\u00e9", "icon": {"prefix": "https://ss3.4sqi.net/img/categories_v2/food/cafe_", "suffix": ".png"}, "primary": true}], "photos": {"count": 0, "groups": []}}, "referralId": "e-0-4b76f3a0f964a520d86d2ee3-22"}, {"reasons": {"count": 0, "items": [{"summary": "This spot is popular", "type": "general", "reasonName": "globalInteractionReason"}]}, "venue": {"id": "4b082b04f964a5204a0523e3", "name": "A & C Games", "location": {"address": "452 Spadina Ave.", "crossStreet": "at College St", "lat": 43.66493880046117, "lng": -79.40319438893309, "labeledLatLngs": [{"label": "display", "lat": 43.66493880046117, "lng": -79.40319438893309}], "distance": 355, "postalCode": "M5S 2J2", "cc": "CA", "city": "Toronto", "state": "ON", "country": "Canada", "formattedAddress": ["452 Spadina Ave. (at College St)", "Toronto ON M5S 2J2", "Canada"]}, "categories": [{"id": "4bf58dd8d48988d10b951735", "name": "Video Game Store", "pluralName": "Video Game Stores", "shortName": "Video Games", "icon": {"prefix": "https://ss3.4sqi.net/img/categories_v2/shops/videogames_", "suffix": ".png"}, "primary": true}], "photos": {"count": 0, "groups": []}}, "referralId": "e-0-4b082b04f964a5204a0523e3-23"}, {"reasons": {"count": 0, "items": [{"summary": "This spot is popular", "type": "general", "reasonName": "globalInteractionReason"}]}, "venue": {"id": "4c488f1576d72d7f86e1404d", "name": "Subway", "location": {"address": "130 St. George", "crossStreet": "Harbord", "lat": 43.66448931335139, "lng": -79.39911750609278, "labeledLatLngs": [{"label": "display", "lat": 43.66448931335139, "lng": -79.39911750609278}], "distance": 213, "cc": "CA", "city": "Toronto", "state": "ON", "country": "Canada", "formattedAddress": ["130 St. George (Harbord)", "Toronto ON", "Canada"]}, "categories": [{"id": "4bf58dd8d48988d1c5941735", "name": "Sandwich Place", "pluralName": "Sandwich Places", "shortName": "Sandwiches", "icon": {"prefix": "https://ss3.4sqi.net/img/categories_v2/food/deli_", "suffix": ".png"}, "primary": true}], "photos": {"count": 0, "groups": []}}, "referralId": "e-0-4c488f1576d72d7f86e1404d-24"}, {"reasons": {"count": 0, "items": [{"summary": "This spot is popular", "type": "general", "reasonName": "globalInteractionReason"}]}, "venue": {"id": "4b841278f964a520ec1e31e3", "name": "Daddyo's", "location": {"address": "673 Spadina Ave", "crossStreet": "at Sussex Ave", "lat": 43.66462215321565, "lng": -79.40268488417684, "labeledLatLngs": [{"label": "display", "lat": 43.66462215321565, "lng": -79.40268488417684}], "distance": 301, "cc": "CA", "city": "Toronto", "state": "ON", "country": "Canada", "formattedAddress": ["673 Spadina Ave (at Sussex Ave)", "Toronto ON", "Canada"]}, "categories": [{"id": "4bf58dd8d48988d110941735", "name": "Italian Restaurant", "pluralName": "Italian Restaurants", "shortName": "Italian", "icon": {"prefix": "https://ss3.4sqi.net/img/categories_v2/food/italian_", "suffix": ".png"}, "primary": true}], "photos": {"count": 0, "groups": []}}, "referralId": "e-0-4b841278f964a520ec1e31e3-25"}, {"reasons": {"count": 0, "items": [{"summary": "This spot is popular", "type": "general", "reasonName": "globalInteractionReason"}]}, "venue": {"id": "4c3f6066520fa593a880c6ac", "name": "Second Cup Coffee Co.", "location": {"address": "105 St. George Street", "crossStreet": "in Rotman Building", "lat": 43.66535, "lng": -79.398376, "labeledLatLngs": [{"label": "display", "lat": 43.66535, "lng": -79.398376}], "distance": 324, "postalCode": "M5S 3E6", "cc": "CA", "city": "Toronto", "state": "ON", "country": "Canada", "formattedAddress": ["105 St. George Street (in Rotman Building)", "Toronto ON M5S 3E6", "Canada"]}, "categories": [{"id": "4bf58dd8d48988d16d941735", "name": "Caf\u00e9", "pluralName": "Caf\u00e9s", "shortName": "Caf\u00e9", "icon": {"prefix": "https://ss3.4sqi.net/img/categories_v2/food/cafe_", "suffix": ".png"}, "primary": true}], "photos": {"count": 0, "groups": []}}, "referralId": "e-0-4c3f6066520fa593a880c6ac-26"}, {"reasons": {"count": 0, "items": [{"summary": "This spot is popular", "type": "general", "reasonName": "globalInteractionReason"}]}, "venue": {"id": "4bc64a7ad35d9c742083e23a", "name": "Hart House Gym", "location": {"address": "7 Hart House Cir.", "crossStreet": "University of Toronto", "lat": 43.66417202442517, "lng": -79.39488839857401, "labeledLatLngs": [{"label": "display", "lat": 43.66417202442517, "lng": -79.39488839857401}], "distance": 446, "postalCode": "M5S 3H3", "cc": "CA", "city": "Toronto", "state": "ON", "country": "Canada", "formattedAddress": ["7 Hart House Cir. (University of Toronto)", "Toronto ON M5S 3H3", "Canada"]}, "categories": [{"id": "4bf58dd8d48988d176941735", "name": "Gym", "pluralName": "Gyms", "shortName": "Gym", "icon": {"prefix": "https://ss3.4sqi.net/img/categories_v2/building/gym_", "suffix": ".png"}, "primary": true}], "photos": {"count": 0, "groups": []}}, "referralId": "e-0-4bc64a7ad35d9c742083e23a-27"}, {"reasons": {"count": 0, "items": [{"summary": "This spot is popular", "type": "general", "reasonName": "globalInteractionReason"}]}, "venue": {"id": "4af11491f964a520aee021e3", "name": "Charlie's Gallery", "location": {"address": "112 Harbord St.", "crossStreet": "@ Robert St", "lat": 43.662809819602124, "lng": -79.40382164131282, "labeledLatLngs": [{"label": "display", "lat": 43.662809819602124, "lng": -79.40382164131282}], "distance": 304, "postalCode": "M5S\u00a01G6", "cc": "CA", "city": "Toronto", "state": "ON", "country": "Canada", "formattedAddress": ["112 Harbord St. (@ Robert St)", "Toronto ON M5S\u00a01G6", "Canada"]}, "categories": [{"id": "4bf58dd8d48988d116941735", "name": "Bar", "pluralName": "Bars", "shortName": "Bar", "icon": {"prefix": "https://ss3.4sqi.net/img/categories_v2/nightlife/pub_", "suffix": ".png"}, "primary": true}], "photos": {"count": 0, "groups": []}}, "referralId": "e-0-4af11491f964a520aee021e3-28"}, {"reasons": {"count": 0, "items": [{"summary": "This spot is popular", "type": "general", "reasonName": "globalInteractionReason"}]}, "venue": {"id": "56689f1a498e00175f4ba8af", "name": "Magic Noodle", "location": {"address": "93 Harbord St", "crossStreet": "at Robert St", "lat": 43.66272766027783, "lng": -79.4036022699349, "labeledLatLngs": [{"label": "display", "lat": 43.66272766027783, "lng": -79.4036022699349}], "distance": 286, "postalCode": "M5S 1G4", "cc": "CA", "city": "Toronto", "state": "ON", "country": "Canada", "formattedAddress": ["93 Harbord St (at Robert St)", "Toronto ON M5S 1G4", "Canada"]}, "categories": [{"id": "4bf58dd8d48988d1d1941735", "name": "Noodle House", "pluralName": "Noodle Houses", "shortName": "Noodles", "icon": {"prefix": "https://ss3.4sqi.net/img/categories_v2/food/ramen_", "suffix": ".png"}, "primary": true}], "photos": {"count": 0, "groups": []}}, "referralId": "e-0-56689f1a498e00175f4ba8af-29"}, {"reasons": {"count": 0, "items": [{"summary": "This spot is popular", "type": "general", "reasonName": "globalInteractionReason"}]}, "venue": {"id": "4b9c3602f964a520415536e3", "name": "The Beer Store", "location": {"address": "720 Spadina Ave.", "crossStreet": "Bloor St. W.", "lat": 43.6653855, "lng": -79.4034771, "labeledLatLngs": [{"label": "display", "lat": 43.6653855, "lng": -79.4034771}], "distance": 407, "postalCode": "M5S 2T9", "cc": "CA", "city": "Toronto", "state": "ON", "country": "Canada", "formattedAddress": ["720 Spadina Ave. (Bloor St. W.)", "Toronto ON M5S 2T9", "Canada"]}, "categories": [{"id": "5370f356bcbc57f1066c94c2", "name": "Beer Store", "pluralName": "Beer Stores", "shortName": "Beer Store", "icon": {"prefix": "https://ss3.4sqi.net/img/categories_v2/nightlife/beergarden_", "suffix": ".png"}, "primary": true}], "photos": {"count": 0, "groups": []}}, "referralId": "e-0-4b9c3602f964a520415536e3-30"}, {"reasons": {"count": 0, "items": [{"summary": "This spot is popular", "type": "general", "reasonName": "globalInteractionReason"}]}, "venue": {"id": "4b2bc155f964a52050ba24e3", "name": "DT Bistro", "location": {"address": "154 harbord street", "crossStreet": "Brunswick", "lat": 43.662375, "lng": -79.405734, "labeledLatLngs": [{"label": "display", "lat": 43.662375, "lng": -79.405734}], "distance": 459, "postalCode": "M5s 1h2", "cc": "CA", "city": "Toronto", "state": "ON", "country": "Canada", "formattedAddress": ["154 harbord street (Brunswick)", "Toronto ON M5s 1h2", "Canada"]}, "categories": [{"id": "4bf58dd8d48988d16d941735", "name": "Caf\u00e9", "pluralName": "Caf\u00e9s", "shortName": "Caf\u00e9", "icon": {"prefix": "https://ss3.4sqi.net/img/categories_v2/food/cafe_", "suffix": ".png"}, "primary": true}], "photos": {"count": 0, "groups": []}}, "referralId": "e-0-4b2bc155f964a52050ba24e3-31"}, {"reasons": {"count": 0, "items": [{"summary": "This spot is popular", "type": "general", "reasonName": "globalInteractionReason"}]}, "venue": {"id": "4ad4c05df964a5207bf620e3", "name": "Comfort Zone", "location": {"address": "480 Spadina Avenue", "lat": 43.65839738353197, "lng": -79.40027391815754, "labeledLatLngs": [{"label": "display", "lat": 43.65839738353197, "lng": -79.40027391815754}], "distance": 478, "postalCode": "M5H 2HI", "cc": "CA", "city": "Toronto", "state": "ON", "country": "Canada", "formattedAddress": ["480 Spadina Avenue", "Toronto ON M5H 2HI", "Canada"]}, "categories": [{"id": "4bf58dd8d48988d11f941735", "name": "Nightclub", "pluralName": "Nightclubs", "shortName": "Nightclub", "icon": {"prefix": "https://ss3.4sqi.net/img/categories_v2/nightlife/nightclub_", "suffix": ".png"}, "primary": true}], "photos": {"count": 0, "groups": []}}, "referralId": "e-0-4ad4c05df964a5207bf620e3-32"}, {"reasons": {"count": 0, "items": [{"summary": "This spot is popular", "type": "general", "reasonName": "globalInteractionReason"}]}, "venue": {"id": "559ea1e2498e426408cca94a", "name": "Smoke's Poutinerie/Weinerie", "location": {"address": "457 Spadina Ave", "crossStreet": "College", "lat": 43.658258885790666, "lng": -79.40013635216246, "labeledLatLngs": [{"label": "display", "lat": 43.658258885790666, "lng": -79.40013635216246}], "distance": 493, "cc": "CA", "city": "Toronto", "state": "ON", "country": "Canada", "formattedAddress": ["457 Spadina Ave (College)", "Toronto ON", "Canada"]}, "categories": [{"id": "56aa371be4b08b9a8d5734c7", "name": "Poutine Place", "pluralName": "Poutine Places", "shortName": "Poutine Place", "icon": {"prefix": "https://ss3.4sqi.net/img/categories_v2/food/fastfood_", "suffix": ".png"}, "primary": true}], "photos": {"count": 0, "groups": []}}, "referralId": "e-0-559ea1e2498e426408cca94a-33"}, {"reasons": {"count": 0, "items": [{"summary": "This spot is popular", "type": "general", "reasonName": "globalInteractionReason"}]}, "venue": {"id": "5886ca2c0802cb192b9a2f33", "name": "East of Brunswick", "location": {"address": "720 Spadina Avenue", "lat": 43.66560880777417, "lng": -79.40332426293872, "labeledLatLngs": [{"label": "display", "lat": 43.66560880777417, "lng": -79.40332426293872}], "distance": 417, "postalCode": "M5S 2T9", "cc": "CA", "city": "Toronto", "state": "ON", "country": "Canada", "formattedAddress": ["720 Spadina Avenue", "Toronto ON M5S 2T9", "Canada"]}, "categories": [{"id": "4bf58dd8d48988d11b941735", "name": "Pub", "pluralName": "Pubs", "shortName": "Pub", "icon": {"prefix": "https://ss3.4sqi.net/img/categories_v2/nightlife/pub_", "suffix": ".png"}, "primary": true}], "photos": {"count": 0, "groups": []}}, "referralId": "e-0-5886ca2c0802cb192b9a2f33-34"}]}]}}