{"meta": {"code": 200, "requestId": "5e1f6c3a14a126001be7e811"}, "response": {"suggestedFilters": {"header": "Tap to show:", "filters": [{"name": "Open now", "key": "openNow"}]}, "headerLocation": "Davisville", "headerFullLocation": "Davisville, Toronto", "headerLocationGranularity": "neighborhood", "totalResults": 33, "suggestedBounds": {"ne": {"lat": 43.7088244045, "lng": -79.38257691798016}, "sw": {"lat": 43.699824395499995, "lng": -79.39500328201983}}, "groups": [{"type": "Recommended Places", "name": "recommended", "items": [{"reasons": {"count": 0, "items": [{"summary": "This spot is popular", "type": "general", "reasonName": "globalInteractionReason"}]}, "venue": {"id": "4ae6ea6ef964a52082a721e3", "name": "Jules Cafe Patisserie", "location": {"address": "617 Mt Pleasant Ave", "crossStreet": "at Manor Rd E", "lat": 43.70413799694304, "lng": -79.38841260442167, "labeledLatLngs": [{"label": "display", "lat": 43.70413799694304, "lng": -79.38841260442167}], "distance": 36, "postalCode": "M4S 2M5", "cc": "CA", "neighborhood": "Davisville", "city": "Toronto", "state": "ON", "country": "Canada", "formattedAddress": ["617 Mt Pleasant Ave (at Manor Rd E)", "Toronto ON M4S 2M5", "Canada"]}, "categories": [{"id": "4bf58dd8d48988d1d0941735", "name": "Dessert Shop", "pluralName": "Dessert Shops", "shortName": "Desserts", "icon": {"prefix": "https://ss3.4sqi.net/img/categories_v2/food/dessert_", "suffix": ".png"}, "primary": true}], "photos": {"count": 0, "groups": []}}, "referralId": "e-0-4ae6ea6ef964a52082a721e3-0"}, {"reasons": {"count": 0, "items": [{"summary": "This spot is popular", "type": "general", "reasonName": "globalInteractionReason"}]}, "venue": {"id": "4b939ca4f964a520344a34e3", "name": "Thobors Boulangerie Patisserie Caf\u00e9", "location": {"address": "627 Mt Pleasant Rd.", "crossStreet": "btwn Manor Rd. and Hillsdale Ave.", "lat": 43.704513877453266, "lng": -79.38861602551758, "labeledLatLngs": [{"label": "display", "lat": 43.704513877453266, "lng": -79.38861602551758}], "distance": 25, "postalCode": "M4S 2M9", "cc": "CA", "city": "Toronto", "state": "ON", "country": "Canada", "formattedAddress": ["627 Mt Pleasant Rd. (btwn Manor Rd. and Hillsdale Ave.)", "Toronto ON M4S 2M9", "Canada"]}, "categories": [{"id": "4bf58dd8d48988d16d941735", "name": "Caf\u00e9", "pluralName": "Caf\u00e9s", "shortName": "Caf\u00e9", "icon": {"prefix": "https://ss3.4sqi.net/img/categories_v2/food/cafe_", "suffix": ".png"}, "primary": true}], "photos": {"count": 0, "groups": []}}, "referralId": "e-0-4b939ca4f964a520344a34e3-1"}, {"reasons": {"count": 0, "items": [{"summary": "This spot is popular", "type": "general", "reasonName": "globalInteractionReason"}]}, "venue": {"id": "4adb97f3f964a520402921e3", "name": "XO Gelato", "location": {"address": "647 Mount Pleasant Rd.", "crossStreet": "at Hillsdale Ave. E", "lat": 43.70517671239303, "lng": -79.3887930388649, "labeledLatLngs": [{"label": "display", "lat": 43.70517671239303, "lng": -79.3887930388649}], "distance": 94, "postalCode": "M4S 2N2", "cc": "CA", "city": "Toronto", "state": "ON", "country": "Canada", "formattedAddress": ["647 Mount Pleasant Rd. (at Hillsdale Ave. E)", "Toronto ON M4S 2N2", "Canada"]}, "categories": [{"id": "4bf58dd8d48988d1d0941735", "name": "Dessert Shop", "pluralName": "Dessert Shops", "shortName": "Desserts", "icon": {"prefix": "https://ss3.4sqi.net/img/categories_v2/food/dessert_", "suffix": ".png"}, "primary": true}], "photos": {"count": 0, "groups": []}}, "referralId": "e-0-4adb97f3f964a520402921e3-2"}, {"reasons": {"count": 0, "items": [{"summary": "This spot is popular", "type": "general", "reasonName": "globalInteractionReason"}]}, "venue": {"id": "5169d445e4b07de190b5c3d6", "name": "Marigold Indian Bistro", "location": {"address": "552 Mount Pleasant Rd.", "lat": 43.702880859375, "lng": -79.38800811767578, "labeledLatLngs": [{"label": "display", "lat": 43.702880859375, "lng": -79.38800811767578}], "distance": 172, "cc": "CA", "city": "Toronto", "state": "ON", "country": "Canada", "formattedAddress": ["552 Mount Pleasant Rd.", "Toronto ON", "Canada"]}, "categories": [{"id": "4bf58dd8d48988d10f941735", "name": "Indian Restaurant", "pluralName": "Indian Restaurants", "shortName": "Indian", "icon": {"prefix": "https://ss3.4sqi.net/img/categories_v2/food/indian_", "suffix": ".png"}, "primary": true}], "photos": {"count": 0, "groups": []}, "venuePage": {"id": "98706662"}}, "referralId": "e-0-5169d445e4b07de190b5c3d6-3"}, {"reasons": {"count": 0, "items": [{"summary": "This spot is popular", "type": "general", "reasonName": "globalInteractionReason"}]}, "venue": {"id": "4e125f30b61c637b97b6251c", "name": "Viva Napoli", "location": {"address": "679 Mt. Pleasant Rd.", "crossStreet": "btwn. Soudan Ave. and Hillsdale Ave. E", "lat": 43.70575225315343, "lng": -79.38912464296774, "labeledLatLngs": [{"label": "display", "lat": 43.70575225315343, "lng": -79.38912464296774}], "distance": 161, "postalCode": "M4S", "cc": "CA", "city": "Toronto", "state": "ON", "country": "Canada", "formattedAddress": ["679 Mt. Pleasant Rd. (btwn. Soudan Ave. and Hillsdale Ave. E)", "Toronto ON M4S", "Canada"]}, "categories": [{"id": "4bf58dd8d48988d1ca941735", "name": "Pizza Place", "pluralName": "Pizza Places", "shortName": "Pizza", "icon": {"prefix": "https://ss3.4sqi.net/img/categories_v2/food/pizza_", "suffix": ".png"}, "primary": true}], "photos": {"count": 0, "groups": []}}, "referralId": "e-0-4e125f30b61c637b97b6251c-4"}, {"reasons": {"count": 0, "items": [{"summary": "This spot is popular", "type": "general", "reasonName": "globalInteractionReason"}]}, "venue": {"id": "4f79e8a1e4b03b459fae7e97", "name": "Starbucks", "location": {"address": "694 Mount Pleasant Rd", "crossStreet": "btwn Manor Rd E & Penrose Rd", "lat": 43.70594, "lng": -79.38941, "labeledLatLngs": [{"label": "display", "lat": 43.70594, "lng": -79.38941}], "distance": 186, "postalCode": "M4S 2N3", "cc": "CA", "city": "Toronto", "state": "ON", "country": "Canada", "formattedAddress": ["694 Mount Pleasant Rd (btwn Manor Rd E & Penrose Rd)", "Toronto ON M4S 2N3", "Canada"]}, "categories": [{"id": "4bf58dd8d48988d1e0931735", "name": "Coffee Shop", "pluralName": "Coffee Shops", "shortName": "Coffee Shop", "icon": {"prefix": "https://ss3.4sqi.net/img/categories_v2/food/coffeeshop_", "suffix": ".png"}, "primary": true}], "photos": {"count": 0, "groups": []}}, "referralId": "e-0-4f79e8a1e4b03b459fae7e97-5"}, {"reasons": {"count": 0, "items": [{"summary": "This spot is popular", "type": "general", "reasonName": "globalInteractionReason"}]}, "venue": {"id": "4b939d18f964a520454a34e3", "name": "Zee Grill", "location": {"address": "641 Mount Pleasant Rd.", "crossStreet": "btw Hillsdale Ave. and Manor Rd.", "lat": 43.70498511291793, "lng": -79.38847622354874, "labeledLatLngs": [{"label": "display", "lat": 43.70498511291793, "lng": -79.38847622354874}], "distance": 77, "postalCode": "M4S 2M9", "cc": "CA", "city": "Toronto", "state": "ON", "country": "Canada", "formattedAddress": ["641 Mount Pleasant Rd. (btw Hillsdale Ave. and Manor Rd.)", "Toronto ON M4S 2M9", "Canada"]}, "categories": [{"id": "4bf58dd8d48988d1ce941735", "name": "Seafood Restaurant", "pluralName": "Seafood Restaurants", "shortName": "Seafood", "icon": {"prefix": "https://ss3.4sqi.net/img/categories_v2/food/seafood_", "suffix": ".png"}, "primary": true}], "photos": {"count": 0, "groups": []}}, "referralId": "e-0-4b939d18f964a520454a34e3-6"}, {"reasons": {"count": 0, "items": [{"summary": "This spot is popular", "type": "general", "reasonName": "globalInteractionReason"}]}, "venue": {"id": "4b801467f964a5203e5030e3", "name": "June Rowlands Park", "location": {"address": "220 Davisville Ave", "crossStreet": "btwn Mt Pleasant Rd & Acacia Rd", "lat": 43.70051698238234, "lng": -79.38918866607341, "labeledLatLngs": [{"label": "display", "lat": 43.70051698238234, "lng": -79.38918866607341}], "distance": 425, "cc": "CA", "city": "Toronto", "state": "ON", "country": "Canada", "formattedAddress": ["220 Davisville Ave (btwn Mt Pleasant Rd & Acacia Rd)", "Toronto ON", "Canada"]}, "categories": [{"id": "4bf58dd8d48988d163941735", "name": "Park", "pluralName": "Parks", "shortName": "Park", "icon": {"prefix": "https://ss3.4sqi.net/img/categories_v2/parks_outdoors/park_", "suffix": ".png"}, "primary": true}], "photos": {"count": 0, "groups": []}}, "referralId": "e-0-4b801467f964a5203e5030e3-7"}, {"reasons": {"count": 0, "items": [{"summary": "This spot is popular", "type": "general", "reasonName": "globalInteractionReason"}]}, "venue": {"id": "4b258fcef964a520d37324e3", "name": "Sakae Sushi", "location": {"address": "643a Mt Pleasant Rd", "lat": 43.70494407149989, "lng": -79.38870408604551, "labeledLatLngs": [{"label": "display", "lat": 43.70494407149989, "lng": -79.38870408604551}], "distance": 69, "cc": "CA", "city": "Toronto", "state": "ON", "country": "Canada", "formattedAddress": ["643a Mt Pleasant Rd", "Toronto ON", "Canada"]}, "categories": [{"id": "4bf58dd8d48988d1d2941735", "name": "Sushi Restaurant", "pluralName": "Sushi Restaurants", "shortName": "Sushi", "icon": {"prefix": "https://ss3.4sqi.net/img/categories_v2/food/sushi_", "suffix": ".png"}, "primary": true}], "photos": {"count": 0, "groups": []}}, "referralId": "e-0-4b258fcef964a520d37324e3-8"}, {"reasons": {"count": 0, "items": [{"summary": "This spot is popular", "type": "general", "reasonName": "globalInteractionReason"}]}, "venue": {"id": "4bd4b2546798ef3bb235628d", "name": "Florentia Ristorante", "location": {"address": "579 Mount Pleasant Road", "crossStreet": "Mount Pleasant and Davisville", "lat": 43.703594, "lng": -79.3879846, "labeledLatLngs": [{"label": "display", "lat": 43.703594, "lng": -79.3879846}], "distance": 103, "postalCode": "M4S 2M5", "cc": "CA", "city": "Toronto", "state": "ON", "country": "Canada", "formattedAddress": ["579 Mount Pleasant Road (Mount Pleasant and Davisville)", "Toronto ON M4S 2M5", "Canada"]}, "categories": [{"id": "4bf58dd8d48988d110941735", "name": "Italian Restaurant", "pluralName": "Italian Restaurants", "shortName": "Italian", "icon": {"prefix": "https://ss3.4sqi.net/img/categories_v2/food/italian_", "suffix": ".png"}, "primary": true}], "photos": {"count": 0, "groups": []}, "venuePage": {"id": "32826812"}}, "referralId": "e-0-4bd4b2546798ef3bb235628d-9"}, {"reasons": {"count": 0, "items": [{"summary": "This spot is popular", "type": "general", "reasonName": "globalInteractionReason"}]}, "venue": {"id": "4b71edddf964a520cb642de3", "name": "Positano", "location": {"address": "633 Mt. Pleasant Rd.", "crossStreet": "btwn. Hillsdale Ave. E and Manor Rd. E", "lat": 43.704558, "lng": -79.38863854, "labeledLatLngs": [{"label": "display", "lat": 43.704558, "lng": -79.38863854}], "distance": 28, "postalCode": "M4S 2M9", "cc": "CA", "city": "Toronto", "state": "ON", "country": "Canada", "formattedAddress": ["633 Mt. Pleasant Rd. (btwn. Hillsdale Ave. E and Manor Rd. E)", "Toronto ON M4S 2M9", "Canada"]}, "categories": [{"id": "4bf58dd8d48988d110941735", "name": "Italian Restaurant", "pluralName": "Italian Restaurants", "shortName": "Italian", "icon": {"prefix": "https://ss3.4sqi.net/img/categories_v2/food/italian_", "suffix": ".png"}, "primary": true}], "photos": {"count": 0, "groups": []}}, "referralId": "e-0-4b71edddf964a520cb642de3-10"}, {"reasons": {"count": 0, "items": [{"summary": "This spot is popular", "type": "general", "reasonName": "globalInteractionReason"}]}, "venue": {"id": "4b1eb103f964a520e61d24e3", "name": "Flaky Tart", "location": {"address": "711 Mt Pleasant Rd", "crossStreet": "Soudan", "lat": 43.70653850357435, "lng": -79.38961139953942, "labeledLatLngs": [{"label": "display", "lat": 43.70653850357435, "lng": -79.38961139953942}], "distance": 255, "postalCode": "M4S 2N4", "cc": "CA", "city": "Toronto", "state": "ON", "country": "Canada", "formattedAddress": ["711 Mt Pleasant Rd (Soudan)", "Toronto ON M4S 2N4", "Canada"]}, "categories": [{"id": "4bf58dd8d48988d1d0941735", "name": "Dessert Shop", "pluralName": "Dessert Shops", "shortName": "Desserts", "icon": {"prefix": "https://ss3.4sqi.net/img/categories_v2/food/dessert_", "suffix": ".png"}, "primary": true}], "photos": {"count": 0, "groups": []}}, "referralId": "e-0-4b1eb103f964a520e61d24e3-11"}, {"reasons": {"count": 0, "items": [{"summary": "This spot is popular", "type": "general", "reasonName": "globalInteractionReason"}]}, "venue": {"id": "4aec60d6f964a5207cc621e3", "name": "GoodLife Fitness", "location": {"address": "250 Davisville Ave", "crossStreet": "at Mt Pleasant Ave.", "lat": 43.700802, "lng": -79.386417, "labeledLatLngs": [{"label": "display", "lat": 43.700802, "lng": -79.386417}], "distance": 436, "postalCode": "M4S 2L9", "cc": "CA", "city": "Toronto", "state": "ON", "country": "Canada", "formattedAddress": ["250 Davisville Ave (at Mt Pleasant Ave.)", "Toronto ON M4S 2L9", "Canada"]}, "categories": [{"id": "4bf58dd8d48988d176941735", "name": "Gym", "pluralName": "Gyms", "shortName": "Gym", "icon": {"prefix": "https://ss3.4sqi.net/img/categories_v2/building/gym_", "suffix": ".png"}, "primary": true}], "photos": {"count": 0, "groups": []}}, "referralId": "e-0-4aec60d6f964a5207cc621e3-12"}, {"reasons": {"count": 0, "items": [{"summary": "This spot is popular", "type": "general", "reasonName": "globalInteractionReason"}]}, "venue": {"id": "4adf957df964a520cc7b21e3", "name": "Granite Brewery", "location": {"address": "245 Eglinton Ave E", "crossStreet": "at Mount Pleasant", "lat": 43.70799119535042, "lng": -79.38994275728216, "labeledLatLngs": [{"label": "display", "lat": 43.70799119535042, "lng": -79.38994275728216}], "distance": 418, "postalCode": "M4P 3B7", "cc": "CA", "city": "Toronto", "state": "ON", "country": "Canada", "formattedAddress": ["245 Eglinton Ave E (at Mount Pleasant)", "Toronto ON M4P 3B7", "Canada"]}, "categories": [{"id": "50327c8591d4c4b30a586d5d", "name": "Brewery", "pluralName": "Breweries", "shortName": "Brewery", "icon": {"prefix": "https://ss3.4sqi.net/img/categories_v2/food/brewery_", "suffix": ".png"}, "primary": true}], "photos": {"count": 0, "groups": []}, "venuePage": {"id": "81191024"}}, "referralId": "e-0-4adf957df964a520cc7b21e3-13"}, {"reasons": {"count": 0, "items": [{"summary": "This spot is popular", "type": "general", "reasonName": "globalInteractionReason"}]}, "venue": {"id": "4b13d0bff964a5206e9923e3", "name": "Bread and Butter", "location": {"address": "507 Mount Pleasant Rd.", "crossStreet": "at Millwood Rd.", "lat": 43.70158248227423, "lng": -79.3873587869354, "labeledLatLngs": [{"label": "display", "lat": 43.70158248227423, "lng": -79.3873587869354}], "distance": 326, "postalCode": "M4S 2L9", "cc": "CA", "city": "Toronto", "state": "ON", "country": "Canada", "formattedAddress": ["507 Mount Pleasant Rd. (at Millwood Rd.)", "Toronto ON M4S 2L9", "Canada"]}, "categories": [{"id": "4bf58dd8d48988d1c5941735", "name": "Sandwich Place", "pluralName": "Sandwich Places", "shortName": "Sandwiches", "icon": {"prefix": "https://ss3.4sqi.net/img/categories_v2/food/deli_", "suffix": ".png"}, "primary": true}], "photos": {"count": 0, "groups": []}}, "referralId": "e-0-4b13d0bff964a5206e9923e3-14"}, {"reasons": {"count": 0, "items": [{"summary": "This spot is popular", "type": "general", "reasonName": "globalInteractionReason"}]}, "venue": {"id": "4da5f6cef7b16ce044af5212", "name": "Hokkaido Sushi", "location": {"address": "245 Eglinton Ave. E", "crossStreet": "at Mount Pleasant Rd.", "lat": 43.708081718364554, "lng": -79.38999467246003, "labeledLatLngs": [{"label": "display", "lat": 43.708081718364554, "lng": -79.38999467246003}], "distance": 429, "postalCode": "M4P 3C2", "cc": "CA", "city": "Toronto", "state": "ON", "country": "Canada", "formattedAddress": ["245 Eglinton Ave. E (at Mount Pleasant Rd.)", "Toronto ON M4P 3C2", "Canada"]}, "categories": [{"id": "4bf58dd8d48988d1d2941735", "name": "Sushi Restaurant", "pluralName": "Sushi Restaurants", "shortName": "Sushi", "icon": {"prefix": "https://ss3.4sqi.net/img/categories_v2/food/sushi_", "suffix": ".png"}, "primary": true}], "photos": {"count": 0, "groups": []}}, "referralId": "e-0-4da5f6cef7b16ce044af5212-15"}, {"reasons": {"count": 0, "items": [{"summary": "This spot is popular", "type": "general", "reasonName": "globalInteractionReason"}]}, "venue": {"id": "4dcda6b7e4cd130e16534f51", "name": "Thai Spicy House", "location": {"address": "517 Mount Pleasant Road", "crossStreet": "North of Davisville", "lat": 43.7019616162845, "lng": -79.3875129672506, "labeledLatLngs": [{"label": "display", "lat": 43.7019616162845, "lng": -79.3875129672506}], "distance": 282, "cc": "CA", "city": "Toronto", "state": "ON", "country": "Canada", "formattedAddress": ["517 Mount Pleasant Road (North of Davisville)", "Toronto ON", "Canada"]}, "categories": [{"id": "4bf58dd8d48988d149941735", "name": "Thai Restaurant", "pluralName": "Thai Restaurants", "shortName": "Thai", "icon": {"prefix": "https://ss3.4sqi.net/img/categories_v2/food/thai_", "suffix": ".png"}, "primary": true}], "photos": {"count": 0, "groups": []}}, "referralId": "e-0-4dcda6b7e4cd130e16534f51-16"}, {"reasons": {"count": 0, "items": [{"summary": "This spot is popular", "type": "general", "reasonName": "globalInteractionReason"}]}, "venue": {"id": "524ac4b1498e8498a174a9a0", "name": "Crossfit Metric", "location": {"address": "756 Mt Pleasant Rd", "crossStreet": "Eglinton", "lat": 43.70747956557104, "lng": -79.38985687683696, "labeledLatLngs": [{"label": "display", "lat": 43.70747956557104, "lng": -79.38985687683696}], "distance": 361, "cc": "CA", "city": "Toronto", "state": "ON", "country": "Canada", "formattedAddress": ["756 Mt Pleasant Rd (Eglinton)", "Toronto ON", "Canada"]}, "categories": [{"id": "4bf58dd8d48988d176941735", "name": "Gym", "pluralName": "Gyms", "shortName": "Gym", "icon": {"prefix": "https://ss3.4sqi.net/img/categories_v2/building/gym_", "suffix": ".png"}, "primary": true}], "photos": {"count": 0, "groups": []}}, "referralId": "e-0-524ac4b1498e8498a174a9a0-17"}, {"reasons": {"count": 0, "items": [{"summary": "This spot is popular", "type": "general", "reasonName": "globalInteractionReason"}]}, "venue": {"id": "4fb90459e4b0fa8ed197391d", "name": "Hazel's Diner", "location": {"address": "523 Mount Pleasant Rd", "crossStreet": "btwn Belsize & Millwood", "lat": 43.70210267511542, "lng": -79.3876176468172, "labeledLatLngs": [{"label": "display", "lat": 43.70210267511542, "lng": -79.3876176468172}], "distance": 264, "cc": "CA", "city": "Toronto", "state": "ON", "country": "Canada", "formattedAddress": ["523 Mount Pleasant Rd (btwn Belsize & Millwood)", "Toronto ON", "Canada"]}, "categories": [{"id": "4bf58dd8d48988d147941735", "name": "Diner", "pluralName": "Diners", "shortName": "Diner", "icon": {"prefix": "https://ss3.4sqi.net/img/categories_v2/food/diner_", "suffix": ".png"}, "primary": true}], "photos": {"count": 0, "groups": []}}, "referralId": "e-0-4fb90459e4b0fa8ed197391d-18"}, {"reasons": {"count": 0, "items": [{"summary": "This spot is popular", "type": "general", "reasonName": "globalInteractionReason"}]}, "venue": {"id": "4b800918f964a5209a4c30e3", "name": "Mastermind Toys", "location": {"address": "639 Mount Pleasant", "lat": 43.704839243420075, "lng": -79.38854629838522, "labeledLatLngs": [{"label": "display", "lat": 43.704839243420075, "lng": -79.38854629838522}], "distance": 60, "postalCode": "M4S 2M9", "cc": "CA", "city": "Toronto", "state": "ON", "country": "Canada", "formattedAddress": ["639 Mount Pleasant", "Toronto ON M4S 2M9", "Canada"]}, "categories": [{"id": "4bf58dd8d48988d1f3941735", "name": "Toy / Game Store", "pluralName": "Toy / Game Stores", "shortName": "Toys & Games", "icon": {"prefix": "https://ss3.4sqi.net/img/categories_v2/shops/toys_", "suffix": ".png"}, "primary": true}], "photos": {"count": 0, "groups": []}}, "referralId": "e-0-4b800918f964a5209a4c30e3-19"}, {"reasons": {"count": 0, "items": [{"summary": "This spot is popular", "type": "general", "reasonName": "globalInteractionReason"}]}, "venue": {"id": "4af1f558f964a520c1e421e3", "name": "Shoppers Drug Mart", "location": {"address": "759 Mount Pleasant Rd", "crossStreet": "at Eglinton Ave. E", "lat": 43.707806, "lng": -79.389893, "labeledLatLngs": [{"label": "display", "lat": 43.707806, "lng": -79.389893}], "distance": 397, "postalCode": "M4S 2N4", "cc": "CA", "city": "Toronto", "state": "ON", "country": "Canada", "formattedAddress": ["759 Mount Pleasant Rd (at Eglinton Ave. E)", "Toronto ON M4S 2N4", "Canada"]}, "categories": [{"id": "4bf58dd8d48988d10f951735", "name": "Pharmacy", "pluralName": "Pharmacies", "shortName": "Pharmacy", "icon": {"prefix": "https://ss3.4sqi.net/img/categories_v2/shops/pharmacy_", "suffix": ".png"}, "primary": true}], "photos": {"count": 0, "groups": []}}, "referralId": "e-0-4af1f558f964a520c1e421e3-20"}, {"reasons": {"count": 0, "items": [{"summary": "This spot is popular", "type": "general", "reasonName": "globalInteractionReason"}]}, "venue": {"id": "4b13f568f964a520f29a23e3", "name": "souvlaki express", "location": {"address": "745 Mt. Pleasant rd", "crossStreet": "Eglinton", "lat": 43.70737794652891, "lng": -79.38984793934696, "labeledLatLngs": [{"label": "display", "lat": 43.70737794652891, "lng": -79.38984793934696}], "distance": 350, "postalCode": "M4S 2N4", "cc": "CA", "city": "Toronto", "state": "ON", "country": "Canada", "formattedAddress": ["745 Mt. Pleasant rd (Eglinton)", "Toronto ON M4S 2N4", "Canada"]}, "categories": [{"id": "4bf58dd8d48988d10e941735", "name": "Greek Restaurant", "pluralName": "Greek Restaurants", "shortName": "Greek", "icon": {"prefix": "https://ss3.4sqi.net/img/categories_v2/food/greek_", "suffix": ".png"}, "primary": true}], "photos": {"count": 0, "groups": []}}, "referralId": "e-0-4b13f568f964a520f29a23e3-21"}, {"reasons": {"count": 0, "items": [{"summary": "This spot is popular", "type": "general", "reasonName": "globalInteractionReason"}]}, "venue": {"id": "4b62d9d0f964a5207a552ae3", "name": "Second Cup", "location": {"address": "642 Mount Pleasant Rd.", "crossStreet": "At Manor Rd. E", "lat": 43.704344001380505, "lng": -79.38865888961692, "labeledLatLngs": [{"label": "display", "lat": 43.704344001380505, "lng": -79.38865888961692}], "distance": 10, "postalCode": "M4S 2N5", "cc": "CA", "city": "Toronto", "state": "ON", "country": "Canada", "formattedAddress": ["642 Mount Pleasant Rd. (At Manor Rd. E)", "Toronto ON M4S 2N5", "Canada"]}, "categories": [{"id": "4bf58dd8d48988d1e0931735", "name": "Coffee Shop", "pluralName": "Coffee Shops", "shortName": "Coffee Shop", "icon": {"prefix": "https://ss3.4sqi.net/img/categories_v2/food/coffeeshop_", "suffix": ".png"}, "primary": true}], "photos": {"count": 0, "groups": []}}, "referralId": "e-0-4b62d9d0f964a5207a552ae3-22"}, {"reasons": {"count": 0, "items": [{"summary": "This spot is popular", "type": "general", "reasonName": "globalInteractionReason"}]}, "venue": {"id": "4c51db34b6dabe9a11d46b12", "name": "Apple Tree Farmer's Market", "location": {"address": "220 Davisville Ave.", "crossStreet": "in June Rowlands Park", "lat": 43.70032613903132, "lng": -79.38976045544334, "labeledLatLngs": [{"label": "display", "lat": 43.70032613903132, "lng": -79.38976045544334}], "distance": 451, "cc": "CA", "city": "Toronto", "state": "ON", "country": "Canada", "formattedAddress": ["220 Davisville Ave. (in June Rowlands Park)", "Toronto ON", "Canada"]}, "categories": [{"id": "4bf58dd8d48988d1fa941735", "name": "Farmers Market", "pluralName": "Farmers Markets", "shortName": "Farmer's Market", "icon": {"prefix": "https://ss3.4sqi.net/img/categories_v2/shops/food_farmersmarket_", "suffix": ".png"}, "primary": true}], "photos": {"count": 0, "groups": []}}, "referralId": "e-0-4c51db34b6dabe9a11d46b12-23"}, {"reasons": {"count": 0, "items": [{"summary": "This spot is popular", "type": "general", "reasonName": "globalInteractionReason"}]}, "venue": {"id": "58a881442520ae596a926970", "name": "Starving Artist", "location": {"address": "505 Mount Pleasant Road", "lat": 43.701538, "lng": -79.38724, "labeledLatLngs": [{"label": "display", "lat": 43.701538, "lng": -79.38724}], "distance": 334, "postalCode": "M4S 1J9", "cc": "CA", "neighborhood": "Davisville", "city": "Toronto", "state": "ON", "country": "Canada", "formattedAddress": ["505 Mount Pleasant Road", "Toronto ON M4S 1J9", "Canada"]}, "categories": [{"id": "4bf58dd8d48988d1c4941735", "name": "Restaurant", "pluralName": "Restaurants", "shortName": "Restaurant", "icon": {"prefix": "https://ss3.4sqi.net/img/categories_v2/food/default_", "suffix": ".png"}, "primary": true}], "photos": {"count": 0, "groups": []}}, "referralId": "e-0-58a881442520ae596a926970-24"}, {"reasons": {"count": 0, "items": [{"summary": "This spot is popular", "type": "general", "reasonName": "globalInteractionReason"}]}, "venue": {"id": "4e984a0a9a52e2664314040c", "name": "Marcheleo's Gourmet Marketplace", "location": {"address": "181 Eglinton Ave. E.", "lat": 43.70804065392919, "lng": -79.39219480282117, "labeledLatLngs": [{"label": "display", "lat": 43.70804065392919, "lng": -79.39219480282117}], "distance": 496, "postalCode": "M4P 1J4", "cc": "CA", "city": "Toronto", "state": "ON", "country": "Canada", "formattedAddress": ["181 Eglinton Ave. E.", "Toronto ON M4P 1J4", "Canada"]}, "categories": [{"id": "4bf58dd8d48988d1f5941735", "name": "Gourmet Shop", "pluralName": "Gourmet Shops", "shortName": "Gourmet", "icon": {"prefix": "https://ss3.4sqi.net/img/categories_v2/shops/food_gourmet_", "suffix": ".png"}, "primary": true}], "photos": {"count": 0, "groups": []}, "venuePage": {"id": "168822601"}}, "referralId": "e-0-4e984a0a9a52e2664314040c-25"}, {"reasons": {"count": 0, "items": [{"summary": "This spot is popular", "type": "general", "reasonName": "globalInteractionReason"}]}, "venue": {"id": "4c59dbe3d3aee21e2f486955", "name": "Subway", "location": {"address": "510 Mount Pleasant Rd", "crossStreet": "Millwood", "lat": 43.70176337400996, "lng": -79.38780495416756, "labeledLatLngs": [{"label": "display", "lat": 43.70176337400996, "lng": -79.38780495416756}], "distance": 295, "postalCode": "M4S 2M2", "cc": "CA", "city": "Toronto", "state": "ON", "country": "Canada", "formattedAddress": ["510 Mount Pleasant Rd (Millwood)", "Toronto ON M4S 2M2", "Canada"]}, "categories": [{"id": "4bf58dd8d48988d1c5941735", "name": "Sandwich Place", "pluralName": "Sandwich Places", "shortName": "Sandwiches", "icon": {"prefix": "https://ss3.4sqi.net/img/categories_v2/food/deli_", "suffix": ".png"}, "primary": true}], "photos": {"count": 0, "groups": []}}, "referralId": "e-0-4c59dbe3d3aee21e2f486955-26"}, {"reasons": {"count": 0, "items": [{"summary": "This spot is popular", "type": "general", "reasonName": "globalInteractionReason"}]}, "venue": {"id": "57b8c524cd10f719218fda73", "name": "Meow Cat Cafe", "location": {"address": "556 Mount Pleasant Road", "lat": 43.702927, "lng": -79.38819, "labeledLatLngs": [{"label": "display", "lat": 43.702927, "lng": -79.38819}], "distance": 162, "postalCode": "M4S 2M6", "cc": "CA", "city": "Toronto", "state": "ON", "country": "Canada", "formattedAddress": ["556 Mount Pleasant Road", "Toronto ON M4S 2M6", "Canada"]}, "categories": [{"id": "4bf58dd8d48988d16d941735", "name": "Caf\u00e9", "pluralName": "Caf\u00e9s", "shortName": "Caf\u00e9", "icon": {"prefix": "https://ss3.4sqi.net/img/categories_v2/food/cafe_", "suffix": ".png"}, "primary": true}], "photos": {"count": 0, "groups": []}}, "referralId": "e-0-57b8c524cd10f719218fda73-27"}, {"reasons": {"count": 0, "items": [{"summary": "This spot is popular", "type": "general", "reasonName": "globalInteractionReason"}]}, "venue": {"id": "4bfef68bc30a2d7fcd47101d", "name": "Pizza Pizza", "location": {"address": "693 MOUNT PLEASANT ROAD", "lat": 43.70613821755869, "lng": -79.38929246805056, "labeledLatLngs": [{"label": "display", "lat": 43.70613821755869, "lng": -79.38929246805056}], "distance": 205, "postalCode": "M4S 2N4", "cc": "CA", "city": "Toronto", "state": "ON", "country": "Canada", "formattedAddress": ["693 MOUNT PLEASANT ROAD", "Toronto ON M4S 2N4", "Canada"]}, "categories": [{"id": "4bf58dd8d48988d1ca941735", "name": "Pizza Place", "pluralName": "Pizza Places", "shortName": "Pizza", "icon": {"prefix": "https://ss3.4sqi.net/img/categories_v2/food/pizza_", "suffix": ".png"}, "primary": true}], "photos": {"count": 0, "groups": []}}, "referralId": "e-0-4bfef68bc30a2d7fcd47101d-28"}, {"reasons": {"count": 0, "items": [{"summary": "This spot is popular", "type": "general", "reasonName": "globalInteractionReason"}]}, "venue": {"id": "4b0b3691f964a520c62e23e3", "name": "Subway", "location": {"address": "250 Eglinton Ave East", "lat": 43.7084743635371, "lng": -79.39067425664052, "labeledLatLngs": [{"label": "display", "lat": 43.7084743635371, "lng": -79.39067425664052}], "distance": 486, "postalCode": "M4P 1K2", "cc": "CA", "city": "Toronto", "state": "ON", "country": "Canada", "formattedAddress": ["250 Eglinton Ave East", "Toronto ON M4P 1K2", "Canada"]}, "categories": [{"id": "4bf58dd8d48988d1c5941735", "name": "Sandwich Place", "pluralName": "Sandwich Places", "shortName": "Sandwiches", "icon": {"prefix": "https://ss3.4sqi.net/img/categories_v2/food/deli_", "suffix": ".png"}, "primary": true}], "photos": {"count": 0, "groups": []}}, "referralId": "e-0-4b0b3691f964a520c62e23e3-29"}, {"reasons": {"count": 0, "items": [{"summary": "This spot is popular", "type": "general", "reasonName": "globalInteractionReason"}]}, "venue": {"id": "4b8d8a81f964a5203d0033e3", "name": "Kidnasium", "location": {"address": "745 Mt Pleasant Rd", "crossStreet": "btwn Eglinton Ave E & Soudan Ave", "lat": 43.706938885972804, "lng": -79.3895295409309, "labeledLatLngs": [{"label": "display", "lat": 43.706938885972804, "lng": -79.3895295409309}], "distance": 297, "postalCode": "M4S 2N4", "cc": "CA", "city": "Toronto", "state": "ON", "country": "Canada", "formattedAddress": ["745 Mt Pleasant Rd (btwn Eglinton Ave E & Soudan Ave)", "Toronto ON M4S 2N4", "Canada"]}, "categories": [{"id": "5744ccdfe4b0c0459246b4b5", "name": "Indoor Play Area", "pluralName": "Indoor Play Areas", "shortName": "Indoor Play Area", "icon": {"prefix": "https://ss3.4sqi.net/img/categories_v2/parks_outdoors/playground_", "suffix": ".png"}, "primary": true}], "photos": {"count": 0, "groups": []}}, "referralId": "e-0-4b8d8a81f964a5203d0033e3-30"}, {"reasons": {"count": 0, "items": [{"summary": "This spot is popular", "type": "general", "reasonName": "globalInteractionReason"}]}, "venue": {"id": "4b942882f964a520d36b34e3", "name": "Oisie sushi", "location": {"address": "744 Mt Pleasant rd", "crossStreet": "Eglinton", "lat": 43.7083013094919, "lng": -79.38842444207054, "labeledLatLngs": [{"label": "display", "lat": 43.7083013094919, "lng": -79.38842444207054}], "distance": 443, "cc": "CA", "city": "Toronto", "state": "ON", "country": "Canada", "formattedAddress": ["744 Mt Pleasant rd (Eglinton)", "Toronto ON", "Canada"]}, "categories": [{"id": "4bf58dd8d48988d111941735", "name": "Japanese Restaurant", "pluralName": "Japanese Restaurants", "shortName": "Japanese", "icon": {"prefix": "https://ss3.4sqi.net/img/categories_v2/food/japanese_", "suffix": ".png"}, "primary": true}], "photos": {"count": 0, "groups": []}}, "referralId": "e-0-4b942882f964a520d36b34e3-31"}, {"reasons": {"count": 0, "items": [{"summary": "This spot is popular", "type": "general", "reasonName": "globalInteractionReason"}]}, "venue": {"id": "4b29173ef964a5207e9824e3", "name": "Joanne's Deli", "location": {"address": "234 Eglinton Ave East", "crossStreet": "Mt. Pleasant", "lat": 43.708226788801085, "lng": -79.39107445800583, "labeledLatLngs": [{"label": "display", "lat": 43.708226788801085, "lng": -79.39107445800583}], "distance": 471, "cc": "CA", "city": "Toronto", "state": "ON", "country": "Canada", "formattedAddress": ["234 Eglinton Ave East (Mt. Pleasant)", "Toronto ON", "Canada"]}, "categories": [{"id": "4bf58dd8d48988d146941735", "name": "Deli / Bodega", "pluralName": "Delis / Bodegas", "shortName": "Deli / Bodega", "icon": {"prefix": "https://ss3.4sqi.net/img/categories_v2/food/deli_", "suffix": ".png"}, "primary": true}], "photos": {"count": 0, "groups": []}}, "referralId": "e-0-4b29173ef964a5207e9824e3-32"}]}]}}