{"meta": {"code": 200, "requestId": "5e1f6c160cc1fd001b36e395"}, "response": {"suggestedFilters": {"header": "Tap to show:", "filters": [{"name": "Open now", "key": "openNow"}]}, "headerLocation": "Toronto", "headerFullLocation": "Toronto", "headerLocationGranularity": "city", "totalResults": 6, "suggestedBounds": {"ne": {"lat": 43.7324292045, "lng": -79.25581377000155}, "sw": {"lat": 43.723429195499996, "lng": -79.26824502999848}}, "groups": [{"type": "Recommended Places", "name": "recommended", "items": [{"reasons": {"count": 0, "items": [{"summary": "This spot is popular", "type": "general", "reasonName": "globalInteractionReason"}]}, "venue": {"id": "4b6a37ccf964a520a5cd2be3", "name": "Giant Tiger", "location": {"address": "682 Kennedy Road", "crossStreet": "Eglinton Ave. E.", "lat": 43.72744662939136, "lng": -79.26624035854763, "labeledLatLngs": [{"label": "display", "lat": 43.72744662939136, "lng": -79.26624035854763}], "distance": 342, "postalCode": "M1K 2B5", "cc": "CA", "city": "Scarborough", "state": "ON", "country": "Canada", "formattedAddress": ["682 Kennedy Road (Eglinton Ave. E.)", "Scarborough ON M1K 2B5", "Canada"]}, "categories": [{"id": "4bf58dd8d48988d1f6941735", "name": "Department Store", "pluralName": "Department Stores", "shortName": "Department Store", "icon": {"prefix": "https://ss3.4sqi.net/img/categories_v2/shops/departmentstore_", "suffix": ".png"}, "primary": true}], "photos": {"count": 0, "groups": []}}, "referralId": "e-0-4b6a37ccf964a520a5cd2be3-0"}, {"reasons": {"count": 0, "items": [{"summary": "This spot is popular", "type": "general", "reasonName": "globalInteractionReason"}]}, "venue": {"id": "4c6aa500c946e21ec432ed8e", "name": "Tim Hortons", "location": {"address": "678-682 Kennedy Rd", "lat": 43.72689508691926, "lng": -79.26615692675114, "labeledLatLngs": [{"label": "display", "lat": 43.72689508691926, "lng": -79.26615692675114}], "distance": 351, "postalCode": "M1K 2B5", "cc": "CA", "city": "Scarborough", "state": "ON", "country": "Canada", "formattedAddress": ["678-682 Kennedy Rd", "Scarborough ON M1K 2B5", "Canada"]}, "categories": [{"id": "4bf58dd8d48988d1e0931735", "name": "Coffee Shop", "pluralName": "Coffee Shops", "shortName": "Coffee Shop", "icon": {"prefix": "https://ss3.4sqi.net/img/categories_v2/food/coffeeshop_", "suffix": ".png"}, "primary": true}], "photos": {"count": 0, "groups": []}}, "referralId": "e-0-4c6aa500c946e21ec432ed8e-1"}, {"reasons": {"count": 0, "items": [{"summary": "This spot is popular", "type": "general", "reasonName": "globalInteractionReason"}]}, "venue": {"id": "4f1b1a8fe4b0838231c3badb", "name": "Bros. CONVENIENCE", "location": {"lat": 43.72778143829621, "lng": -79.26570835903846, "labeledLatLngs": [{"label": "display", "lat": 43.72778143829621, "lng": -79.26570835903846}], "distance": 296, "cc": "CA", "country": "Canada", "formattedAddress": ["Canada"]}, "categories": [{"id": "4d954b0ea243a5684a65b473", "name": "Convenience Store", "pluralName": "Convenience Stores", "shortName": "Convenience Store", "icon": {"prefix": "https://ss3.4sqi.net/img/categories_v2/shops/conveniencestore_", "suffix": ".png"}, "primary": true}], "photos": {"count": 0, "groups": []}}, "referralId": "e-0-4f1b1a8fe4b0838231c3badb-2"}, {"reasons": {"count": 0, "items": [{"summary": "This spot is popular", "type": "general", "reasonName": "globalInteractionReason"}]}, "venue": {"id": "4dc158bd52b1877d85b172c8", "name": "Dollarama", "location": {"address": "680 Kennedy Rd", "crossStreet": "at Merrian Rd.", "lat": 43.727092, "lng": -79.265784, "labeledLatLngs": [{"label": "display", "lat": 43.727092, "lng": -79.265784}], "distance": 316, "postalCode": "M1K 2B5", "cc": "CA", "city": "Toronto", "state": "ON", "country": "Canada", "formattedAddress": ["680 Kennedy Rd (at Merrian Rd.)", "Toronto ON M1K 2B5", "Canada"]}, "categories": [{"id": "52dea92d3cf9994f4e043dbb", "name": "Discount Store", "pluralName": "Discount Stores", "shortName": "Discount Store", "icon": {"prefix": "https://ss3.4sqi.net/img/categories_v2/shops/discountstore_", "suffix": ".png"}, "primary": true}], "photos": {"count": 0, "groups": []}}, "referralId": "e-0-4dc158bd52b1877d85b172c8-3"}, {"reasons": {"count": 0, "items": [{"summary": "This spot is popular", "type": "general", "reasonName": "globalInteractionReason"}]}, "venue": {"id": "504759aee4b008d1e233f15b", "name": "Dollarama", "location": {"lat": 43.72659620252377, "lng": -79.26682995710473, "labeledLatLngs": [{"label": "display", "lat": 43.72659620252377, "lng": -79.26682995710473}], "distance": 413, "cc": "CA", "city": "Toronto", "state": "ON", "country": "Canada", "formattedAddress": ["Toronto ON", "Canada"]}, "categories": [{"id": "52dea92d3cf9994f4e043dbb", "name": "Discount Store", "pluralName": "Discount Stores", "shortName": "Discount Store", "icon": {"prefix": "https://ss3.4sqi.net/img/categories_v2/shops/discountstore_", "suffix": ".png"}, "primary": true}], "photos": {"count": 0, "groups": []}}, "referralId": "e-0-504759aee4b008d1e233f15b-4"}, {"reasons": {"count": 0, "items": [{"summary": "This spot is popular", "type": "general", "reasonName": "globalInteractionReason"}]}, "venue": {"id": "4fcd2fb8e4b0ad6f4e7d52b9", "name": "Kennedy Station Passenger Pickup", "location": {"address": "Eglinton", "crossStreet": "Kennedy", "lat": 43.73200926072711, "lng": -79.26453709017373, "labeledLatLngs": [{"label": "display", "lat": 43.73200926072711, "lng": -79.26453709017373}], "distance": 496, "cc": "CA", "city": "Scarborough", "state": "ON", "country": "Canada", "formattedAddress": ["Eglinton (Kennedy)", "Scarborough ON", "Canada"]}, "categories": [{"id": "4bf58dd8d48988d1fe931735", "name": "Bus Station", "pluralName": "Bus Stations", "shortName": "Bus Station", "icon": {"prefix": "https://ss3.4sqi.net/img/categories_v2/travel/busstation_", "suffix": ".png"}, "primary": true}], "photos": {"count": 0, "groups": []}}, "referralId": "e-0-4fcd2fb8e4b0ad6f4e7d52b9-5"}]}]}}