{"meta": {"code": 200, "requestId": "5e1f6c1398205d001b66ba62"}, "response": {"suggestedFilters": {"header": "Tap to show:", "filters": [{"name": "Open now", "key": "openNow"}]}, "headerLocation": "Clairlea - Birchmount", "headerFullLocation": "Clairlea - Birchmount, Toronto", "headerLocationGranularity": "neighborhood", "totalResults": 10, "suggestedBounds": {"ne": {"lat": 43.7156117045, "lng": -79.27836331439646}, "sw": {"lat": 43.706611695499994, "lng": -79.29079108560354}}, "groups": [{"type": "Recommended Places", "name": "recommended", "items": [{"reasons": {"count": 0, "items": [{"summary": "This spot is popular", "type": "general", "reasonName": "globalInteractionReason"}]}, "venue": {"id": "4bc8e605b6c49c740e5b8d91", "name": "Dairy Queen", "location": {"address": "625 Pharmacy Avenue", "lat": 43.71037770465013, "lng": -79.29070115089417, "labeledLatLngs": [{"label": "display", "lat": 43.71037770465013, "lng": -79.29070115089417}], "distance": 499, "postalCode": "M1L 3H3", "cc": "CA", "city": "Scarborough", "state": "ON", "country": "Canada", "formattedAddress": ["625 Pharmacy Avenue", "Scarborough ON M1L 3H3", "Canada"]}, "categories": [{"id": "4bf58dd8d48988d16e941735", "name": "Fast Food Restaurant", "pluralName": "Fast Food Restaurants", "shortName": "Fast Food", "icon": {"prefix": "https://ss3.4sqi.net/img/categories_v2/food/fastfood_", "suffix": ".png"}, "primary": true}], "photos": {"count": 0, "groups": []}}, "referralId": "e-0-4bc8e605b6c49c740e5b8d91-0"}, {"reasons": {"count": 0, "items": [{"summary": "This spot is popular", "type": "general", "reasonName": "globalInteractionReason"}]}, "venue": {"id": "4f9a23a7e4b01cdc44fe1c04", "name": "Warden Ave & St. Clair Ave E", "location": {"address": "St Clair Avenue East", "crossStreet": "at Warden Avenue", "lat": 43.71205669347002, "lng": -79.28100496530533, "labeledLatLngs": [{"label": "display", "lat": 43.71205669347002, "lng": -79.28100496530533}], "distance": 306, "postalCode": "M1L", "cc": "CA", "neighborhood": "Clairlea - Birchmount", "city": "Scarborough", "state": "ON", "country": "Canada", "formattedAddress": ["St Clair Avenue East (at Warden Avenue)", "Scarborough ON M1L", "Canada"]}, "categories": [{"id": "52f2ab2ebcbc57f1066b8b4c", "name": "Intersection", "pluralName": "Intersections", "shortName": "Intersection", "icon": {"prefix": "https://ss3.4sqi.net/img/categories_v2/travel/default_", "suffix": ".png"}, "primary": true}], "photos": {"count": 0, "groups": []}}, "referralId": "e-0-4f9a23a7e4b01cdc44fe1c04-1"}, {"reasons": {"count": 0, "items": [{"summary": "This spot is popular", "type": "general", "reasonName": "globalInteractionReason"}]}, "venue": {"id": "4d6baccf6107f04d5a94317a", "name": "TTC Bus #68 Warden", "location": {"address": "Warden Ave", "lat": 43.71177810997778, "lng": -79.27971412913774, "labeledLatLngs": [{"label": "display", "lat": 43.71177810997778, "lng": -79.27971412913774}], "distance": 398, "cc": "CA", "city": "Toronto", "state": "ON", "country": "Canada", "formattedAddress": ["Warden Ave", "Toronto ON", "Canada"]}, "categories": [{"id": "4bf58dd8d48988d12b951735", "name": "Bus Line", "pluralName": "Bus Lines", "shortName": "Bus", "icon": {"prefix": "https://ss3.4sqi.net/img/categories_v2/travel/busstation_", "suffix": ".png"}, "primary": true}], "photos": {"count": 0, "groups": []}}, "referralId": "e-0-4d6baccf6107f04d5a94317a-2"}, {"reasons": {"count": 0, "items": [{"summary": "This spot is popular", "type": "general", "reasonName": "globalInteractionReason"}]}, "venue": {"id": "4aef7f5ff964a520e4d821e3", "name": "Warden Subway Station", "location": {"address": "3276 St Clair Ave E", "crossStreet": "at Warden Ave", "lat": 43.71122905571982, "lng": -79.27960224480387, "labeledLatLngs": [{"label": "display", "lat": 43.71122905571982, "lng": -79.27960224480387}], "distance": 400, "postalCode": "M1L 1W1", "cc": "CA", "city": "Toronto", "state": "ON", "country": "Canada", "formattedAddress": ["3276 St Clair Ave E (at Warden Ave)", "Toronto ON M1L 1W1", "Canada"]}, "categories": [{"id": "4bf58dd8d48988d1fd931735", "name": "Metro Station", "pluralName": "Metro Stations", "shortName": "Metro", "icon": {"prefix": "https://ss3.4sqi.net/img/categories_v2/travel/subway_", "suffix": ".png"}, "primary": true}], "photos": {"count": 0, "groups": []}}, "referralId": "e-0-4aef7f5ff964a520e4d821e3-3"}, {"reasons": {"count": 0, "items": [{"summary": "This spot is popular", "type": "general", "reasonName": "globalInteractionReason"}]}, "venue": {"id": "4cdefc973644a0931fa84f9f", "name": "TTC Bus 102 Markham Road", "location": {"address": "Markham Rd.", "crossStreet": "Moving Target", "lat": 43.711381420906115, "lng": -79.27958752636661, "labeledLatLngs": [{"label": "display", "lat": 43.711381420906115, "lng": -79.27958752636661}], "distance": 402, "cc": "CA", "city": "Toronto", "state": "ON", "country": "Canada", "formattedAddress": ["Markham Rd. (Moving Target)", "Toronto ON", "Canada"]}, "categories": [{"id": "4bf58dd8d48988d12b951735", "name": "Bus Line", "pluralName": "Bus Lines", "shortName": "Bus", "icon": {"prefix": "https://ss3.4sqi.net/img/categories_v2/travel/busstation_", "suffix": ".png"}, "primary": true}], "photos": {"count": 0, "groups": []}}, "referralId": "e-0-4cdefc973644a0931fa84f9f-4"}, {"reasons": {"count": 0, "items": [{"summary": "This spot is popular", "type": "general", "reasonName": "globalInteractionReason"}]}, "venue": {"id": "516f1db2e4b037c43004ba18", "name": "Warden Station Bus Loop", "location": {"crossStreet": "St. Clair Avenue East", "lat": 43.71124084776515, "lng": -79.27957605867647, "labeledLatLngs": [{"label": "display", "lat": 43.71124084776515, "lng": -79.27957605867647}], "distance": 402, "postalCode": "M1L", "cc": "CA", "city": "Toronto", "state": "ON", "country": "Canada", "formattedAddress": ["St. Clair Avenue East", "Toronto ON M1L", "Canada"]}, "categories": [{"id": "4bf58dd8d48988d1fe931735", "name": "Bus Station", "pluralName": "Bus Stations", "shortName": "Bus Station", "icon": {"prefix": "https://ss3.4sqi.net/img/categories_v2/travel/busstation_", "suffix": ".png"}, "primary": true}], "photos": {"count": 0, "groups": []}}, "referralId": "e-0-516f1db2e4b037c43004ba18-5"}, {"reasons": {"count": 0, "items": [{"summary": "This spot is popular", "type": "general", "reasonName": "globalInteractionReason"}]}, "venue": {"id": "4cb6527eb315a0934c469b76", "name": "Bakery On The Go", "location": {"address": "3276 St. Clair Ave. East", "crossStreet": "Warden", "lat": 43.711270905205765, "lng": -79.27950587661704, "labeledLatLngs": [{"label": "display", "lat": 43.711270905205765, "lng": -79.27950587661704}], "distance": 408, "cc": "CA", "city": "Toronto", "state": "ON", "country": "Canada", "formattedAddress": ["3276 St. Clair Ave. East (Warden)", "Toronto ON", "Canada"]}, "categories": [{"id": "4bf58dd8d48988d16a941735", "name": "Bakery", "pluralName": "Bakeries", "shortName": "Bakery", "icon": {"prefix": "https://ss3.4sqi.net/img/categories_v2/food/bakery_", "suffix": ".png"}, "primary": true}], "photos": {"count": 0, "groups": []}}, "referralId": "e-0-4cb6527eb315a0934c469b76-6"}, {"reasons": {"count": 0, "items": [{"summary": "This spot is popular", "type": "general", "reasonName": "globalInteractionReason"}]}, "venue": {"id": "4eb2c6918b815ab741f9fcdd", "name": "Cafe on the go", "location": {"address": "3276 St. Clair Ave E", "crossStreet": "Warden Ave", "lat": 43.71115104374148, "lng": -79.27946923512921, "labeledLatLngs": [{"label": "display", "lat": 43.71115104374148, "lng": -79.27946923512921}], "distance": 411, "cc": "CA", "city": "Scarborough", "state": "ON", "country": "Canada", "formattedAddress": ["3276 St. Clair Ave E (Warden Ave)", "Scarborough ON", "Canada"]}, "categories": [{"id": "4bf58dd8d48988d16a941735", "name": "Bakery", "pluralName": "Bakeries", "shortName": "Bakery", "icon": {"prefix": "https://ss3.4sqi.net/img/categories_v2/food/bakery_", "suffix": ".png"}, "primary": true}], "photos": {"count": 0, "groups": []}}, "referralId": "e-0-4eb2c6918b815ab741f9fcdd-7"}, {"reasons": {"count": 0, "items": [{"summary": "This spot is popular", "type": "general", "reasonName": "globalInteractionReason"}]}, "venue": {"id": "4fe26c39e4b00dcb4e287fb0", "name": "Warden Woods Park", "location": {"lat": 43.71052711027375, "lng": -79.27896551895955, "labeledLatLngs": [{"label": "display", "lat": 43.71052711027375, "lng": -79.27896551895955}], "distance": 456, "postalCode": "M1L", "cc": "CA", "neighborhood": "Clairlea - Birchmount", "city": "Toronto", "state": "ON", "country": "Canada", "formattedAddress": ["Toronto ON M1L", "Canada"]}, "categories": [{"id": "4bf58dd8d48988d163941735", "name": "Park", "pluralName": "Parks", "shortName": "Park", "icon": {"prefix": "https://ss3.4sqi.net/img/categories_v2/parks_outdoors/park_", "suffix": ".png"}, "primary": true}], "photos": {"count": 0, "groups": []}}, "referralId": "e-0-4fe26c39e4b00dcb4e287fb0-8"}, {"reasons": {"count": 0, "items": [{"summary": "This spot is popular", "type": "general", "reasonName": "globalInteractionReason"}]}, "venue": {"id": "4cae70b639458cfa10d3f29f", "name": "Clairlea Futbol Centre", "location": {"lat": 43.71523429184505, "lng": -79.28650639185544, "labeledLatLngs": [{"label": "display", "lat": 43.71523429184505, "lng": -79.28650639185544}], "distance": 484, "cc": "CA", "country": "Canada", "formattedAddress": ["Canada"]}, "categories": [{"id": "4cce455aebf7b749d5e191f5", "name": "Soccer Field", "pluralName": "Soccer Fields", "shortName": "Soccer Field", "icon": {"prefix": "https://ss3.4sqi.net/img/categories_v2/arts_entertainment/stadium_soccer_", "suffix": ".png"}, "primary": true}], "photos": {"count": 0, "groups": []}}, "referralId": "e-0-4cae70b639458cfa10d3f29f-9"}]}]}}