{"meta": {"code": 200, "requestId": "5e1f6c341e152c001bb16092"}, "response": {"suggestedFilters": {"header": "Tap to show:", "filters": [{"name": "Open now", "key": "openNow"}]}, "headerLocation": "High Park", "headerFullLocation": "High Park, Toronto", "headerLocationGranularity": "neighborhood", "totalResults": 23, "suggestedBounds": {"ne": {"lat": 43.6661083045, "lng": -79.458554540355}, "sw": {"lat": 43.657108295499995, "lng": -79.47097205964498}}, "groups": [{"type": "Recommended Places", "name": "recommended", "items": [{"reasons": {"count": 0, "items": [{"summary": "This spot is popular", "type": "general", "reasonName": "globalInteractionReason"}]}, "venue": {"id": "540f2951498e7516839a7126", "name": "nodo", "location": {"address": "2885\u00a0Dundas\u00a0St.\u00a0West", "lat": 43.665303321627505, "lng": -79.46562068004896, "labeledLatLngs": [{"label": "display", "lat": 43.665303321627505, "lng": -79.46562068004896}], "distance": 417, "cc": "CA", "city": "Toronto", "state": "ON", "country": "Canada", "formattedAddress": ["2885\u00a0Dundas\u00a0St.\u00a0West", "Toronto ON", "Canada"]}, "categories": [{"id": "4bf58dd8d48988d110941735", "name": "Italian Restaurant", "pluralName": "Italian Restaurants", "shortName": "Italian", "icon": {"prefix": "https://ss3.4sqi.net/img/categories_v2/food/italian_", "suffix": ".png"}, "primary": true}], "photos": {"count": 0, "groups": []}}, "referralId": "e-0-540f2951498e7516839a7126-0"}, {"reasons": {"count": 0, "items": [{"summary": "This spot is popular", "type": "general", "reasonName": "globalInteractionReason"}]}, "venue": {"id": "4baebdabf964a520ddd33be3", "name": "Hole in the Wall", "location": {"address": "2867 Dundas St W", "crossStreet": "at Keele St", "lat": 43.66529624102518, "lng": -79.46511783107383, "labeledLatLngs": [{"label": "display", "lat": 43.66529624102518, "lng": -79.46511783107383}], "distance": 411, "postalCode": "M6P 1Y9", "cc": "CA", "neighborhood": "The Junction", "city": "Toronto", "state": "ON", "country": "Canada", "formattedAddress": ["2867 Dundas St W (at Keele St)", "Toronto ON M6P 1Y9", "Canada"]}, "categories": [{"id": "4bf58dd8d48988d116941735", "name": "Bar", "pluralName": "Bars", "shortName": "Bar", "icon": {"prefix": "https://ss3.4sqi.net/img/categories_v2/nightlife/pub_", "suffix": ".png"}, "primary": true}], "photos": {"count": 0, "groups": []}}, "referralId": "e-0-4baebdabf964a520ddd33be3-1"}, {"reasons": {"count": 0, "items": [{"summary": "This spot is popular", "type": "general", "reasonName": "globalInteractionReason"}]}, "venue": {"id": "4bd30e129854d13acdbefc4d", "name": "Lithuania Park", "location": {"address": "155 Oakmount Rd", "crossStreet": "at Glenlake & Keele", "lat": 43.658666653470426, "lng": -79.46303844451904, "labeledLatLngs": [{"label": "display", "lat": 43.658666653470426, "lng": -79.46303844451904}], "distance": 355, "postalCode": "M1P 4N7", "cc": "CA", "city": "Toronto", "state": "ON", "country": "Canada", "formattedAddress": ["155 Oakmount Rd (at Glenlake & Keele)", "Toronto ON M1P 4N7", "Canada"]}, "categories": [{"id": "4bf58dd8d48988d163941735", "name": "Park", "pluralName": "Parks", "shortName": "Park", "icon": {"prefix": "https://ss3.4sqi.net/img/categories_v2/parks_outdoors/park_", "suffix": ".png"}, "primary": true}], "photos": {"count": 0, "groups": []}}, "referralId": "e-0-4bd30e129854d13acdbefc4d-2"}, {"reasons": {"count": 0, "items": [{"summary": "This spot is popular", "type": "general", "reasonName": "globalInteractionReason"}]}, "venue": {"id": "506f3aa3e4b0b0ed3e1dc405", "name": "Indie Alehouse", "location": {"address": "2876 Dundas St W", "crossStreet": "at Keele St", "lat": 43.66547472315272, "lng": -79.46528973047275, "labeledLatLngs": [{"label": "display", "lat": 43.66547472315272, "lng": -79.46528973047275}], "distance": 432, "postalCode": "M6P 1Y9", "cc": "CA", "neighborhood": "The Junction", "city": "Toronto", "state": "ON", "country": "Canada", "formattedAddress": ["2876 Dundas St W (at Keele St)", "Toronto ON M6P 1Y9", "Canada"]}, "categories": [{"id": "4bf58dd8d48988d155941735", "name": "Gastropub", "pluralName": "Gastropubs", "shortName": "Gastropub", "icon": {"prefix": "https://ss3.4sqi.net/img/categories_v2/food/gastropub_", "suffix": ".png"}, "primary": true}], "photos": {"count": 0, "groups": []}}, "referralId": "e-0-506f3aa3e4b0b0ed3e1dc405-3"}, {"reasons": {"count": 0, "items": [{"summary": "This spot is popular", "type": "general", "reasonName": "globalInteractionReason"}]}, "venue": {"id": "57f06846498e1e1c5bcf3704", "name": "famous last words", "location": {"address": "392 pacific ave", "crossStreet": "Dundas St W", "lat": 43.665181, "lng": -79.468471, "labeledLatLngs": [{"label": "display", "lat": 43.665181, "lng": -79.468471}], "distance": 497, "postalCode": "M6P", "cc": "CA", "neighborhood": "Junction Triangle, Toronto, ON", "city": "Toronto", "state": "ON", "country": "Canada", "formattedAddress": ["392 pacific ave (Dundas St W)", "Toronto ON M6P", "Canada"]}, "categories": [{"id": "4bf58dd8d48988d1d4941735", "name": "Speakeasy", "pluralName": "Speakeasies", "shortName": "Speakeasy", "icon": {"prefix": "https://ss3.4sqi.net/img/categories_v2/nightlife/secretbar_", "suffix": ".png"}, "primary": true}], "photos": {"count": 0, "groups": []}}, "referralId": "e-0-57f06846498e1e1c5bcf3704-4"}, {"reasons": {"count": 0, "items": [{"summary": "This spot is popular", "type": "general", "reasonName": "globalInteractionReason"}]}, "venue": {"id": "4fd39c1c7b0c4fe0be8915a5", "name": "Junction Flea", "location": {"address": "390 Keele Street", "crossStreet": "Indian Rd.", "lat": 43.665258286011984, "lng": -79.462867677381, "labeledLatLngs": [{"label": "display", "lat": 43.665258286011984, "lng": -79.462867677381}], "distance": 434, "postalCode": "M6P 2K8", "cc": "CA", "city": "Toronto", "state": "ON", "country": "Canada", "formattedAddress": ["390 Keele Street (Indian Rd.)", "Toronto ON M6P 2K8", "Canada"]}, "categories": [{"id": "4bf58dd8d48988d1f7941735", "name": "Flea Market", "pluralName": "Flea Markets", "shortName": "Flea Market", "icon": {"prefix": "https://ss3.4sqi.net/img/categories_v2/shops/fleamarket_", "suffix": ".png"}, "primary": true}], "photos": {"count": 0, "groups": []}}, "referralId": "e-0-4fd39c1c7b0c4fe0be8915a5-5"}, {"reasons": {"count": 0, "items": [{"summary": "This spot is popular", "type": "general", "reasonName": "globalInteractionReason"}]}, "venue": {"id": "53797f59498eb0a224aa40f4", "name": "Junction City Music Hall", "location": {"address": "2907 Dundas Street", "lat": 43.66533428942121, "lng": -79.46625298427486, "labeledLatLngs": [{"label": "display", "lat": 43.66533428942121, "lng": -79.46625298427486}], "distance": 431, "cc": "CA", "city": "Toronto", "state": "ON", "country": "Canada", "formattedAddress": ["2907 Dundas Street", "Toronto ON", "Canada"]}, "categories": [{"id": "4bf58dd8d48988d1e5931735", "name": "Music Venue", "pluralName": "Music Venues", "shortName": "Music Venue", "icon": {"prefix": "https://ss3.4sqi.net/img/categories_v2/arts_entertainment/musicvenue_", "suffix": ".png"}, "primary": true}], "photos": {"count": 0, "groups": []}}, "referralId": "e-0-53797f59498eb0a224aa40f4-6"}, {"reasons": {"count": 0, "items": [{"summary": "This spot is popular", "type": "general", "reasonName": "globalInteractionReason"}]}, "venue": {"id": "4b476502f964a520c73026e3", "name": "Mj\u00f6lk", "location": {"address": "2959 Dundas St W", "crossStreet": "Keele", "lat": 43.665432436685634, "lng": -79.46796194112322, "labeledLatLngs": [{"label": "display", "lat": 43.665432436685634, "lng": -79.46796194112322}], "distance": 497, "cc": "CA", "city": "Toronto", "state": "ON", "country": "Canada", "formattedAddress": ["2959 Dundas St W (Keele)", "Toronto ON", "Canada"]}, "categories": [{"id": "4bf58dd8d48988d1f8941735", "name": "Furniture / Home Store", "pluralName": "Furniture / Home Stores", "shortName": "Furniture / Home", "icon": {"prefix": "https://ss3.4sqi.net/img/categories_v2/shops/furniture_", "suffix": ".png"}, "primary": true}], "photos": {"count": 0, "groups": []}}, "referralId": "e-0-4b476502f964a520c73026e3-7"}, {"reasons": {"count": 0, "items": [{"summary": "This spot is popular", "type": "general", "reasonName": "globalInteractionReason"}]}, "venue": {"id": "50c2b419e4b0778555038b27", "name": "Playa Cabana Cantina", "location": {"address": "2883 Dundas Street West", "lat": 43.6653150256334, "lng": -79.46554803042925, "labeledLatLngs": [{"label": "display", "lat": 43.6653150256334, "lng": -79.46554803042925}], "distance": 417, "cc": "CA", "city": "Toronto", "state": "ON", "country": "Canada", "formattedAddress": ["2883 Dundas Street West", "Toronto ON", "Canada"]}, "categories": [{"id": "4bf58dd8d48988d1c1941735", "name": "Mexican Restaurant", "pluralName": "Mexican Restaurants", "shortName": "Mexican", "icon": {"prefix": "https://ss3.4sqi.net/img/categories_v2/food/mexican_", "suffix": ".png"}, "primary": true}], "photos": {"count": 0, "groups": []}}, "referralId": "e-0-50c2b419e4b0778555038b27-8"}, {"reasons": {"count": 0, "items": [{"summary": "This spot is popular", "type": "general", "reasonName": "globalInteractionReason"}]}, "venue": {"id": "4edbcf3c9911a3e78eda3a4a", "name": "ARTiculations", "location": {"address": "2928 Dundas W", "crossStreet": "Medland St.", "lat": 43.6655499084009, "lng": -79.46719380367311, "labeledLatLngs": [{"label": "display", "lat": 43.6655499084009, "lng": -79.46719380367311}], "distance": 480, "postalCode": "M6P 1Y8", "cc": "CA", "city": "Toronto", "state": "ON", "country": "Canada", "formattedAddress": ["2928 Dundas W (Medland St.)", "Toronto ON M6P 1Y8", "Canada"]}, "categories": [{"id": "4bf58dd8d48988d127951735", "name": "Arts & Crafts Store", "pluralName": "Arts & Crafts Stores", "shortName": "Arts & Crafts", "icon": {"prefix": "https://ss3.4sqi.net/img/categories_v2/shops/artstore_", "suffix": ".png"}, "primary": true}], "photos": {"count": 0, "groups": []}}, "referralId": "e-0-4edbcf3c9911a3e78eda3a4a-9"}, {"reasons": {"count": 0, "items": [{"summary": "This spot is popular", "type": "general", "reasonName": "globalInteractionReason"}]}, "venue": {"id": "4ae1ce4af964a520938721e3", "name": "The Beet Organic Caf\u00e9", "location": {"address": "2945 Dundas St. W.", "crossStreet": "at Medland St.", "lat": 43.665339657389666, "lng": -79.46713655678533, "labeledLatLngs": [{"label": "display", "lat": 43.665339657389666, "lng": -79.46713655678533}], "distance": 457, "postalCode": "M6P 1Z2", "cc": "CA", "city": "Toronto", "state": "ON", "country": "Canada", "formattedAddress": ["2945 Dundas St. W. (at Medland St.)", "Toronto ON M6P 1Z2", "Canada"]}, "categories": [{"id": "4bf58dd8d48988d16d941735", "name": "Caf\u00e9", "pluralName": "Caf\u00e9s", "shortName": "Caf\u00e9", "icon": {"prefix": "https://ss3.4sqi.net/img/categories_v2/food/cafe_", "suffix": ".png"}, "primary": true}], "photos": {"count": 0, "groups": []}}, "referralId": "e-0-4ae1ce4af964a520938721e3-10"}, {"reasons": {"count": 0, "items": [{"summary": "This spot is popular", "type": "general", "reasonName": "globalInteractionReason"}]}, "venue": {"id": "58e97ddc3cccc6401e71f681", "name": "Isaan Der", "location": {"address": "2961 Dundas St W", "lat": 43.665311, "lng": -79.468078, "labeledLatLngs": [{"label": "display", "lat": 43.665311, "lng": -79.468078}], "distance": 491, "postalCode": "M6P 1Z2", "cc": "CA", "city": "Toronto", "state": "ON", "country": "Canada", "formattedAddress": ["2961 Dundas St W", "Toronto ON M6P 1Z2", "Canada"]}, "categories": [{"id": "4bf58dd8d48988d149941735", "name": "Thai Restaurant", "pluralName": "Thai Restaurants", "shortName": "Thai", "icon": {"prefix": "https://ss3.4sqi.net/img/categories_v2/food/thai_", "suffix": ".png"}, "primary": true}], "photos": {"count": 0, "groups": []}}, "referralId": "e-0-58e97ddc3cccc6401e71f681-11"}, {"reasons": {"count": 0, "items": [{"summary": "This spot is popular", "type": "general", "reasonName": "globalInteractionReason"}]}, "venue": {"id": "4b6f41b2f964a52074e72ce3", "name": "No Frills", "location": {"address": "372 Pacific Ave", "crossStreet": "at Dundas St W", "lat": 43.664243, "lng": -79.468643, "labeledLatLngs": [{"label": "display", "lat": 43.664243, "lng": -79.468643}], "distance": 428, "postalCode": "M6P 2R1", "cc": "CA", "city": "Toronto", "state": "ON", "country": "Canada", "formattedAddress": ["372 Pacific Ave (at Dundas St W)", "Toronto ON M6P 2R1", "Canada"]}, "categories": [{"id": "4bf58dd8d48988d118951735", "name": "Grocery Store", "pluralName": "Grocery Stores", "shortName": "Grocery Store", "icon": {"prefix": "https://ss3.4sqi.net/img/categories_v2/shops/food_grocery_", "suffix": ".png"}, "primary": true}], "photos": {"count": 0, "groups": []}}, "referralId": "e-0-4b6f41b2f964a52074e72ce3-12"}, {"reasons": {"count": 0, "items": [{"summary": "This spot is popular", "type": "general", "reasonName": "globalInteractionReason"}]}, "venue": {"id": "4b772204f964a520a2802ee3", "name": "Pandemonium", "location": {"address": "2920 Dundas St. W.", "crossStreet": "at Keele St.", "lat": 43.6655328625076, "lng": -79.46693103427353, "labeledLatLngs": [{"label": "display", "lat": 43.6655328625076, "lng": -79.46693103427353}], "distance": 470, "postalCode": "M6P 1Y8", "cc": "CA", "city": "Toronto", "state": "ON", "country": "Canada", "formattedAddress": ["2920 Dundas St. W. (at Keele St.)", "Toronto ON M6P 1Y8", "Canada"]}, "categories": [{"id": "4bf58dd8d48988d114951735", "name": "Bookstore", "pluralName": "Bookstores", "shortName": "Bookstore", "icon": {"prefix": "https://ss3.4sqi.net/img/categories_v2/shops/bookstore_", "suffix": ".png"}, "primary": true}], "photos": {"count": 0, "groups": []}}, "referralId": "e-0-4b772204f964a520a2802ee3-13"}, {"reasons": {"count": 0, "items": [{"summary": "This spot is popular", "type": "general", "reasonName": "globalInteractionReason"}]}, "venue": {"id": "4c0d82f17189c9289124d7b6", "name": "Silk", "location": {"address": "2907 dundas street west", "lat": 43.66529073542964, "lng": -79.46623843808621, "labeledLatLngs": [{"label": "display", "lat": 43.66529073542964, "lng": -79.46623843808621}], "distance": 426, "cc": "CA", "city": "Toronto", "state": "ON", "country": "Canada", "formattedAddress": ["2907 dundas street west", "Toronto ON", "Canada"]}, "categories": [{"id": "4bf58dd8d48988d149941735", "name": "Thai Restaurant", "pluralName": "Thai Restaurants", "shortName": "Thai", "icon": {"prefix": "https://ss3.4sqi.net/img/categories_v2/food/thai_", "suffix": ".png"}, "primary": true}], "photos": {"count": 0, "groups": []}}, "referralId": "e-0-4c0d82f17189c9289124d7b6-14"}, {"reasons": {"count": 0, "items": [{"summary": "This spot is popular", "type": "general", "reasonName": "globalInteractionReason"}]}, "venue": {"id": "4adcc713f964a520b42f21e3", "name": "Cool Hand of a Girl", "location": {"address": "2804 Dundas Street West", "crossStreet": "Heintzman St", "lat": 43.66541017820662, "lng": -79.46282167660381, "labeledLatLngs": [{"label": "display", "lat": 43.66541017820662, "lng": -79.46282167660381}], "distance": 451, "postalCode": "m6p1y5", "cc": "CA", "city": "Toronto", "state": "ON", "country": "Canada", "formattedAddress": ["2804 Dundas Street West (Heintzman St)", "Toronto ON m6p1y5", "Canada"]}, "categories": [{"id": "4bf58dd8d48988d16d941735", "name": "Caf\u00e9", "pluralName": "Caf\u00e9s", "shortName": "Caf\u00e9", "icon": {"prefix": "https://ss3.4sqi.net/img/categories_v2/food/cafe_", "suffix": ".png"}, "primary": true}], "photos": {"count": 0, "groups": []}}, "referralId": "e-0-4adcc713f964a520b42f21e3-15"}, {"reasons": {"count": 0, "items": [{"summary": "This spot is popular", "type": "general", "reasonName": "globalInteractionReason"}]}, "venue": {"id": "5aee1fc74b78c5002c1c8304", "name": "Chica\u2019s Nashville Hot Chicken", "location": {"address": "2853 Dundas St. W", "lat": 43.665295, "lng": -79.464888, "labeledLatLngs": [{"label": "display", "lat": 43.665295, "lng": -79.464888}], "distance": 410, "postalCode": "M6H", "cc": "CA", "city": "Toronto", "state": "ON", "country": "Canada", "formattedAddress": ["2853 Dundas St. W", "Toronto ON M6H", "Canada"]}, "categories": [{"id": "4d4ae6fc7a7b7dea34424761", "name": "Fried Chicken Joint", "pluralName": "Fried Chicken Joints", "shortName": "Fried Chicken", "icon": {"prefix": "https://ss3.4sqi.net/img/categories_v2/food/friedchicken_", "suffix": ".png"}, "primary": true}], "photos": {"count": 0, "groups": []}}, "referralId": "e-0-5aee1fc74b78c5002c1c8304-16"}, {"reasons": {"count": 0, "items": [{"summary": "This spot is popular", "type": "general", "reasonName": "globalInteractionReason"}]}, "venue": {"id": "588294c39c439d0a27702402", "name": "A&W Canada", "location": {"address": "2858 Dundas St. W.", "crossStreet": "Keele Street", "lat": 43.66552, "lng": -79.464731, "labeledLatLngs": [{"label": "display", "lat": 43.66552, "lng": -79.464731}], "distance": 435, "postalCode": "M6P 1Y8", "cc": "CA", "neighborhood": "The Junction, Toronto, ON", "city": "Toronto", "state": "ON", "country": "Canada", "formattedAddress": ["2858 Dundas St. W. (Keele Street)", "Toronto ON M6P 1Y8", "Canada"]}, "categories": [{"id": "4bf58dd8d48988d16e941735", "name": "Fast Food Restaurant", "pluralName": "Fast Food Restaurants", "shortName": "Fast Food", "icon": {"prefix": "https://ss3.4sqi.net/img/categories_v2/food/fastfood_", "suffix": ".png"}, "primary": true}], "photos": {"count": 0, "groups": []}}, "referralId": "e-0-588294c39c439d0a27702402-17"}, {"reasons": {"count": 0, "items": [{"summary": "This spot is popular", "type": "general", "reasonName": "globalInteractionReason"}]}, "venue": {"id": "504b60aee4b03691165966f7", "name": "Junction Grill", "location": {"address": "390 Pacific Ave", "lat": 43.66521011890175, "lng": -79.46846083483024, "labeledLatLngs": [{"label": "display", "lat": 43.66521011890175, "lng": -79.46846083483024}], "distance": 499, "cc": "CA", "city": "Toronto", "state": "ON", "country": "Canada", "formattedAddress": ["390 Pacific Ave", "Toronto ON", "Canada"]}, "categories": [{"id": "4bf58dd8d48988d147941735", "name": "Diner", "pluralName": "Diners", "shortName": "Diner", "icon": {"prefix": "https://ss3.4sqi.net/img/categories_v2/food/diner_", "suffix": ".png"}, "primary": true}], "photos": {"count": 0, "groups": []}}, "referralId": "e-0-504b60aee4b03691165966f7-18"}, {"reasons": {"count": 0, "items": [{"summary": "This spot is popular", "type": "general", "reasonName": "globalInteractionReason"}]}, "venue": {"id": "4c3355e4213c2d7fe9bd365d", "name": "ROUX", "location": {"address": "2790 Dundas St. W", "lat": 43.66541814719867, "lng": -79.46239204687215, "labeledLatLngs": [{"label": "display", "lat": 43.66541814719867, "lng": -79.46239204687215}], "distance": 465, "cc": "CA", "city": "Toronto", "state": "ON", "country": "Canada", "formattedAddress": ["2790 Dundas St. W", "Toronto ON", "Canada"]}, "categories": [{"id": "4bf58dd8d48988d17a941735", "name": "Cajun / Creole Restaurant", "pluralName": "Cajun / Creole Restaurants", "shortName": "Cajun / Creole", "icon": {"prefix": "https://ss3.4sqi.net/img/categories_v2/food/cajun_", "suffix": ".png"}, "primary": true}], "photos": {"count": 0, "groups": []}}, "referralId": "e-0-4c3355e4213c2d7fe9bd365d-19"}, {"reasons": {"count": 0, "items": [{"summary": "This spot is popular", "type": "general", "reasonName": "globalInteractionReason"}]}, "venue": {"id": "4b5c9f05f964a520643a29e3", "name": "Pascal's Baguette & Bagels", "location": {"address": "2904 Dundas St. W", "crossStreet": "btwn Keele St & High Park Ave", "lat": 43.665426, "lng": -79.466176, "labeledLatLngs": [{"label": "display", "lat": 43.665426, "lng": -79.466176}], "distance": 439, "postalCode": "M6P 1Y8", "cc": "CA", "city": "Toronto", "state": "ON", "country": "Canada", "formattedAddress": ["2904 Dundas St. W (btwn Keele St & High Park Ave)", "Toronto ON M6P 1Y8", "Canada"]}, "categories": [{"id": "4bf58dd8d48988d16a941735", "name": "Bakery", "pluralName": "Bakeries", "shortName": "Bakery", "icon": {"prefix": "https://ss3.4sqi.net/img/categories_v2/food/bakery_", "suffix": ".png"}, "primary": true}], "photos": {"count": 0, "groups": []}}, "referralId": "e-0-4b5c9f05f964a520643a29e3-20"}, {"reasons": {"count": 0, "items": [{"summary": "This spot is popular", "type": "general", "reasonName": "globalInteractionReason"}]}, "venue": {"id": "4d767b57d6688cfa8c1f1e15", "name": "La Revolucion", "location": {"address": "2848 Dundas Street West", "crossStreet": "Keele", "lat": 43.66546024899212, "lng": -79.46430756434131, "labeledLatLngs": [{"label": "display", "lat": 43.66546024899212, "lng": -79.46430756434131}], "distance": 430, "postalCode": "M6p1y6", "cc": "CA", "city": "Toronto", "state": "ON", "country": "Canada", "formattedAddress": ["2848 Dundas Street West (Keele)", "Toronto ON M6p1y6", "Canada"]}, "categories": [{"id": "4bf58dd8d48988d1c1941735", "name": "Mexican Restaurant", "pluralName": "Mexican Restaurants", "shortName": "Mexican", "icon": {"prefix": "https://ss3.4sqi.net/img/categories_v2/food/mexican_", "suffix": ".png"}, "primary": true}], "photos": {"count": 0, "groups": []}}, "referralId": "e-0-4d767b57d6688cfa8c1f1e15-21"}, {"reasons": {"count": 0, "items": [{"summary": "This spot is popular", "type": "general", "reasonName": "globalInteractionReason"}]}, "venue": {"id": "4b26d1aff964a520698124e3", "name": "Shoxs", "location": {"address": "2827 Dundas St W.", "crossStreet": "at Keele St.", "lat": 43.665352769160776, "lng": -79.46356279142312, "labeledLatLngs": [{"label": "display", "lat": 43.665352769160776, "lng": -79.46356279142312}], "distance": 427, "postalCode": "M6P 1Y6", "cc": "CA", "city": "Toronto", "state": "ON", "country": "Canada", "formattedAddress": ["2827 Dundas St W. (at Keele St.)", "Toronto ON M6P 1Y6", "Canada"]}, "categories": [{"id": "4bf58dd8d48988d116941735", "name": "Bar", "pluralName": "Bars", "shortName": "Bar", "icon": {"prefix": "https://ss3.4sqi.net/img/categories_v2/nightlife/pub_", "suffix": ".png"}, "primary": true}], "photos": {"count": 0, "groups": []}}, "referralId": "e-0-4b26d1aff964a520698124e3-22"}]}]}}