{"meta": {"code": 200, "requestId": "5e1f6bb7006dce001beb8526"}, "response": {"suggestedFilters": {"header": "Tap to show:", "filters": [{"name": "Open now", "key": "openNow"}]}, "headerLocation": "Eringate", "headerFullLocation": "Eringate, Toronto", "headerLocationGranularity": "neighborhood", "totalResults": 8, "suggestedBounds": {"ne": {"lat": 43.648015204500005, "lng": -79.57099391058682}, "sw": {"lat": 43.6390151955, "lng": -79.58340768941315}}, "groups": [{"type": "Recommended Places", "name": "recommended", "items": [{"reasons": {"count": 0, "items": [{"summary": "This spot is popular", "type": "general", "reasonName": "globalInteractionReason"}]}, "venue": {"id": "4b017e51f964a520d84222e3", "name": "LCBO", "location": {"address": "662 Burnhamthorpe Rd.", "crossStreet": "at Saturn Rd.", "lat": 43.642098691959625, "lng": -79.5765915607928, "labeledLatLngs": [{"label": "display", "lat": 43.642098691959625, "lng": -79.5765915607928}], "distance": 165, "postalCode": "M9C 2Z4", "cc": "CA", "city": "Etobicoke", "state": "ON", "country": "Canada", "formattedAddress": ["662 Burnhamthorpe Rd. (at Saturn Rd.)", "Etobicoke ON M9C 2Z4", "Canada"]}, "categories": [{"id": "4bf58dd8d48988d186941735", "name": "Liquor Store", "pluralName": "Liquor Stores", "shortName": "Liquor Store", "icon": {"prefix": "https://ss3.4sqi.net/img/categories_v2/shops/food_liquor_", "suffix": ".png"}, "primary": true}], "photos": {"count": 0, "groups": []}}, "referralId": "e-0-4b017e51f964a520d84222e3-0"}, {"reasons": {"count": 0, "items": [{"summary": "This spot is popular", "type": "general", "reasonName": "globalInteractionReason"}]}, "venue": {"id": "5cebda3300b068002dca9d81", "name": "Starbucks", "location": {"address": "666 Burnhamthorpe Rd", "lat": 43.641312, "lng": -79.576924, "labeledLatLngs": [{"label": "display", "lat": 43.641312, "lng": -79.576924}], "distance": 246, "postalCode": "M9C 2Z4", "cc": "CA", "city": "Etobicoke", "state": "ON", "country": "Canada", "formattedAddress": ["666 Burnhamthorpe Rd", "Etobicoke ON M9C 2Z4", "Canada"]}, "categories": [{"id": "4bf58dd8d48988d1e0931735", "name": "Coffee Shop", "pluralName": "Coffee Shops", "shortName": "Coffee Shop", "icon": {"prefix": "https://ss3.4sqi.net/img/categories_v2/food/coffeeshop_", "suffix": ".png"}, "primary": true}], "photos": {"count": 0, "groups": []}}, "referralId": "e-0-5cebda3300b068002dca9d81-1"}, {"reasons": {"count": 0, "items": [{"summary": "This spot is popular", "type": "general", "reasonName": "globalInteractionReason"}]}, "venue": {"id": "4b017e8cf964a520da4222e3", "name": "The Beer Store", "location": {"address": "666 Burnhamthorpe Rd", "lat": 43.6413126, "lng": -79.5769248, "labeledLatLngs": [{"label": "display", "lat": 43.6413126, "lng": -79.5769248}], "distance": 246, "postalCode": "M9C 2Z4", "cc": "CA", "city": "Etobicoke", "state": "ON", "country": "Canada", "formattedAddress": ["666 Burnhamthorpe Rd", "Etobicoke ON M9C 2Z4", "Canada"]}, "categories": [{"id": "5370f356bcbc57f1066c94c2", "name": "Beer Store", "pluralName": "Beer Stores", "shortName": "Beer Store", "icon": {"prefix": "https://ss3.4sqi.net/img/categories_v2/nightlife/beergarden_", "suffix": ".png"}, "primary": true}], "photos": {"count": 0, "groups": []}}, "referralId": "e-0-4b017e8cf964a520da4222e3-2"}, {"reasons": {"count": 0, "items": [{"summary": "This spot is popular", "type": "general", "reasonName": "globalInteractionReason"}]}, "venue": {"id": "57213eb9cd10ddb43c64eefc", "name": "Shoppers Drug Mart", "location": {"address": "666 Burnhamthorpe Rd", "lat": 43.641312, "lng": -79.576924, "labeledLatLngs": [{"label": "display", "lat": 43.641312, "lng": -79.576924}], "distance": 246, "postalCode": "M9C 2Z4", "cc": "CA", "city": "Etobicoke", "state": "ON", "country": "Canada", "formattedAddress": ["666 Burnhamthorpe Rd", "Etobicoke ON M9C 2Z4", "Canada"]}, "categories": [{"id": "4bf58dd8d48988d10f951735", "name": "Pharmacy", "pluralName": "Pharmacies", "shortName": "Pharmacy", "icon": {"prefix": "https://ss3.4sqi.net/img/categories_v2/shops/pharmacy_", "suffix": ".png"}, "primary": true}], "photos": {"count": 0, "groups": []}}, "referralId": "e-0-57213eb9cd10ddb43c64eefc-3"}, {"reasons": {"count": 0, "items": [{"summary": "This spot is popular", "type": "general", "reasonName": "globalInteractionReason"}]}, "venue": {"id": "4cb4e17052edb1f7745763fe", "name": "Pizza Hut", "location": {"address": "666 Burnhamthorpe Road", "lat": 43.64184465713319, "lng": -79.5765560607079, "labeledLatLngs": [{"label": "display", "lat": 43.64184465713319, "lng": -79.5765560607079}], "distance": 193, "postalCode": "M9C 2Z3", "cc": "CA", "city": "Etobicoke", "state": "ON", "country": "Canada", "formattedAddress": ["666 Burnhamthorpe Road", "Etobicoke ON M9C 2Z3", "Canada"]}, "categories": [{"id": "4bf58dd8d48988d1ca941735", "name": "Pizza Place", "pluralName": "Pizza Places", "shortName": "Pizza", "icon": {"prefix": "https://ss3.4sqi.net/img/categories_v2/food/pizza_", "suffix": ".png"}, "primary": true}], "photos": {"count": 0, "groups": []}}, "referralId": "e-0-4cb4e17052edb1f7745763fe-4"}, {"reasons": {"count": 0, "items": [{"summary": "This spot is popular", "type": "general", "reasonName": "globalInteractionReason"}]}, "venue": {"id": "4b251b4cf964a520586c24e3", "name": "Cafe Sympatico", "location": {"address": "666 Burnhamthorpe Rd.", "crossStreet": "at Saturn Rd.", "lat": 43.641820470953256, "lng": -79.57672066335874, "labeledLatLngs": [{"label": "display", "lat": 43.641820470953256, "lng": -79.57672066335874}], "distance": 192, "postalCode": "M9C 2Z4", "cc": "CA", "city": "Etobicoke", "state": "ON", "country": "Canada", "formattedAddress": ["666 Burnhamthorpe Rd. (at Saturn Rd.)", "Etobicoke ON M9C 2Z4", "Canada"]}, "categories": [{"id": "4bf58dd8d48988d16d941735", "name": "Caf\u00e9", "pluralName": "Caf\u00e9s", "shortName": "Caf\u00e9", "icon": {"prefix": "https://ss3.4sqi.net/img/categories_v2/food/cafe_", "suffix": ".png"}, "primary": true}], "photos": {"count": 0, "groups": []}}, "referralId": "e-0-4b251b4cf964a520586c24e3-5"}, {"reasons": {"count": 0, "items": [{"summary": "This spot is popular", "type": "general", "reasonName": "globalInteractionReason"}]}, "venue": {"id": "4c4a2189bad7a5931667f0a9", "name": "Hasty Market", "location": {"address": "666 Burnhamthorpe Rd", "lat": 43.641870640831144, "lng": -79.5763695106309, "labeledLatLngs": [{"label": "display", "lat": 43.641870640831144, "lng": -79.5763695106309}], "distance": 194, "postalCode": "M9C 2Z4", "cc": "CA", "city": "Toronto", "state": "ON", "country": "Canada", "formattedAddress": ["666 Burnhamthorpe Rd", "Toronto ON M9C 2Z4", "Canada"]}, "categories": [{"id": "4d954b0ea243a5684a65b473", "name": "Convenience Store", "pluralName": "Convenience Stores", "shortName": "Convenience Store", "icon": {"prefix": "https://ss3.4sqi.net/img/categories_v2/shops/conveniencestore_", "suffix": ".png"}, "primary": true}], "photos": {"count": 0, "groups": []}}, "referralId": "e-0-4c4a2189bad7a5931667f0a9-6"}, {"reasons": {"count": 0, "items": [{"summary": "This spot is popular", "type": "general", "reasonName": "globalInteractionReason"}]}, "venue": {"id": "4f1ae0c2e4b095bc4517a2df", "name": "Pet Valu", "location": {"address": "666 Burnhamthorpe Road", "lat": 43.64166745232465, "lng": -79.57704986776474, "labeledLatLngs": [{"label": "display", "lat": 43.64166745232465, "lng": -79.57704986776474}], "distance": 206, "postalCode": "M9C 2Z4", "cc": "CA", "city": "Etobicoke", "state": "ON", "country": "Canada", "formattedAddress": ["666 Burnhamthorpe Road", "Etobicoke ON M9C 2Z4", "Canada"]}, "categories": [{"id": "4bf58dd8d48988d100951735", "name": "Pet Store", "pluralName": "Pet Stores", "shortName": "Pet Store", "icon": {"prefix": "https://ss3.4sqi.net/img/categories_v2/shops/pet_store_", "suffix": ".png"}, "primary": true}], "photos": {"count": 0, "groups": []}}, "referralId": "e-0-4f1ae0c2e4b095bc4517a2df-7"}]}]}}