{"meta": {"code": 200, "requestId": "5e1f6bce963d29001b1e0ad0"}, "response": {"suggestedFilters": {"header": "Tap to show:", "filters": [{"name": "Open now", "key": "openNow"}]}, "headerLocation": "Alderwood", "headerFullLocation": "Alderwood, Toronto", "headerLocationGranularity": "neighborhood", "totalResults": 10, "suggestedBounds": {"ne": {"lat": 43.60691370450001, "lng": -79.53728145264961}, "sw": {"lat": 43.597913695500004, "lng": -79.54968674735036}}, "groups": [{"type": "Recommended Places", "name": "recommended", "items": [{"reasons": {"count": 0, "items": [{"summary": "This spot is popular", "type": "general", "reasonName": "globalInteractionReason"}]}, "venue": {"id": "4c47927c1ddec928fbec9d32", "name": "Il Paesano Pizzeria & Restaurant", "location": {"address": "396 Browns Line", "crossStreet": "at Horner Ave", "lat": 43.60128, "lng": -79.545028, "labeledLatLngs": [{"label": "display", "lat": 43.60128, "lng": -79.545028}], "distance": 177, "postalCode": "M8W 3T8", "cc": "CA", "city": "Etobicoke", "state": "ON", "country": "Canada", "formattedAddress": ["396 Browns Line (at Horner Ave)", "Etobicoke ON M8W 3T8", "Canada"]}, "categories": [{"id": "4bf58dd8d48988d1ca941735", "name": "Pizza Place", "pluralName": "Pizza Places", "shortName": "Pizza", "icon": {"prefix": "https://ss3.4sqi.net/img/categories_v2/food/pizza_", "suffix": ".png"}, "primary": true}], "photos": {"count": 0, "groups": []}}, "referralId": "e-0-4c47927c1ddec928fbec9d32-0"}, {"reasons": {"count": 0, "items": [{"summary": "This spot is popular", "type": "general", "reasonName": "globalInteractionReason"}]}, "venue": {"id": "4b9fbdb4f964a520583a37e3", "name": "Toronto Gymnastics International", "location": {"address": "77 Browns Line", "lat": 43.59983195234328, "lng": -79.54292448822379, "labeledLatLngs": [{"label": "display", "lat": 43.59983195234328, "lng": -79.54292448822379}], "distance": 290, "cc": "CA", "city": "Toronto", "state": "ON", "country": "Canada", "formattedAddress": ["77 Browns Line", "Toronto ON", "Canada"]}, "categories": [{"id": "4bf58dd8d48988d176941735", "name": "Gym", "pluralName": "Gyms", "shortName": "Gym", "icon": {"prefix": "https://ss3.4sqi.net/img/categories_v2/building/gym_", "suffix": ".png"}, "primary": true}], "photos": {"count": 0, "groups": []}}, "referralId": "e-0-4b9fbdb4f964a520583a37e3-1"}, {"reasons": {"count": 0, "items": [{"summary": "This spot is popular", "type": "general", "reasonName": "globalInteractionReason"}]}, "venue": {"id": "4c2e93a2a0ced13ae42a0f6e", "name": "Timothy's Pub", "location": {"address": "344 Brown's Line", "crossStreet": "at Roseland Dr.", "lat": 43.60016508568706, "lng": -79.54469872722389, "labeledLatLngs": [{"label": "display", "lat": 43.60016508568706, "lng": -79.54469872722389}], "distance": 268, "postalCode": "M8W 1Y3", "cc": "CA", "city": "Etobicoke", "state": "ON", "country": "Canada", "formattedAddress": ["344 Brown's Line (at Roseland Dr.)", "Etobicoke ON M8W 1Y3", "Canada"]}, "categories": [{"id": "4bf58dd8d48988d11b941735", "name": "Pub", "pluralName": "Pubs", "shortName": "Pub", "icon": {"prefix": "https://ss3.4sqi.net/img/categories_v2/nightlife/pub_", "suffix": ".png"}, "primary": true}], "photos": {"count": 0, "groups": []}}, "referralId": "e-0-4c2e93a2a0ced13ae42a0f6e-2"}, {"reasons": {"count": 0, "items": [{"summary": "This spot is popular", "type": "general", "reasonName": "globalInteractionReason"}]}, "venue": {"id": "50ad1433e4b065fd4f678ffd", "name": "Tim Hortons", "location": {"address": "435 Browns Line", "crossStreet": "at Shell Station", "lat": 43.60239631505536, "lng": -79.5450476557017, "labeledLatLngs": [{"label": "display", "lat": 43.60239631505536, "lng": -79.5450476557017}], "distance": 126, "postalCode": "M8W 3V1", "cc": "CA", "city": "Etobicoke", "state": "ON", "country": "Canada", "formattedAddress": ["435 Browns Line (at Shell Station)", "Etobicoke ON M8W 3V1", "Canada"]}, "categories": [{"id": "4bf58dd8d48988d1e0931735", "name": "Coffee Shop", "pluralName": "Coffee Shops", "shortName": "Coffee Shop", "icon": {"prefix": "https://ss3.4sqi.net/img/categories_v2/food/coffeeshop_", "suffix": ".png"}, "primary": true}], "photos": {"count": 0, "groups": []}}, "referralId": "e-0-50ad1433e4b065fd4f678ffd-3"}, {"reasons": {"count": 0, "items": [{"summary": "This spot is popular", "type": "general", "reasonName": "globalInteractionReason"}]}, "venue": {"id": "4ba685b0f964a520b65a39e3", "name": "Pizza Pizza", "location": {"address": "606 Browns Line", "lat": 43.60534035117562, "lng": -79.54725175609202, "labeledLatLngs": [{"label": "display", "lat": 43.60534035117562, "lng": -79.54725175609202}], "distance": 445, "postalCode": "M8W 3T5", "cc": "CA", "city": "Etobicoke", "state": "ON", "country": "Canada", "formattedAddress": ["606 Browns Line", "Etobicoke ON M8W 3T5", "Canada"]}, "categories": [{"id": "4bf58dd8d48988d1ca941735", "name": "Pizza Place", "pluralName": "Pizza Places", "shortName": "Pizza", "icon": {"prefix": "https://ss3.4sqi.net/img/categories_v2/food/pizza_", "suffix": ".png"}, "primary": true}], "photos": {"count": 0, "groups": []}}, "referralId": "e-0-4ba685b0f964a520b65a39e3-4"}, {"reasons": {"count": 0, "items": [{"summary": "This spot is popular", "type": "general", "reasonName": "globalInteractionReason"}]}, "venue": {"id": "4b75ce6af964a5201b262ee3", "name": "Subway", "location": {"address": "300 Browns Line", "crossStreet": "at Woodbury Rd.", "lat": 43.59915224732402, "lng": -79.54439458247475, "labeledLatLngs": [{"label": "display", "lat": 43.59915224732402, "lng": -79.54439458247475}], "distance": 370, "postalCode": "M8W 3T5", "cc": "CA", "city": "Etobicoke", "state": "ON", "country": "Canada", "formattedAddress": ["300 Browns Line (at Woodbury Rd.)", "Etobicoke ON M8W 3T5", "Canada"]}, "categories": [{"id": "4bf58dd8d48988d1c5941735", "name": "Sandwich Place", "pluralName": "Sandwich Places", "shortName": "Sandwiches", "icon": {"prefix": "https://ss3.4sqi.net/img/categories_v2/food/deli_", "suffix": ".png"}, "primary": true}], "photos": {"count": 0, "groups": []}}, "referralId": "e-0-4b75ce6af964a5201b262ee3-5"}, {"reasons": {"count": 0, "items": [{"summary": "This spot is popular", "type": "general", "reasonName": "globalInteractionReason"}]}, "venue": {"id": "4ee7dab85c5c04b331bcadc2", "name": "Taras Shevchenko Ukrainian Community Centre", "location": {"address": "482 Horner Ave", "lat": 43.60220720982585, "lng": -79.54366246716957, "labeledLatLngs": [{"label": "display", "lat": 43.60220720982585, "lng": -79.54366246716957}], "distance": 27, "postalCode": "M8W 2B7", "cc": "CA", "city": "Toronto", "state": "ON", "country": "Canada", "formattedAddress": ["482 Horner Ave", "Toronto ON M8W 2B7", "Canada"]}, "categories": [{"id": "4bf58dd8d48988d134941735", "name": "Dance Studio", "pluralName": "Dance Studios", "shortName": "Dance Studio", "icon": {"prefix": "https://ss3.4sqi.net/img/categories_v2/arts_entertainment/performingarts_dancestudio_", "suffix": ".png"}, "primary": true}], "photos": {"count": 0, "groups": []}}, "referralId": "e-0-4ee7dab85c5c04b331bcadc2-6"}, {"reasons": {"count": 0, "items": [{"summary": "This spot is popular", "type": "general", "reasonName": "globalInteractionReason"}]}, "venue": {"id": "4b6882ecf964a520037d2be3", "name": "Rexall", "location": {"address": "440 Browns Line", "crossStreet": "at Horner Ave.", "lat": 43.601951, "lng": -79.545694, "labeledLatLngs": [{"label": "display", "lat": 43.601951, "lng": -79.545694}], "distance": 185, "postalCode": "M8W 3T9", "cc": "CA", "city": "Toronto", "state": "ON", "country": "Canada", "formattedAddress": ["440 Browns Line (at Horner Ave.)", "Toronto ON M8W 3T9", "Canada"]}, "categories": [{"id": "4bf58dd8d48988d10f951735", "name": "Pharmacy", "pluralName": "Pharmacies", "shortName": "Pharmacy", "icon": {"prefix": "https://ss3.4sqi.net/img/categories_v2/shops/pharmacy_", "suffix": ".png"}, "primary": true}], "photos": {"count": 0, "groups": []}}, "referralId": "e-0-4b6882ecf964a520037d2be3-7"}, {"reasons": {"count": 0, "items": [{"summary": "This spot is popular", "type": "general", "reasonName": "globalInteractionReason"}]}, "venue": {"id": "4be5bb7acf200f47e9a2133c", "name": "Alderwood Pool", "location": {"address": "2 Orianna Dr.", "crossStreet": "at Horner Ave.", "lat": 43.60180197683229, "lng": -79.54724725574704, "labeledLatLngs": [{"label": "display", "lat": 43.60180197683229, "lng": -79.54724725574704}], "distance": 310, "postalCode": "M8W 4Y1", "cc": "CA", "city": "Toronto", "state": "ON", "country": "Canada", "formattedAddress": ["2 Orianna Dr. (at Horner Ave.)", "Toronto ON M8W 4Y1", "Canada"]}, "categories": [{"id": "4bf58dd8d48988d15e941735", "name": "Pool", "pluralName": "Pools", "shortName": "Pool", "icon": {"prefix": "https://ss3.4sqi.net/img/categories_v2/parks_outdoors/pool_", "suffix": ".png"}, "primary": true}], "photos": {"count": 0, "groups": []}}, "referralId": "e-0-4be5bb7acf200f47e9a2133c-8"}, {"reasons": {"count": 0, "items": [{"summary": "This spot is popular", "type": "general", "reasonName": "globalInteractionReason"}]}, "venue": {"id": "4be2f206b02ec9b6fc174ec0", "name": "Sir Adam Beck Rink", "location": {"address": "2 Orianna Dr.", "crossStreet": "at Avalon Rd.", "lat": 43.602526494798546, "lng": -79.5474551115246, "labeledLatLngs": [{"label": "display", "lat": 43.602526494798546, "lng": -79.5474551115246}], "distance": 320, "postalCode": "M8W 2C2", "cc": "CA", "city": "Toronto", "state": "ON", "country": "Canada", "formattedAddress": ["2 Orianna Dr. (at Avalon Rd.)", "Toronto ON M8W 2C2", "Canada"]}, "categories": [{"id": "4bf58dd8d48988d168941735", "name": "Skating Rink", "pluralName": "Skating Rinks", "shortName": "Skating Rink", "icon": {"prefix": "https://ss3.4sqi.net/img/categories_v2/parks_outdoors/skatingrink_", "suffix": ".png"}, "primary": true}], "photos": {"count": 0, "groups": []}}, "referralId": "e-0-4be2f206b02ec9b6fc174ec0-9"}]}]}}