{"meta": {"code": 200, "requestId": "5e1f6c50f7706a001c401c0c"}, "response": {"suggestedFilters": {"header": "Tap to show:", "filters": [{"name": "Open now", "key": "openNow"}]}, "headerLocation": "Financial District", "headerFullLocation": "Financial District, Toronto", "headerLocationGranularity": "neighborhood", "totalResults": 134, "suggestedBounds": {"ne": {"lat": 43.6516768045, "lng": -79.37536913223866}, "sw": {"lat": 43.642676795499995, "lng": -79.38778366776137}}, "groups": [{"type": "Recommended Places", "name": "recommended", "items": [{"reasons": {"count": 0, "items": [{"summary": "This spot is popular", "type": "general", "reasonName": "globalInteractionReason"}]}, "venue": {"id": "501ae947e4b0d11883b910a7", "name": "Equinox Bay Street", "location": {"address": "199 Bay St", "crossStreet": "at Commerce Court West, PATH Level", "lat": 43.64809974034856, "lng": -79.37998869411526, "labeledLatLngs": [{"label": "display", "lat": 43.64809974034856, "lng": -79.37998869411526}], "distance": 164, "postalCode": "M5L 1L5", "cc": "CA", "city": "Toronto", "state": "ON", "country": "Canada", "formattedAddress": ["199 Bay St (at Commerce Court West, PATH Level)", "Toronto ON M5L 1L5", "Canada"]}, "categories": [{"id": "4bf58dd8d48988d176941735", "name": "Gym", "pluralName": "Gyms", "shortName": "Gym", "icon": {"prefix": "https://ss3.4sqi.net/img/categories_v2/building/gym_", "suffix": ".png"}, "primary": true}], "photos": {"count": 0, "groups": []}}, "referralId": "e-0-501ae947e4b0d11883b910a7-0"}, {"reasons": {"count": 0, "items": [{"summary": "This spot is popular", "type": "general", "reasonName": "globalInteractionReason"}]}, "venue": {"id": "4ad4c05df964a52059f620e3", "name": "Canoe", "location": {"address": "66 Wellington St West", "crossStreet": "at Bay Street", "lat": 43.647452066183476, "lng": -79.38132001815676, "labeledLatLngs": [{"label": "display", "lat": 43.647452066183476, "lng": -79.38132001815676}], "distance": 36, "postalCode": "M5K 1H6", "cc": "CA", "city": "Toronto", "state": "ON", "country": "Canada", "formattedAddress": ["66 Wellington St West (at Bay Street)", "Toronto ON M5K 1H6", "Canada"]}, "categories": [{"id": "4bf58dd8d48988d1c4941735", "name": "Restaurant", "pluralName": "Restaurants", "shortName": "Restaurant", "icon": {"prefix": "https://ss3.4sqi.net/img/categories_v2/food/default_", "suffix": ".png"}, "primary": true}], "photos": {"count": 0, "groups": []}, "venuePage": {"id": "40552945"}}, "referralId": "e-0-4ad4c05df964a52059f620e3-1"}, {"reasons": {"count": 0, "items": [{"summary": "This spot is popular", "type": "general", "reasonName": "globalInteractionReason"}]}, "venue": {"id": "4ad4c05bf964a520a7f520e3", "name": "The Fairmont Royal York", "location": {"address": "100 Front St W", "crossStreet": "btwn York St & Bay St", "lat": 43.64544914616651, "lng": -79.3815076529019, "labeledLatLngs": [{"label": "display", "lat": 43.64544914616651, "lng": -79.3815076529019}], "distance": 192, "postalCode": "M5J 1E3", "cc": "CA", "city": "Toronto", "state": "ON", "country": "Canada", "formattedAddress": ["100 Front St W (btwn York St & Bay St)", "Toronto ON M5J 1E3", "Canada"]}, "categories": [{"id": "4bf58dd8d48988d1fa931735", "name": "Hotel", "pluralName": "Hotels", "shortName": "Hotel", "icon": {"prefix": "https://ss3.4sqi.net/img/categories_v2/travel/hotel_", "suffix": ".png"}, "primary": true}], "photos": {"count": 0, "groups": []}}, "referralId": "e-0-4ad4c05bf964a520a7f520e3-2"}, {"reasons": {"count": 0, "items": [{"summary": "This spot is popular", "type": "general", "reasonName": "globalInteractionReason"}]}, "venue": {"id": "5a8f505eb6eedb5c284a78ad", "name": "Walrus Pub & Beer Hall", "location": {"address": "187 Bay St", "crossStreet": "Wellington St W", "lat": 43.64737470920577, "lng": -79.37951515363918, "labeledLatLngs": [{"label": "display", "lat": 43.64737470920577, "lng": -79.37951515363918}], "distance": 167, "postalCode": "M5L 1G5", "cc": "CA", "city": "Toronto", "state": "ON", "country": "Canada", "formattedAddress": ["187 Bay St (Wellington St W)", "Toronto ON M5L 1G5", "Canada"]}, "categories": [{"id": "4bf58dd8d48988d11b941735", "name": "Pub", "pluralName": "Pubs", "shortName": "Pub", "icon": {"prefix": "https://ss3.4sqi.net/img/categories_v2/nightlife/pub_", "suffix": ".png"}, "primary": true}], "photos": {"count": 0, "groups": []}}, "referralId": "e-0-5a8f505eb6eedb5c284a78ad-3"}, {"reasons": {"count": 0, "items": [{"summary": "This spot is popular", "type": "general", "reasonName": "globalInteractionReason"}]}, "venue": {"id": "59cd51c71b0ea516e9e7b3aa", "name": "Pilot Coffee Roasters", "location": {"address": "100 King St W", "crossStreet": "Bay St", "lat": 43.648835391245896, "lng": -79.3809358125033, "labeledLatLngs": [{"label": "display", "lat": 43.648835391245896, "lng": -79.3809358125033}], "distance": 191, "postalCode": "M5X", "cc": "CA", "city": "Toronto", "state": "ON", "country": "Canada", "formattedAddress": ["100 King St W (Bay St)", "Toronto ON M5X", "Canada"]}, "categories": [{"id": "4bf58dd8d48988d1e0931735", "name": "Coffee Shop", "pluralName": "Coffee Shops", "shortName": "Coffee Shop", "icon": {"prefix": "https://ss3.4sqi.net/img/categories_v2/food/coffeeshop_", "suffix": ".png"}, "primary": true}], "photos": {"count": 0, "groups": []}}, "referralId": "e-0-59cd51c71b0ea516e9e7b3aa-4"}, {"reasons": {"count": 0, "items": [{"summary": "This spot is popular", "type": "general", "reasonName": "globalInteractionReason"}]}, "venue": {"id": "4b6b4340f964a520c9fc2be3", "name": "Starbucks", "location": {"address": "55 University Ave,Unit #3", "crossStreet": "at Wellington St. W", "lat": 43.646731, "lng": -79.383951, "labeledLatLngs": [{"label": "display", "lat": 43.646731, "lng": -79.383951}], "distance": 197, "postalCode": "M5J 2H7", "cc": "CA", "city": "Toronto", "state": "ON", "country": "Canada", "formattedAddress": ["55 University Ave,Unit #3 (at Wellington St. W)", "Toronto ON M5J 2H7", "Canada"]}, "categories": [{"id": "4bf58dd8d48988d1e0931735", "name": "Coffee Shop", "pluralName": "Coffee Shops", "shortName": "Coffee Shop", "icon": {"prefix": "https://ss3.4sqi.net/img/categories_v2/food/coffeeshop_", "suffix": ".png"}, "primary": true}], "photos": {"count": 0, "groups": []}}, "referralId": "e-0-4b6b4340f964a520c9fc2be3-5"}, {"reasons": {"count": 0, "items": [{"summary": "This spot is popular", "type": "general", "reasonName": "globalInteractionReason"}]}, "venue": {"id": "5c08474447f876002c736b68", "name": "WVRST", "location": {"address": "65 Front St W", "lat": 43.64496809087762, "lng": -79.38137631843854, "labeledLatLngs": [{"label": "display", "lat": 43.64496809087762, "lng": -79.38137631843854}], "distance": 246, "postalCode": "M5J 1E6", "cc": "CA", "city": "Toronto", "state": "ON", "country": "Canada", "formattedAddress": ["65 Front St W", "Toronto ON M5J 1E6", "Canada"]}, "categories": [{"id": "56aa371ce4b08b9a8d57356c", "name": "Beer Bar", "pluralName": "Beer Bars", "shortName": "Beer Bar", "icon": {"prefix": "https://ss3.4sqi.net/img/categories_v2/nightlife/pub_", "suffix": ".png"}, "primary": true}], "photos": {"count": 0, "groups": []}}, "referralId": "e-0-5c08474447f876002c736b68-6"}, {"reasons": {"count": 0, "items": [{"summary": "This spot is popular", "type": "general", "reasonName": "globalInteractionReason"}]}, "venue": {"id": "559a8f5a498e31f945041245", "name": "Maman", "location": {"address": "100 King St W", "crossStreet": "btwn Bay & York st", "lat": 43.64830873804684, "lng": -79.38225333898805, "labeledLatLngs": [{"label": "display", "lat": 43.64830873804684, "lng": -79.38225333898805}], "distance": 137, "postalCode": "M5X 1C1", "cc": "CA", "city": "Toronto", "state": "ON", "country": "Canada", "formattedAddress": ["100 King St W (btwn Bay & York st)", "Toronto ON M5X 1C1", "Canada"]}, "categories": [{"id": "4bf58dd8d48988d16d941735", "name": "Caf\u00e9", "pluralName": "Caf\u00e9s", "shortName": "Caf\u00e9", "icon": {"prefix": "https://ss3.4sqi.net/img/categories_v2/food/cafe_", "suffix": ".png"}, "primary": true}], "photos": {"count": 0, "groups": []}}, "referralId": "e-0-559a8f5a498e31f945041245-7"}, {"reasons": {"count": 0, "items": [{"summary": "This spot is popular", "type": "general", "reasonName": "globalInteractionReason"}]}, "venue": {"id": "59603f86112c6c70931c9401", "name": "King Taps", "location": {"address": "100 King St W", "lat": 43.648475974183, "lng": -79.38205778358744, "labeledLatLngs": [{"label": "display", "lat": 43.648475974183, "lng": -79.38205778358744}], "distance": 149, "cc": "CA", "city": "Toronto", "state": "ON", "country": "Canada", "formattedAddress": ["100 King St W", "Toronto ON", "Canada"]}, "categories": [{"id": "4bf58dd8d48988d155941735", "name": "Gastropub", "pluralName": "Gastropubs", "shortName": "Gastropub", "icon": {"prefix": "https://ss3.4sqi.net/img/categories_v2/food/gastropub_", "suffix": ".png"}, "primary": true}], "photos": {"count": 0, "groups": []}}, "referralId": "e-0-59603f86112c6c70931c9401-8"}, {"reasons": {"count": 0, "items": [{"summary": "This spot is popular", "type": "general", "reasonName": "globalInteractionReason"}]}, "venue": {"id": "4ea43642be7ba4918efc5afa", "name": "Adelaide Club Toronto", "location": {"address": "1 First Canadian Place", "lat": 43.64927944291712, "lng": -79.38192123284551, "labeledLatLngs": [{"label": "display", "lat": 43.64927944291712, "lng": -79.38192123284551}], "distance": 235, "postalCode": "M5X 1C8", "cc": "CA", "city": "Toronto", "state": "ON", "country": "Canada", "formattedAddress": ["1 First Canadian Place", "Toronto ON M5X 1C8", "Canada"]}, "categories": [{"id": "4bf58dd8d48988d175941735", "name": "Gym / Fitness Center", "pluralName": "Gyms or Fitness Centers", "shortName": "Gym / Fitness", "icon": {"prefix": "https://ss3.4sqi.net/img/categories_v2/building/gym_", "suffix": ".png"}, "primary": true}], "photos": {"count": 0, "groups": []}}, "referralId": "e-0-4ea43642be7ba4918efc5afa-9"}, {"reasons": {"count": 0, "items": [{"summary": "This spot is popular", "type": "general", "reasonName": "globalInteractionReason"}]}, "venue": {"id": "563d2f2dcd10bcf27ae37c3b", "name": "Pilot Coffee Roasters", "location": {"address": "65 Front St W", "crossStreet": "btwn Bay St & York St", "lat": 43.64501814464698, "lng": -79.3804150931199, "labeledLatLngs": [{"label": "display", "lat": 43.64501814464698, "lng": -79.3804150931199}], "distance": 257, "postalCode": "M5J 1E6", "cc": "CA", "city": "Toronto", "state": "ON", "country": "Canada", "formattedAddress": ["65 Front St W (btwn Bay St & York St)", "Toronto ON M5J 1E6", "Canada"]}, "categories": [{"id": "4bf58dd8d48988d1e0931735", "name": "Coffee Shop", "pluralName": "Coffee Shops", "shortName": "Coffee Shop", "icon": {"prefix": "https://ss3.4sqi.net/img/categories_v2/food/coffeeshop_", "suffix": ".png"}, "primary": true}], "photos": {"count": 0, "groups": []}}, "referralId": "e-0-563d2f2dcd10bcf27ae37c3b-10"}, {"reasons": {"count": 0, "items": [{"summary": "This spot is popular", "type": "general", "reasonName": "globalInteractionReason"}]}, "venue": {"id": "52138db911d22803b334c641", "name": "Mos Mos Coffee", "location": {"address": "Commerce Court East", "lat": 43.64815919753501, "lng": -79.37874450467258, "labeledLatLngs": [{"label": "display", "lat": 43.64815919753501, "lng": -79.37874450467258}], "distance": 252, "cc": "CA", "city": "Toronto", "state": "ON", "country": "Canada", "formattedAddress": ["Commerce Court East", "Toronto ON", "Canada"]}, "categories": [{"id": "4bf58dd8d48988d16d941735", "name": "Caf\u00e9", "pluralName": "Caf\u00e9s", "shortName": "Caf\u00e9", "icon": {"prefix": "https://ss3.4sqi.net/img/categories_v2/food/cafe_", "suffix": ".png"}, "primary": true}], "photos": {"count": 0, "groups": []}}, "referralId": "e-0-52138db911d22803b334c641-11"}, {"reasons": {"count": 0, "items": [{"summary": "This spot is popular", "type": "general", "reasonName": "globalInteractionReason"}]}, "venue": {"id": "592c5bfb31fd147e47255fb3", "name": "Dineen @CommerceCourt", "location": {"address": "199 Bay St", "crossStreet": "King Street", "lat": 43.648250543365556, "lng": -79.38012728220869, "labeledLatLngs": [{"label": "display", "lat": 43.648250543365556, "lng": -79.38012728220869}], "distance": 167, "postalCode": "M5L 2W4", "cc": "CA", "city": "Toronto", "state": "ON", "country": "Canada", "formattedAddress": ["199 Bay St (King Street)", "Toronto ON M5L 2W4", "Canada"]}, "categories": [{"id": "4bf58dd8d48988d1e0931735", "name": "Coffee Shop", "pluralName": "Coffee Shops", "shortName": "Coffee Shop", "icon": {"prefix": "https://ss3.4sqi.net/img/categories_v2/food/coffeeshop_", "suffix": ".png"}, "primary": true}], "photos": {"count": 0, "groups": []}}, "referralId": "e-0-592c5bfb31fd147e47255fb3-12"}, {"reasons": {"count": 0, "items": [{"summary": "This spot is popular", "type": "general", "reasonName": "globalInteractionReason"}]}, "venue": {"id": "51ae5eaa498e5c629f21f431", "name": "Olly Fresco's", "location": {"address": "200 Bay Street", "lat": 43.646912231909276, "lng": -79.37959661696463, "labeledLatLngs": [{"label": "display", "lat": 43.646912231909276, "lng": -79.37959661696463}], "distance": 162, "postalCode": "M5J 2J3", "cc": "CA", "city": "Toronto", "state": "ON", "country": "Canada", "formattedAddress": ["200 Bay Street", "Toronto ON M5J 2J3", "Canada"]}, "categories": [{"id": "4bf58dd8d48988d146941735", "name": "Deli / Bodega", "pluralName": "Delis / Bodegas", "shortName": "Deli / Bodega", "icon": {"prefix": "https://ss3.4sqi.net/img/categories_v2/food/deli_", "suffix": ".png"}, "primary": true}], "photos": {"count": 0, "groups": []}, "venuePage": {"id": "69531383"}}, "referralId": "e-0-51ae5eaa498e5c629f21f431-13"}, {"reasons": {"count": 0, "items": [{"summary": "This spot is popular", "type": "general", "reasonName": "globalInteractionReason"}]}, "venue": {"id": "55fc571f498ec35023360858", "name": "Cactus Club Cafe", "location": {"address": "77 Adelaide St W", "crossStreet": "btwn Bay & York St", "lat": 43.6495520142626, "lng": -79.38167072512041, "labeledLatLngs": [{"label": "display", "lat": 43.6495520142626, "lng": -79.38167072512041}], "distance": 264, "postalCode": "M5X 1C1", "cc": "CA", "city": "Toronto", "state": "ON", "country": "Canada", "formattedAddress": ["77 Adelaide St W (btwn Bay & York St)", "Toronto ON M5X 1C1", "Canada"]}, "categories": [{"id": "4bf58dd8d48988d14e941735", "name": "American Restaurant", "pluralName": "American Restaurants", "shortName": "American", "icon": {"prefix": "https://ss3.4sqi.net/img/categories_v2/food/default_", "suffix": ".png"}, "primary": true}], "photos": {"count": 0, "groups": []}}, "referralId": "e-0-55fc571f498ec35023360858-14"}, {"reasons": {"count": 0, "items": [{"summary": "This spot is popular", "type": "general", "reasonName": "globalInteractionReason"}]}, "venue": {"id": "4fccaa8fe4b05a98df3d9417", "name": "Sam James Coffee Bar (SJCB)", "location": {"address": "150 King St. W", "crossStreet": "in the PATH", "lat": 43.64788137014028, "lng": -79.38433152836829, "labeledLatLngs": [{"label": "display", "lat": 43.64788137014028, "lng": -79.38433152836829}], "distance": 235, "postalCode": "M5H 4B6", "cc": "CA", "city": "Toronto", "state": "ON", "country": "Canada", "formattedAddress": ["150 King St. W (in the PATH)", "Toronto ON M5H 4B6", "Canada"]}, "categories": [{"id": "4bf58dd8d48988d16d941735", "name": "Caf\u00e9", "pluralName": "Caf\u00e9s", "shortName": "Caf\u00e9", "icon": {"prefix": "https://ss3.4sqi.net/img/categories_v2/food/cafe_", "suffix": ".png"}, "primary": true}], "photos": {"count": 0, "groups": []}}, "referralId": "e-0-4fccaa8fe4b05a98df3d9417-15"}, {"reasons": {"count": 0, "items": [{"summary": "This spot is popular", "type": "general", "reasonName": "globalInteractionReason"}]}, "venue": {"id": "4ad4c05ff964a520eff620e3", "name": "Design Exchange", "location": {"address": "234 Bay St.", "crossStreet": "btwn King & Wellington", "lat": 43.64797219581623, "lng": -79.38010382588462, "labeledLatLngs": [{"label": "display", "lat": 43.64797219581623, "lng": -79.38010382588462}], "distance": 148, "postalCode": "M5K 1B2", "cc": "CA", "city": "Toronto", "state": "ON", "country": "Canada", "formattedAddress": ["234 Bay St. (btwn King & Wellington)", "Toronto ON M5K 1B2", "Canada"]}, "categories": [{"id": "4bf58dd8d48988d1e2931735", "name": "Art Gallery", "pluralName": "Art Galleries", "shortName": "Art Gallery", "icon": {"prefix": "https://ss3.4sqi.net/img/categories_v2/arts_entertainment/artgallery_", "suffix": ".png"}, "primary": true}], "photos": {"count": 0, "groups": []}}, "referralId": "e-0-4ad4c05ff964a520eff620e3-16"}, {"reasons": {"count": 0, "items": [{"summary": "This spot is popular", "type": "general", "reasonName": "globalInteractionReason"}]}, "venue": {"id": "4ae73054f964a5203ca921e3", "name": "Ki Modern Japanese + Bar", "location": {"address": "181 Bay St", "crossStreet": "at Wellington St. W", "lat": 43.647167, "lng": -79.379608, "labeledLatLngs": [{"label": "display", "lat": 43.647167, "lng": -79.379608}], "distance": 158, "postalCode": "M5J 2T3", "cc": "CA", "city": "Toronto", "state": "ON", "country": "Canada", "formattedAddress": ["181 Bay St (at Wellington St. W)", "Toronto ON M5J 2T3", "Canada"]}, "categories": [{"id": "4bf58dd8d48988d111941735", "name": "Japanese Restaurant", "pluralName": "Japanese Restaurants", "shortName": "Japanese", "icon": {"prefix": "https://ss3.4sqi.net/img/categories_v2/food/japanese_", "suffix": ".png"}, "primary": true}], "photos": {"count": 0, "groups": []}}, "referralId": "e-0-4ae73054f964a5203ca921e3-17"}, {"reasons": {"count": 0, "items": [{"summary": "This spot is popular", "type": "general", "reasonName": "globalInteractionReason"}]}, "venue": {"id": "4ad4c05df964a5203cf620e3", "name": "Library Bar", "location": {"address": "100 Front St. W", "lat": 43.64550019136729, "lng": -79.38160166851243, "labeledLatLngs": [{"label": "display", "lat": 43.64550019136729, "lng": -79.38160166851243}], "distance": 186, "postalCode": "M5J 1E3", "cc": "CA", "city": "Toronto", "state": "ON", "country": "Canada", "formattedAddress": ["100 Front St. W", "Toronto ON M5J 1E3", "Canada"]}, "categories": [{"id": "4bf58dd8d48988d1d5941735", "name": "Hotel Bar", "pluralName": "Hotel Bars", "shortName": "Hotel Bar", "icon": {"prefix": "https://ss3.4sqi.net/img/categories_v2/travel/hotel_bar_", "suffix": ".png"}, "primary": true}], "photos": {"count": 0, "groups": []}}, "referralId": "e-0-4ad4c05df964a5203cf620e3-18"}, {"reasons": {"count": 0, "items": [{"summary": "This spot is popular", "type": "general", "reasonName": "globalInteractionReason"}]}, "venue": {"id": "4b114234f964a520637923e3", "name": "Pumpernickel's Deli", "location": {"address": "100 King St. W", "crossStreet": "at First Canadian Place Food Court", "lat": 43.64883150054619, "lng": -79.38197006345457, "labeledLatLngs": [{"label": "display", "lat": 43.64883150054619, "lng": -79.38197006345457}], "distance": 186, "cc": "CA", "city": "Toronto", "state": "ON", "country": "Canada", "formattedAddress": ["100 King St. W (at First Canadian Place Food Court)", "Toronto ON", "Canada"]}, "categories": [{"id": "4bf58dd8d48988d146941735", "name": "Deli / Bodega", "pluralName": "Delis / Bodegas", "shortName": "Deli / Bodega", "icon": {"prefix": "https://ss3.4sqi.net/img/categories_v2/food/deli_", "suffix": ".png"}, "primary": true}], "photos": {"count": 0, "groups": []}}, "referralId": "e-0-4b114234f964a520637923e3-19"}, {"reasons": {"count": 0, "items": [{"summary": "This spot is popular", "type": "general", "reasonName": "globalInteractionReason"}]}, "venue": {"id": "5462ac56498e128ccafe8fea", "name": "Pizzeria Libretto", "location": {"address": "155 University Ave", "crossStreet": "at Pearl St", "lat": 43.64833354686235, "lng": -79.38511050184168, "labeledLatLngs": [{"label": "display", "lat": 43.64833354686235, "lng": -79.38511050184168}], "distance": 312, "postalCode": "M5H 3B7", "cc": "CA", "city": "Toronto", "state": "ON", "country": "Canada", "formattedAddress": ["155 University Ave (at Pearl St)", "Toronto ON M5H 3B7", "Canada"]}, "categories": [{"id": "4bf58dd8d48988d1ca941735", "name": "Pizza Place", "pluralName": "Pizza Places", "shortName": "Pizza", "icon": {"prefix": "https://ss3.4sqi.net/img/categories_v2/food/pizza_", "suffix": ".png"}, "primary": true}], "photos": {"count": 0, "groups": []}}, "referralId": "e-0-5462ac56498e128ccafe8fea-20"}, {"reasons": {"count": 0, "items": [{"summary": "This spot is popular", "type": "general", "reasonName": "globalInteractionReason"}]}, "venue": {"id": "55561f8a498e2e5c866ac4c9", "name": "Union Pearson Express", "location": {"address": "61 Front St. W", "lat": 43.64436200658875, "lng": -79.38319927907953, "labeledLatLngs": [{"label": "display", "lat": 43.64436200658875, "lng": -79.38319927907953}], "distance": 339, "postalCode": "M5J 2Z8", "cc": "CA", "neighborhood": "Entertainment District", "city": "Toronto", "state": "ON", "country": "Canada", "formattedAddress": ["61 Front St. W", "Toronto ON M5J 2Z8", "Canada"]}, "categories": [{"id": "4bf58dd8d48988d129951735", "name": "Train Station", "pluralName": "Train Stations", "shortName": "Train Station", "icon": {"prefix": "https://ss3.4sqi.net/img/categories_v2/travel/trainstation_", "suffix": ".png"}, "primary": true}], "photos": {"count": 0, "groups": []}}, "referralId": "e-0-55561f8a498e2e5c866ac4c9-21"}, {"reasons": {"count": 0, "items": [{"summary": "This spot is popular", "type": "general", "reasonName": "globalInteractionReason"}]}, "venue": {"id": "5a4fdf56772fbc5e9fa73c7f", "name": "Chotto Matte", "location": {"address": "161 Bay St", "lat": 43.646473, "lng": -79.378782, "labeledLatLngs": [{"label": "display", "lat": 43.646473, "lng": -79.378782}], "distance": 238, "postalCode": "M5J 2S4", "cc": "CA", "city": "Toronto", "state": "ON", "country": "Canada", "formattedAddress": ["161 Bay St", "Toronto ON M5J 2S4", "Canada"]}, "categories": [{"id": "4bf58dd8d48988d111941735", "name": "Japanese Restaurant", "pluralName": "Japanese Restaurants", "shortName": "Japanese", "icon": {"prefix": "https://ss3.4sqi.net/img/categories_v2/food/japanese_", "suffix": ".png"}, "primary": true}], "photos": {"count": 0, "groups": []}}, "referralId": "e-0-5a4fdf56772fbc5e9fa73c7f-22"}, {"reasons": {"count": 0, "items": [{"summary": "This spot is popular", "type": "general", "reasonName": "globalInteractionReason"}]}, "venue": {"id": "4bd8cde92e6f0f47dcb20808", "name": "Hy's Steakhouse", "location": {"address": "120 Adelaide St. W", "crossStreet": "at York St", "lat": 43.649504756476944, "lng": -79.38291850488223, "labeledLatLngs": [{"label": "display", "lat": 43.649504756476944, "lng": -79.38291850488223}], "distance": 280, "postalCode": "M5H 1T1", "cc": "CA", "city": "Toronto", "state": "ON", "country": "Canada", "formattedAddress": ["120 Adelaide St. W (at York St)", "Toronto ON M5H 1T1", "Canada"]}, "categories": [{"id": "4bf58dd8d48988d1cc941735", "name": "Steakhouse", "pluralName": "Steakhouses", "shortName": "Steakhouse", "icon": {"prefix": "https://ss3.4sqi.net/img/categories_v2/food/steakhouse_", "suffix": ".png"}, "primary": true}], "photos": {"count": 0, "groups": []}}, "referralId": "e-0-4bd8cde92e6f0f47dcb20808-23"}, {"reasons": {"count": 0, "items": [{"summary": "This spot is popular", "type": "general", "reasonName": "globalInteractionReason"}]}, "venue": {"id": "4b981b46f964a520c22c35e3", "name": "Starbucks", "location": {"address": "181 Bay St,Path", "crossStreet": "in Brookfield Place Food Court", "lat": 43.647261, "lng": -79.378599, "labeledLatLngs": [{"label": "display", "lat": 43.647261, "lng": -79.378599}], "distance": 240, "postalCode": "M5J 2T3", "cc": "CA", "city": "Toronto", "state": "ON", "country": "Canada", "formattedAddress": ["181 Bay St,Path (in Brookfield Place Food Court)", "Toronto ON M5J 2T3", "Canada"]}, "categories": [{"id": "4bf58dd8d48988d1e0931735", "name": "Coffee Shop", "pluralName": "Coffee Shops", "shortName": "Coffee Shop", "icon": {"prefix": "https://ss3.4sqi.net/img/categories_v2/food/coffeeshop_", "suffix": ".png"}, "primary": true}], "photos": {"count": 0, "groups": []}}, "referralId": "e-0-4b981b46f964a520c22c35e3-24"}, {"reasons": {"count": 0, "items": [{"summary": "This spot is popular", "type": "general", "reasonName": "globalInteractionReason"}]}, "venue": {"id": "4ad4c05ef964a520d8f620e3", "name": "Hockey Hall Of Fame (Hockey Hall of Fame)", "location": {"address": "30 Yonge St.", "crossStreet": "at Brookfield Pl.", "lat": 43.646974451431056, "lng": -79.37732323942681, "labeledLatLngs": [{"label": "display", "lat": 43.646974451431056, "lng": -79.37732323942681}], "distance": 343, "postalCode": "M5E 1X8", "cc": "CA", "city": "Toronto", "state": "ON", "country": "Canada", "formattedAddress": ["30 Yonge St. (at Brookfield Pl.)", "Toronto ON M5E 1X8", "Canada"]}, "categories": [{"id": "4bf58dd8d48988d181941735", "name": "Museum", "pluralName": "Museums", "shortName": "Museum", "icon": {"prefix": "https://ss3.4sqi.net/img/categories_v2/arts_entertainment/museum_", "suffix": ".png"}, "primary": true}], "photos": {"count": 0, "groups": []}}, "referralId": "e-0-4ad4c05ef964a520d8f620e3-25"}, {"reasons": {"count": 0, "items": [{"summary": "This spot is popular", "type": "general", "reasonName": "globalInteractionReason"}]}, "venue": {"id": "4e67c316483bef6eb8171e49", "name": "DAVIDsTEA", "location": {"address": "100 King St W", "lat": 43.646657736285796, "lng": -79.37764102856944, "labeledLatLngs": [{"label": "display", "lat": 43.646657736285796, "lng": -79.37764102856944}], "distance": 322, "postalCode": "M5X 1B8", "cc": "CA", "city": "Toronto", "state": "ON", "country": "Canada", "formattedAddress": ["100 King St W", "Toronto ON M5X 1B8", "Canada"]}, "categories": [{"id": "4bf58dd8d48988d1dc931735", "name": "Tea Room", "pluralName": "Tea Rooms", "shortName": "Tea Room", "icon": {"prefix": "https://ss3.4sqi.net/img/categories_v2/food/tearoom_", "suffix": ".png"}, "primary": true}], "photos": {"count": 0, "groups": []}}, "referralId": "e-0-4e67c316483bef6eb8171e49-26"}, {"reasons": {"count": 0, "items": [{"summary": "This spot is popular", "type": "general", "reasonName": "globalInteractionReason"}]}, "venue": {"id": "5a37fcbf123a1968dcbc4fe2", "name": "Union Chicken", "location": {"lat": 43.64491185903613, "lng": -79.38232534702786, "labeledLatLngs": [{"label": "display", "lat": 43.64491185903613, "lng": -79.38232534702786}], "distance": 259, "postalCode": "M5J 2Z1", "cc": "CA", "city": "Toronto", "state": "ON", "country": "Canada", "formattedAddress": ["Toronto ON M5J 2Z1", "Canada"]}, "categories": [{"id": "4d4ae6fc7a7b7dea34424761", "name": "Fried Chicken Joint", "pluralName": "Fried Chicken Joints", "shortName": "Fried Chicken", "icon": {"prefix": "https://ss3.4sqi.net/img/categories_v2/food/friedchicken_", "suffix": ".png"}, "primary": true}], "photos": {"count": 0, "groups": []}}, "referralId": "e-0-5a37fcbf123a1968dcbc4fe2-27"}, {"reasons": {"count": 0, "items": [{"summary": "This spot is popular", "type": "general", "reasonName": "globalInteractionReason"}]}, "venue": {"id": "4ad4c061f964a520b0f720e3", "name": "Roy Thomson Hall", "location": {"address": "60 Simcoe St", "crossStreet": "at King St W", "lat": 43.6465886970634, "lng": -79.38597899374354, "labeledLatLngs": [{"label": "display", "lat": 43.6465886970634, "lng": -79.38597899374354}], "distance": 360, "postalCode": "M5J 2H5", "cc": "CA", "city": "Toronto", "state": "ON", "country": "Canada", "formattedAddress": ["60 Simcoe St (at King St W)", "Toronto ON M5J 2H5", "Canada"]}, "categories": [{"id": "5032792091d4c4b30a586d5c", "name": "Concert Hall", "pluralName": "Concert Halls", "shortName": "Concert Hall", "icon": {"prefix": "https://ss3.4sqi.net/img/categories_v2/arts_entertainment/musicvenue_", "suffix": ".png"}, "primary": true}], "photos": {"count": 0, "groups": []}, "venuePage": {"id": "90484738"}}, "referralId": "e-0-4ad4c061f964a520b0f720e3-28"}, {"reasons": {"count": 0, "items": [{"summary": "This spot is popular", "type": "general", "reasonName": "globalInteractionReason"}]}, "venue": {"id": "4baa4b39f964a520ec5b3ae3", "name": "March\u00e9 M\u00f6venpick", "location": {"address": "181 Bay Street", "crossStreet": "in Brookfield Place", "lat": 43.6472616, "lng": -79.3785998, "labeledLatLngs": [{"label": "display", "lat": 43.6472616, "lng": -79.3785998}], "distance": 239, "postalCode": "M5J 2T3", "cc": "CA", "neighborhood": "Financial District", "city": "Toronto", "state": "ON", "country": "Canada", "formattedAddress": ["181 Bay Street (in Brookfield Place)", "Toronto ON M5J 2T3", "Canada"]}, "categories": [{"id": "4bf58dd8d48988d1c4941735", "name": "Restaurant", "pluralName": "Restaurants", "shortName": "Restaurant", "icon": {"prefix": "https://ss3.4sqi.net/img/categories_v2/food/default_", "suffix": ".png"}, "primary": true}], "photos": {"count": 0, "groups": []}, "venuePage": {"id": "59869170"}}, "referralId": "e-0-4baa4b39f964a520ec5b3ae3-29"}, {"reasons": {"count": 0, "items": [{"summary": "This spot is popular", "type": "general", "reasonName": "globalInteractionReason"}]}, "venue": {"id": "4ae7b370f964a5206ead21e3", "name": "Petit Four Bakery", "location": {"address": "187 Bay St, Commerce Court South, Concourse Level", "crossStreet": "at Wellington St W", "lat": 43.647743692587085, "lng": -79.37958814250598, "labeledLatLngs": [{"label": "display", "lat": 43.647743692587085, "lng": -79.37958814250598}], "distance": 172, "postalCode": "M5L 1G5", "cc": "CA", "city": "Toronto", "state": "ON", "country": "Canada", "formattedAddress": ["187 Bay St, Commerce Court South, Concourse Level (at Wellington St W)", "Toronto ON M5L 1G5", "Canada"]}, "categories": [{"id": "4bf58dd8d48988d1c5941735", "name": "Sandwich Place", "pluralName": "Sandwich Places", "shortName": "Sandwiches", "icon": {"prefix": "https://ss3.4sqi.net/img/categories_v2/food/deli_", "suffix": ".png"}, "primary": true}], "photos": {"count": 0, "groups": []}, "venuePage": {"id": "48813472"}}, "referralId": "e-0-4ae7b370f964a5206ead21e3-30"}, {"reasons": {"count": 0, "items": [{"summary": "This spot is popular", "type": "general", "reasonName": "globalInteractionReason"}]}, "venue": {"id": "4ad69511f964a520e40721e3", "name": "The Keg Steakhouse & Bar", "location": {"address": "165 York St", "crossStreet": "btwn Richmond St. & Adelaide St.", "lat": 43.649937252985254, "lng": -79.38419604942506, "labeledLatLngs": [{"label": "display", "lat": 43.649937252985254, "lng": -79.38419604942506}], "distance": 372, "postalCode": "M5H 3R8", "cc": "CA", "city": "Toronto", "state": "ON", "country": "Canada", "formattedAddress": ["165 York St (btwn Richmond St. & Adelaide St.)", "Toronto ON M5H 3R8", "Canada"]}, "categories": [{"id": "4bf58dd8d48988d1cc941735", "name": "Steakhouse", "pluralName": "Steakhouses", "shortName": "Steakhouse", "icon": {"prefix": "https://ss3.4sqi.net/img/categories_v2/food/steakhouse_", "suffix": ".png"}, "primary": true}], "photos": {"count": 0, "groups": []}}, "referralId": "e-0-4ad69511f964a520e40721e3-31"}, {"reasons": {"count": 0, "items": [{"summary": "This spot is popular", "type": "general", "reasonName": "globalInteractionReason"}]}, "venue": {"id": "557f05ca498ec78ac7b29315", "name": "Balzac's Coffee", "location": {"address": "7 Station St", "crossStreet": "at SkyWalk", "lat": 43.644372584148364, "lng": -79.38306470027423, "labeledLatLngs": [{"label": "display", "lat": 43.644372584148364, "lng": -79.38306470027423}], "distance": 334, "postalCode": "M5J 1C3", "cc": "CA", "city": "Toronto", "state": "ON", "country": "Canada", "formattedAddress": ["7 Station St (at SkyWalk)", "Toronto ON M5J 1C3", "Canada"]}, "categories": [{"id": "4bf58dd8d48988d1e0931735", "name": "Coffee Shop", "pluralName": "Coffee Shops", "shortName": "Coffee Shop", "icon": {"prefix": "https://ss3.4sqi.net/img/categories_v2/food/coffeeshop_", "suffix": ".png"}, "primary": true}], "photos": {"count": 0, "groups": []}}, "referralId": "e-0-557f05ca498ec78ac7b29315-32"}, {"reasons": {"count": 0, "items": [{"summary": "This spot is popular", "type": "general", "reasonName": "globalInteractionReason"}]}, "venue": {"id": "4b689994f964a52030822be3", "name": "Starbucks", "location": {"address": "200 Bay St,Path", "crossStreet": "in Royal Bank Plaza", "lat": 43.646516, "lng": -79.380059, "labeledLatLngs": [{"label": "display", "lat": 43.646516, "lng": -79.380059}], "distance": 142, "postalCode": "M5J 2W4", "cc": "CA", "city": "Toronto", "state": "ON", "country": "Canada", "formattedAddress": ["200 Bay St,Path (in Royal Bank Plaza)", "Toronto ON M5J 2W4", "Canada"]}, "categories": [{"id": "4bf58dd8d48988d1e0931735", "name": "Coffee Shop", "pluralName": "Coffee Shops", "shortName": "Coffee Shop", "icon": {"prefix": "https://ss3.4sqi.net/img/categories_v2/food/coffeeshop_", "suffix": ".png"}, "primary": true}], "photos": {"count": 0, "groups": []}}, "referralId": "e-0-4b689994f964a52030822be3-33"}, {"reasons": {"count": 0, "items": [{"summary": "This spot is popular", "type": "general", "reasonName": "globalInteractionReason"}]}, "venue": {"id": "4b059c24f964a520c2df22e3", "name": "Indigospirit", "location": {"address": "1 First Canadian Place, Unit SM18", "crossStreet": "in First Canadian Place", "lat": 43.64834987590252, "lng": -79.38034747310336, "labeledLatLngs": [{"label": "display", "lat": 43.64834987590252, "lng": -79.38034747310336}], "distance": 163, "postalCode": "M5X 1B5", "cc": "CA", "city": "Toronto", "state": "ON", "country": "Canada", "formattedAddress": ["1 First Canadian Place, Unit SM18 (in First Canadian Place)", "Toronto ON M5X 1B5", "Canada"]}, "categories": [{"id": "4bf58dd8d48988d114951735", "name": "Bookstore", "pluralName": "Bookstores", "shortName": "Bookstore", "icon": {"prefix": "https://ss3.4sqi.net/img/categories_v2/shops/bookstore_", "suffix": ".png"}, "primary": true}], "photos": {"count": 0, "groups": []}}, "referralId": "e-0-4b059c24f964a520c2df22e3-34"}, {"reasons": {"count": 0, "items": [{"summary": "This spot is popular", "type": "general", "reasonName": "globalInteractionReason"}]}, "venue": {"id": "5b6c842bc36588002c80a934", "name": "Cafe Landwer", "location": {"address": "165 University Ave", "crossStreet": "Adelaide St W", "lat": 43.64875349932059, "lng": -79.3853673607289, "labeledLatLngs": [{"label": "display", "lat": 43.64875349932059, "lng": -79.3853673607289}], "distance": 352, "postalCode": "M5H 3B8", "cc": "CA", "city": "Toronto", "state": "ON", "country": "Canada", "formattedAddress": ["165 University Ave (Adelaide St W)", "Toronto ON M5H 3B8", "Canada"]}, "categories": [{"id": "4bf58dd8d48988d16d941735", "name": "Caf\u00e9", "pluralName": "Caf\u00e9s", "shortName": "Caf\u00e9", "icon": {"prefix": "https://ss3.4sqi.net/img/categories_v2/food/cafe_", "suffix": ".png"}, "primary": true}], "photos": {"count": 0, "groups": []}}, "referralId": "e-0-5b6c842bc36588002c80a934-35"}, {"reasons": {"count": 0, "items": [{"summary": "This spot is popular", "type": "general", "reasonName": "globalInteractionReason"}]}, "venue": {"id": "4f0b0b43e4b05f83101ee474", "name": "Starbucks", "location": {"address": "100 King St. W", "crossStreet": "in First Canadian Place", "lat": 43.64902831957521, "lng": -79.38159290007317, "labeledLatLngs": [{"label": "display", "lat": 43.64902831957521, "lng": -79.38159290007317}], "distance": 206, "postalCode": "M5X 1B8", "cc": "CA", "city": "Toronto", "state": "ON", "country": "Canada", "formattedAddress": ["100 King St. W (in First Canadian Place)", "Toronto ON M5X 1B8", "Canada"]}, "categories": [{"id": "4bf58dd8d48988d1e0931735", "name": "Coffee Shop", "pluralName": "Coffee Shops", "shortName": "Coffee Shop", "icon": {"prefix": "https://ss3.4sqi.net/img/categories_v2/food/coffeeshop_", "suffix": ".png"}, "primary": true}], "photos": {"count": 0, "groups": []}}, "referralId": "e-0-4f0b0b43e4b05f83101ee474-36"}, {"reasons": {"count": 0, "items": [{"summary": "This spot is popular", "type": "general", "reasonName": "globalInteractionReason"}]}, "venue": {"id": "53c524bd498efaeebf73b291", "name": "Caf\u00e9 Plenty", "location": {"address": "1 King St W", "crossStreet": "Yonge St", "lat": 43.6491179354577, "lng": -79.37831288380438, "labeledLatLngs": [{"label": "display", "lat": 43.6491179354577, "lng": -79.37831288380438}], "distance": 340, "cc": "CA", "city": "Toronto", "state": "ON", "country": "Canada", "formattedAddress": ["1 King St W (Yonge St)", "Toronto ON", "Canada"]}, "categories": [{"id": "4bf58dd8d48988d16d941735", "name": "Caf\u00e9", "pluralName": "Caf\u00e9s", "shortName": "Caf\u00e9", "icon": {"prefix": "https://ss3.4sqi.net/img/categories_v2/food/cafe_", "suffix": ".png"}, "primary": true}], "photos": {"count": 0, "groups": []}}, "referralId": "e-0-53c524bd498efaeebf73b291-37"}, {"reasons": {"count": 0, "items": [{"summary": "This spot is popular", "type": "general", "reasonName": "globalInteractionReason"}]}, "venue": {"id": "55314880498eca93a62e17ec", "name": "Movenpick Cafe", "location": {"address": "42 Yonge St", "crossStreet": "Wellington St W", "lat": 43.647686808930885, "lng": -79.3772953884033, "labeledLatLngs": [{"label": "display", "lat": 43.647686808930885, "lng": -79.3772953884033}], "distance": 349, "postalCode": "M5E 1X8", "cc": "CA", "neighborhood": "Financial District", "city": "Toronto", "state": "ON", "country": "Canada", "formattedAddress": ["42 Yonge St (Wellington St W)", "Toronto ON M5E 1X8", "Canada"]}, "categories": [{"id": "4bf58dd8d48988d16d941735", "name": "Caf\u00e9", "pluralName": "Caf\u00e9s", "shortName": "Caf\u00e9", "icon": {"prefix": "https://ss3.4sqi.net/img/categories_v2/food/cafe_", "suffix": ".png"}, "primary": true}], "photos": {"count": 0, "groups": []}}, "referralId": "e-0-55314880498eca93a62e17ec-38"}, {"reasons": {"count": 0, "items": [{"summary": "This spot is popular", "type": "general", "reasonName": "globalInteractionReason"}]}, "venue": {"id": "595e825350a6f05c631431b0", "name": "Buster's Sea Cove", "location": {"address": "199 Bay Street (Commerce Court)", "lat": 43.64777410584289, "lng": -79.37918080262172, "labeledLatLngs": [{"label": "display", "lat": 43.64777410584289, "lng": -79.37918080262172}], "distance": 204, "postalCode": "M5E", "cc": "CA", "city": "Toronto", "state": "ON", "country": "Canada", "formattedAddress": ["199 Bay Street (Commerce Court)", "Toronto ON M5E", "Canada"]}, "categories": [{"id": "4bf58dd8d48988d1ce941735", "name": "Seafood Restaurant", "pluralName": "Seafood Restaurants", "shortName": "Seafood", "icon": {"prefix": "https://ss3.4sqi.net/img/categories_v2/food/seafood_", "suffix": ".png"}, "primary": true}], "photos": {"count": 0, "groups": []}}, "referralId": "e-0-595e825350a6f05c631431b0-39"}, {"reasons": {"count": 0, "items": [{"summary": "This spot is popular", "type": "general", "reasonName": "globalInteractionReason"}]}, "venue": {"id": "4c3c73137ea89521dc322247", "name": "Tim Hortons", "location": {"address": "55 York St", "crossStreet": "at Piper St", "lat": 43.646104578197665, "lng": -79.38257150352001, "labeledLatLngs": [{"label": "display", "lat": 43.646104578197665, "lng": -79.38257150352001}], "distance": 143, "postalCode": "M5J 1R7", "cc": "CA", "city": "Toronto", "state": "ON", "country": "Canada", "formattedAddress": ["55 York St (at Piper St)", "Toronto ON M5J 1R7", "Canada"]}, "categories": [{"id": "4bf58dd8d48988d1e0931735", "name": "Coffee Shop", "pluralName": "Coffee Shops", "shortName": "Coffee Shop", "icon": {"prefix": "https://ss3.4sqi.net/img/categories_v2/food/coffeeshop_", "suffix": ".png"}, "primary": true}], "photos": {"count": 0, "groups": []}}, "referralId": "e-0-4c3c73137ea89521dc322247-40"}, {"reasons": {"count": 0, "items": [{"summary": "This spot is popular", "type": "general", "reasonName": "globalInteractionReason"}]}, "venue": {"id": "514627d1e4b0dba1b85e9ba8", "name": "Dineen Coffee", "location": {"address": "140 Yonge St", "crossStreet": "at Temperance St", "lat": 43.650497, "lng": -79.378765, "labeledLatLngs": [{"label": "display", "lat": 43.650497, "lng": -79.378765}], "distance": 433, "postalCode": "M5C 1X6", "cc": "CA", "neighborhood": "Financial District", "city": "Toronto", "state": "ON", "country": "Canada", "formattedAddress": ["140 Yonge St (at Temperance St)", "Toronto ON M5C 1X6", "Canada"]}, "categories": [{"id": "4bf58dd8d48988d16d941735", "name": "Caf\u00e9", "pluralName": "Caf\u00e9s", "shortName": "Caf\u00e9", "icon": {"prefix": "https://ss3.4sqi.net/img/categories_v2/food/cafe_", "suffix": ".png"}, "primary": true}], "photos": {"count": 0, "groups": []}}, "referralId": "e-0-514627d1e4b0dba1b85e9ba8-41"}, {"reasons": {"count": 0, "items": [{"summary": "This spot is popular", "type": "general", "reasonName": "globalInteractionReason"}]}, "venue": {"id": "5a0f2414c3658815295727a5", "name": "The Danish Pastry House", "location": {"address": "65 Front St W", "crossStreet": "York", "lat": 43.64526188121351, "lng": -79.38084966956498, "labeledLatLngs": [{"label": "display", "lat": 43.64526188121351, "lng": -79.38084966956498}], "distance": 221, "postalCode": "M5X 4A6", "cc": "CA", "city": "Toronto", "state": "ON", "country": "Canada", "formattedAddress": ["65 Front St W (York)", "Toronto ON M5X 4A6", "Canada"]}, "categories": [{"id": "4bf58dd8d48988d16a941735", "name": "Bakery", "pluralName": "Bakeries", "shortName": "Bakery", "icon": {"prefix": "https://ss3.4sqi.net/img/categories_v2/food/bakery_", "suffix": ".png"}, "primary": true}], "photos": {"count": 0, "groups": []}}, "referralId": "e-0-5a0f2414c3658815295727a5-42"}, {"reasons": {"count": 0, "items": [{"summary": "This spot is popular", "type": "general", "reasonName": "globalInteractionReason"}]}, "venue": {"id": "573b65fb498e9bcba6b1089a", "name": "Five Guys", "location": {"address": "100 King St. West, Space 93", "lat": 43.648952917114954, "lng": -79.38148110862167, "labeledLatLngs": [{"label": "display", "lat": 43.648952917114954, "lng": -79.38148110862167}], "distance": 197, "postalCode": "M5X 1A9", "cc": "CA", "city": "Toronto", "state": "ON", "country": "Canada", "formattedAddress": ["100 King St. West, Space 93", "Toronto ON M5X 1A9", "Canada"]}, "categories": [{"id": "4bf58dd8d48988d16c941735", "name": "Burger Joint", "pluralName": "Burger Joints", "shortName": "Burgers", "icon": {"prefix": "https://ss3.4sqi.net/img/categories_v2/food/burger_", "suffix": ".png"}, "primary": true}], "photos": {"count": 0, "groups": []}}, "referralId": "e-0-573b65fb498e9bcba6b1089a-43"}, {"reasons": {"count": 0, "items": [{"summary": "This spot is popular", "type": "general", "reasonName": "globalInteractionReason"}]}, "venue": {"id": "50322b6ae4b09116a296568c", "name": "Soho House Toronto", "location": {"address": "192 Adelaide St W", "crossStreet": "at Simcoe St.", "lat": 43.64873430659662, "lng": -79.38654117564838, "labeledLatLngs": [{"label": "display", "lat": 43.64873430659662, "lng": -79.38654117564838}], "distance": 435, "postalCode": "M5H 0A4", "cc": "CA", "city": "Toronto", "state": "ON", "country": "Canada", "formattedAddress": ["192 Adelaide St W (at Simcoe St.)", "Toronto ON M5H 0A4", "Canada"]}, "categories": [{"id": "4bf58dd8d48988d1d4941735", "name": "Speakeasy", "pluralName": "Speakeasies", "shortName": "Speakeasy", "icon": {"prefix": "https://ss3.4sqi.net/img/categories_v2/nightlife/secretbar_", "suffix": ".png"}, "primary": true}], "photos": {"count": 0, "groups": []}, "venuePage": {"id": "554347004"}}, "referralId": "e-0-50322b6ae4b09116a296568c-44"}, {"reasons": {"count": 0, "items": [{"summary": "This spot is popular", "type": "general", "reasonName": "globalInteractionReason"}]}, "venue": {"id": "59a0c566fc9e941199511d9f", "name": "Kellys Landing", "location": {"address": "123 Front St W", "lat": 43.64500578241027, "lng": -79.3826604817129, "labeledLatLngs": [{"label": "display", "lat": 43.64500578241027, "lng": -79.3826604817129}], "distance": 256, "postalCode": "M5J 2M2", "cc": "CA", "neighborhood": "Downtown Toronto, Toronto, ON", "city": "Toronto", "state": "ON", "country": "Canada", "formattedAddress": ["123 Front St W", "Toronto ON M5J 2M2", "Canada"]}, "categories": [{"id": "4bf58dd8d48988d1c4941735", "name": "Restaurant", "pluralName": "Restaurants", "shortName": "Restaurant", "icon": {"prefix": "https://ss3.4sqi.net/img/categories_v2/food/default_", "suffix": ".png"}, "primary": true}], "photos": {"count": 0, "groups": []}}, "referralId": "e-0-59a0c566fc9e941199511d9f-45"}, {"reasons": {"count": 0, "items": [{"summary": "This spot is popular", "type": "general", "reasonName": "globalInteractionReason"}]}, "venue": {"id": "4b5ca7d8f964a5207c3c29e3", "name": "Beerbistro", "location": {"address": "18 King St. E", "crossStreet": "at Yonge St.", "lat": 43.64941904378835, "lng": -79.37723726034164, "labeledLatLngs": [{"label": "display", "lat": 43.64941904378835, "lng": -79.37723726034164}], "distance": 429, "postalCode": "M5C 1C4", "cc": "CA", "city": "Toronto", "state": "ON", "country": "Canada", "formattedAddress": ["18 King St. E (at Yonge St.)", "Toronto ON M5C 1C4", "Canada"]}, "categories": [{"id": "4bf58dd8d48988d155941735", "name": "Gastropub", "pluralName": "Gastropubs", "shortName": "Gastropub", "icon": {"prefix": "https://ss3.4sqi.net/img/categories_v2/food/gastropub_", "suffix": ".png"}, "primary": true}], "photos": {"count": 0, "groups": []}, "venuePage": {"id": "113282121"}}, "referralId": "e-0-4b5ca7d8f964a5207c3c29e3-46"}, {"reasons": {"count": 0, "items": [{"summary": "This spot is popular", "type": "general", "reasonName": "globalInteractionReason"}]}, "venue": {"id": "4ad4c063f964a5201df820e3", "name": "Brookfield Place", "location": {"address": "181 Bay St", "crossStreet": "at Wellington St. NW", "lat": 43.646790641203026, "lng": -79.37876938530562, "labeledLatLngs": [{"label": "display", "lat": 43.646790641203026, "lng": -79.37876938530562}], "distance": 230, "postalCode": "M5J 2T3", "cc": "CA", "city": "Toronto", "state": "ON", "country": "Canada", "formattedAddress": ["181 Bay St (at Wellington St. NW)", "Toronto ON M5J 2T3", "Canada"]}, "categories": [{"id": "4bf58dd8d48988d1fd941735", "name": "Shopping Mall", "pluralName": "Shopping Malls", "shortName": "Mall", "icon": {"prefix": "https://ss3.4sqi.net/img/categories_v2/shops/mall_", "suffix": ".png"}, "primary": true}], "photos": {"count": 0, "groups": []}}, "referralId": "e-0-4ad4c063f964a5201df820e3-47"}, {"reasons": {"count": 0, "items": [{"summary": "This spot is popular", "type": "general", "reasonName": "globalInteractionReason"}]}, "venue": {"id": "4d2c55ea55a8b60c5004efc0", "name": "deKEFIR", "location": {"address": "333 Bay St", "crossStreet": "at Adelaide St W", "lat": 43.65043319523819, "lng": -79.37939324949957, "labeledLatLngs": [{"label": "display", "lat": 43.65043319523819, "lng": -79.37939324949957}], "distance": 402, "postalCode": "M5H 2R2", "cc": "CA", "city": "Toronto", "state": "ON", "country": "Canada", "formattedAddress": ["333 Bay St (at Adelaide St W)", "Toronto ON M5H 2R2", "Canada"]}, "categories": [{"id": "4bf58dd8d48988d1c9941735", "name": "Ice Cream Shop", "pluralName": "Ice Cream Shops", "shortName": "Ice Cream", "icon": {"prefix": "https://ss3.4sqi.net/img/categories_v2/food/icecream_", "suffix": ".png"}, "primary": true}], "photos": {"count": 0, "groups": []}}, "referralId": "e-0-4d2c55ea55a8b60c5004efc0-48"}, {"reasons": {"count": 0, "items": [{"summary": "This spot is popular", "type": "general", "reasonName": "globalInteractionReason"}]}, "venue": {"id": "4ae603a5f964a52010a421e3", "name": "Loose Moose", "location": {"address": "146 Front Street West", "crossStreet": "btwn Simcoe & York", "lat": 43.64528061938072, "lng": -79.38396600831251, "labeledLatLngs": [{"label": "display", "lat": 43.64528061938072, "lng": -79.38396600831251}], "distance": 285, "postalCode": "M5J 1G2", "cc": "CA", "city": "Toronto", "state": "ON", "country": "Canada", "formattedAddress": ["146 Front Street West (btwn Simcoe & York)", "Toronto ON M5J 1G2", "Canada"]}, "categories": [{"id": "4bf58dd8d48988d116941735", "name": "Bar", "pluralName": "Bars", "shortName": "Bar", "icon": {"prefix": "https://ss3.4sqi.net/img/categories_v2/nightlife/pub_", "suffix": ".png"}, "primary": true}], "photos": {"count": 0, "groups": []}}, "referralId": "e-0-4ae603a5f964a52010a421e3-49"}, {"reasons": {"count": 0, "items": [{"summary": "This spot is popular", "type": "general", "reasonName": "globalInteractionReason"}]}, "venue": {"id": "5a23467c47f8762eb7bdfc90", "name": "Amano Pasta", "location": {"address": "65 FRONT ST W", "lat": 43.64491852117436, "lng": -79.38235777637108, "labeledLatLngs": [{"label": "display", "lat": 43.64491852117436, "lng": -79.38235777637108}], "distance": 259, "postalCode": "M5J", "cc": "CA", "city": "Toronto", "state": "ON", "country": "Canada", "formattedAddress": ["65 FRONT ST W", "Toronto ON M5J", "Canada"]}, "categories": [{"id": "4bf58dd8d48988d110941735", "name": "Italian Restaurant", "pluralName": "Italian Restaurants", "shortName": "Italian", "icon": {"prefix": "https://ss3.4sqi.net/img/categories_v2/food/italian_", "suffix": ".png"}, "primary": true}], "photos": {"count": 0, "groups": []}}, "referralId": "e-0-5a23467c47f8762eb7bdfc90-50"}, {"reasons": {"count": 0, "items": [{"summary": "This spot is popular", "type": "general", "reasonName": "globalInteractionReason"}]}, "venue": {"id": "50468014e4b01c18bb731df8", "name": "Bosk at Shangri-La", "location": {"address": "188 University Ave.", "lat": 43.649022736761516, "lng": -79.38582635521233, "labeledLatLngs": [{"label": "display", "lat": 43.649022736761516, "lng": -79.38582635521233}], "distance": 399, "postalCode": "M5H 0A3", "cc": "CA", "city": "Toronto", "state": "ON", "country": "Canada", "formattedAddress": ["188 University Ave.", "Toronto ON M5H 0A3", "Canada"]}, "categories": [{"id": "4bf58dd8d48988d142941735", "name": "Asian Restaurant", "pluralName": "Asian Restaurants", "shortName": "Asian", "icon": {"prefix": "https://ss3.4sqi.net/img/categories_v2/food/asian_", "suffix": ".png"}, "primary": true}], "photos": {"count": 0, "groups": []}}, "referralId": "e-0-50468014e4b01c18bb731df8-51"}, {"reasons": {"count": 0, "items": [{"summary": "This spot is popular", "type": "general", "reasonName": "globalInteractionReason"}]}, "venue": {"id": "4d2b615e342d6dcb2b8115cb", "name": "Earls Kitchen & Bar", "location": {"address": "150 King St. W.", "crossStreet": "at York St.", "lat": 43.647945662980305, "lng": -79.3837058277153, "labeledLatLngs": [{"label": "display", "lat": 43.647945662980305, "lng": -79.3837058277153}], "distance": 191, "postalCode": "M5H 2B6", "cc": "CA", "city": "Toronto", "state": "ON", "country": "Canada", "formattedAddress": ["150 King St. W. (at York St.)", "Toronto ON M5H 2B6", "Canada"]}, "categories": [{"id": "4bf58dd8d48988d116941735", "name": "Bar", "pluralName": "Bars", "shortName": "Bar", "icon": {"prefix": "https://ss3.4sqi.net/img/categories_v2/nightlife/pub_", "suffix": ".png"}, "primary": true}], "photos": {"count": 0, "groups": []}}, "referralId": "e-0-4d2b615e342d6dcb2b8115cb-52"}, {"reasons": {"count": 0, "items": [{"summary": "This spot is popular", "type": "general", "reasonName": "globalInteractionReason"}]}, "venue": {"id": "4e31b74252b131dcebb08743", "name": "Shangri-La Toronto", "location": {"address": "188 University Ave.", "crossStreet": "at Adelaide St. W", "lat": 43.64912919417502, "lng": -79.3865566853963, "labeledLatLngs": [{"label": "display", "lat": 43.64912919417502, "lng": -79.3865566853963}], "distance": 456, "postalCode": "M5H 0A3", "cc": "CA", "city": "Toronto", "state": "ON", "country": "Canada", "formattedAddress": ["188 University Ave. (at Adelaide St. W)", "Toronto ON M5H 0A3", "Canada"]}, "categories": [{"id": "4bf58dd8d48988d1fa931735", "name": "Hotel", "pluralName": "Hotels", "shortName": "Hotel", "icon": {"prefix": "https://ss3.4sqi.net/img/categories_v2/travel/hotel_", "suffix": ".png"}, "primary": true}], "photos": {"count": 0, "groups": []}}, "referralId": "e-0-4e31b74252b131dcebb08743-53"}, {"reasons": {"count": 0, "items": [{"summary": "This spot is popular", "type": "general", "reasonName": "globalInteractionReason"}]}, "venue": {"id": "50ecb1fae4b0beb13294f0aa", "name": "John & Sons Oyster House", "location": {"address": "56 Temperance Street", "lat": 43.65065642537144, "lng": -79.38161285228475, "labeledLatLngs": [{"label": "display", "lat": 43.65065642537144, "lng": -79.38161285228475}], "distance": 387, "postalCode": "M5H 3V5", "cc": "CA", "city": "Toronto", "state": "ON", "country": "Canada", "formattedAddress": ["56 Temperance Street", "Toronto ON M5H 3V5", "Canada"]}, "categories": [{"id": "4bf58dd8d48988d1ce941735", "name": "Seafood Restaurant", "pluralName": "Seafood Restaurants", "shortName": "Seafood", "icon": {"prefix": "https://ss3.4sqi.net/img/categories_v2/food/seafood_", "suffix": ".png"}, "primary": true}], "photos": {"count": 0, "groups": []}, "venuePage": {"id": "122923005"}}, "referralId": "e-0-50ecb1fae4b0beb13294f0aa-54"}, {"reasons": {"count": 0, "items": [{"summary": "This spot is popular", "type": "general", "reasonName": "globalInteractionReason"}]}, "venue": {"id": "4b6609b3f964a5200c102be3", "name": "Toronto PATH System", "location": {"crossStreet": "btwn John St., Yonge St., Elm St. and Front St.", "lat": 43.64990340698978, "lng": -79.3830527039004, "labeledLatLngs": [{"label": "display", "lat": 43.64990340698978, "lng": -79.3830527039004}], "distance": 325, "cc": "CA", "city": "Toronto", "state": "ON", "country": "Canada", "formattedAddress": ["All Around Downtown Toronto (btwn John St., Yonge St., Elm St. and Front St.)", "Toronto ON", "Canada"]}, "categories": [{"id": "4bf58dd8d48988d1f6931735", "name": "General Travel", "pluralName": "General Travel", "shortName": "Travel", "icon": {"prefix": "https://ss3.4sqi.net/img/categories_v2/travel/default_", "suffix": ".png"}, "primary": true}], "photos": {"count": 0, "groups": []}}, "referralId": "e-0-4b6609b3f964a5200c102be3-55"}, {"reasons": {"count": 0, "items": [{"summary": "This spot is popular", "type": "general", "reasonName": "globalInteractionReason"}]}, "venue": {"id": "5a1df4408ad62e3314313889", "name": "Craft Beer Market", "location": {"address": "1 Adelaide St E", "lat": 43.6498722789121, "lng": -79.37839828995996, "labeledLatLngs": [{"label": "display", "lat": 43.6498722789121, "lng": -79.37839828995996}], "distance": 394, "postalCode": "M5C 2V9", "cc": "CA", "city": "Toronto", "state": "ON", "country": "Canada", "formattedAddress": ["1 Adelaide St E", "Toronto ON M5C 2V9", "Canada"]}, "categories": [{"id": "56aa371ce4b08b9a8d57356c", "name": "Beer Bar", "pluralName": "Beer Bars", "shortName": "Beer Bar", "icon": {"prefix": "https://ss3.4sqi.net/img/categories_v2/nightlife/pub_", "suffix": ".png"}, "primary": true}], "photos": {"count": 0, "groups": []}}, "referralId": "e-0-5a1df4408ad62e3314313889-56"}, {"reasons": {"count": 0, "items": [{"summary": "This spot is popular", "type": "general", "reasonName": "globalInteractionReason"}]}, "venue": {"id": "5aff06ca6e4650002cc6286b", "name": "Rosalinda", "location": {"address": "133 Richmond St W", "lat": 43.650252483069295, "lng": -79.38515575620075, "labeledLatLngs": [{"label": "display", "lat": 43.650252483069295, "lng": -79.38515575620075}], "distance": 447, "postalCode": "M5H 2L2", "cc": "CA", "city": "Toronto", "state": "ON", "country": "Canada", "formattedAddress": ["133 Richmond St W", "Toronto ON M5H 2L2", "Canada"]}, "categories": [{"id": "4bf58dd8d48988d1d3941735", "name": "Vegetarian / Vegan Restaurant", "pluralName": "Vegetarian / Vegan Restaurants", "shortName": "Vegetarian / Vegan", "icon": {"prefix": "https://ss3.4sqi.net/img/categories_v2/food/vegetarian_", "suffix": ".png"}, "primary": true}], "photos": {"count": 0, "groups": []}}, "referralId": "e-0-5aff06ca6e4650002cc6286b-57"}, {"reasons": {"count": 0, "items": [{"summary": "This spot is popular", "type": "general", "reasonName": "globalInteractionReason"}]}, "venue": {"id": "4ae8c1d8f964a52005b221e3", "name": "The National Club", "location": {"address": "303 Bay Street", "crossStreet": "at Adelaide", "lat": 43.64934259283233, "lng": -79.3805735731846, "labeledLatLngs": [{"label": "display", "lat": 43.64934259283233, "lng": -79.3805735731846}], "distance": 254, "cc": "CA", "city": "Toronto", "state": "ON", "country": "Canada", "formattedAddress": ["303 Bay Street (at Adelaide)", "Toronto ON", "Canada"]}, "categories": [{"id": "4bf58dd8d48988d123941735", "name": "Wine Bar", "pluralName": "Wine Bars", "shortName": "Wine Bar", "icon": {"prefix": "https://ss3.4sqi.net/img/categories_v2/food/winery_", "suffix": ".png"}, "primary": true}], "photos": {"count": 0, "groups": []}}, "referralId": "e-0-4ae8c1d8f964a52005b221e3-58"}, {"reasons": {"count": 0, "items": [{"summary": "This spot is popular", "type": "general", "reasonName": "globalInteractionReason"}]}, "venue": {"id": "4ad4c05df964a52026f620e3", "name": "Reds Wine Tavern", "location": {"address": "77 Adelaide St.W., 1st Canadian Pl", "crossStreet": "near Bay Street", "lat": 43.64957038171473, "lng": -79.38212873483711, "labeledLatLngs": [{"label": "display", "lat": 43.64957038171473, "lng": -79.38212873483711}], "distance": 270, "postalCode": "M5X 1B1", "cc": "CA", "city": "Toronto", "state": "ON", "country": "Canada", "formattedAddress": ["77 Adelaide St.W., 1st Canadian Pl (near Bay Street)", "Toronto ON M5X 1B1", "Canada"]}, "categories": [{"id": "4bf58dd8d48988d155941735", "name": "Gastropub", "pluralName": "Gastropubs", "shortName": "Gastropub", "icon": {"prefix": "https://ss3.4sqi.net/img/categories_v2/food/gastropub_", "suffix": ".png"}, "primary": true}], "photos": {"count": 0, "groups": []}}, "referralId": "e-0-4ad4c05df964a52026f620e3-59"}, {"reasons": {"count": 0, "items": [{"summary": "This spot is popular", "type": "general", "reasonName": "globalInteractionReason"}]}, "venue": {"id": "4b8bce0af964a52038ac32e3", "name": "Tim Hortons", "location": {"address": "200 Bay St, Unit F6 F7", "crossStreet": "in Royal Bank Plaza", "lat": 43.646255967524645, "lng": -79.37957346439356, "labeledLatLngs": [{"label": "display", "lat": 43.646255967524645, "lng": -79.37957346439356}], "distance": 191, "postalCode": "M5J 2J1", "cc": "CA", "city": "Toronto", "state": "ON", "country": "Canada", "formattedAddress": ["200 Bay St, Unit F6 F7 (in Royal Bank Plaza)", "Toronto ON M5J 2J1", "Canada"]}, "categories": [{"id": "4bf58dd8d48988d1e0931735", "name": "Coffee Shop", "pluralName": "Coffee Shops", "shortName": "Coffee Shop", "icon": {"prefix": "https://ss3.4sqi.net/img/categories_v2/food/coffeeshop_", "suffix": ".png"}, "primary": true}], "photos": {"count": 0, "groups": []}}, "referralId": "e-0-4b8bce0af964a52038ac32e3-60"}, {"reasons": {"count": 0, "items": [{"summary": "This spot is popular", "type": "general", "reasonName": "globalInteractionReason"}]}, "venue": {"id": "4b155081f964a520b4b023e3", "name": "Scotiabank Arena", "location": {"address": "40 Bay St", "lat": 43.64344617535107, "lng": -79.37903988889991, "labeledLatLngs": [{"label": "display", "lat": 43.64344617535107, "lng": -79.37903988889991}], "distance": 462, "postalCode": "M5J 2X2", "cc": "CA", "city": "Toronto", "state": "ON", "country": "Canada", "formattedAddress": ["40 Bay St", "Toronto ON M5J 2X2", "Canada"]}, "categories": [{"id": "4bf58dd8d48988d18b941735", "name": "Basketball Stadium", "pluralName": "Basketball Stadiums", "shortName": "Basketball", "icon": {"prefix": "https://ss3.4sqi.net/img/categories_v2/arts_entertainment/stadium_basketball_", "suffix": ".png"}, "primary": true}], "photos": {"count": 0, "groups": []}, "venuePage": {"id": "33431410"}}, "referralId": "e-0-4b155081f964a520b4b023e3-61"}, {"reasons": {"count": 0, "items": [{"summary": "This spot is popular", "type": "general", "reasonName": "globalInteractionReason"}]}, "venue": {"id": "4ad4c060f964a5207cf720e3", "name": "John & Sons Oyster House", "location": {"address": "56 Temperance St.", "crossStreet": "at Bay St.", "lat": 43.65060229830571, "lng": -79.38155510682869, "labeledLatLngs": [{"label": "display", "lat": 43.65060229830571, "lng": -79.38155510682869}], "distance": 381, "postalCode": "M5H 3V5", "cc": "CA", "city": "Toronto", "state": "ON", "country": "Canada", "formattedAddress": ["56 Temperance St. (at Bay St.)", "Toronto ON M5H 3V5", "Canada"]}, "categories": [{"id": "4bf58dd8d48988d1ce941735", "name": "Seafood Restaurant", "pluralName": "Seafood Restaurants", "shortName": "Seafood", "icon": {"prefix": "https://ss3.4sqi.net/img/categories_v2/food/seafood_", "suffix": ".png"}, "primary": true}], "photos": {"count": 0, "groups": []}}, "referralId": "e-0-4ad4c060f964a5207cf720e3-62"}, {"reasons": {"count": 0, "items": [{"summary": "This spot is popular", "type": "general", "reasonName": "globalInteractionReason"}]}, "venue": {"id": "4e048b98315168be7fd7ee4d", "name": "Estiatorio Volos", "location": {"address": "133 Richmond St. W", "crossStreet": "at York St.", "lat": 43.65032912559998, "lng": -79.38453301297716, "labeledLatLngs": [{"label": "display", "lat": 43.65032912559998, "lng": -79.38453301297716}], "distance": 424, "postalCode": "M5H 2L3", "cc": "CA", "city": "Toronto", "state": "ON", "country": "Canada", "formattedAddress": ["133 Richmond St. W (at York St.)", "Toronto ON M5H 2L3", "Canada"]}, "categories": [{"id": "4bf58dd8d48988d10e941735", "name": "Greek Restaurant", "pluralName": "Greek Restaurants", "shortName": "Greek", "icon": {"prefix": "https://ss3.4sqi.net/img/categories_v2/food/greek_", "suffix": ".png"}, "primary": true}], "photos": {"count": 0, "groups": []}, "venuePage": {"id": "75877391"}}, "referralId": "e-0-4e048b98315168be7fd7ee4d-63"}, {"reasons": {"count": 0, "items": [{"summary": "This spot is popular", "type": "general", "reasonName": "globalInteractionReason"}]}, "venue": {"id": "5894c1f9266c1121f0a757d1", "name": "Boxcar Social Temperance", "location": {"address": "70 Temperance Street", "lat": 43.65055725249405, "lng": -79.38195634640063, "labeledLatLngs": [{"label": "display", "lat": 43.65055725249405, "lng": -79.38195634640063}], "distance": 377, "postalCode": "M5H 0B1", "cc": "CA", "city": "Toronto", "state": "ON", "country": "Canada", "formattedAddress": ["70 Temperance Street", "Toronto ON M5H 0B1", "Canada"]}, "categories": [{"id": "4bf58dd8d48988d116941735", "name": "Bar", "pluralName": "Bars", "shortName": "Bar", "icon": {"prefix": "https://ss3.4sqi.net/img/categories_v2/nightlife/pub_", "suffix": ".png"}, "primary": true}], "photos": {"count": 0, "groups": []}}, "referralId": "e-0-5894c1f9266c1121f0a757d1-64"}, {"reasons": {"count": 0, "items": [{"summary": "This spot is popular", "type": "general", "reasonName": "globalInteractionReason"}]}, "venue": {"id": "4be46c832468c92887c1fe42", "name": "Real Sports Apparel", "location": {"address": "15 York St. Unit B", "crossStreet": "Maple Leaf Square", "lat": 43.64285984835777, "lng": -79.38018363195047, "labeledLatLngs": [{"label": "display", "lat": 43.64285984835777, "lng": -79.38018363195047}], "distance": 493, "postalCode": "M5J", "cc": "CA", "city": "Toronto", "state": "ON", "country": "Canada", "formattedAddress": ["15 York St. Unit B (Maple Leaf Square)", "Toronto ON M5J", "Canada"]}, "categories": [{"id": "4bf58dd8d48988d1f2941735", "name": "Sporting Goods Shop", "pluralName": "Sporting Goods Shops", "shortName": "Sporting Goods", "icon": {"prefix": "https://ss3.4sqi.net/img/categories_v2/shops/sports_outdoors_", "suffix": ".png"}, "primary": true}], "photos": {"count": 0, "groups": []}, "venuePage": {"id": "33431415"}}, "referralId": "e-0-4be46c832468c92887c1fe42-65"}, {"reasons": {"count": 0, "items": [{"summary": "This spot is popular", "type": "general", "reasonName": "globalInteractionReason"}]}, "venue": {"id": "5346c98a498ed612110d0f60", "name": "iQ Food Co", "location": {"address": "18 York Street", "crossStreet": "Bremner Ave", "lat": 43.642851, "lng": -79.382081, "labeledLatLngs": [{"label": "display", "lat": 43.642851, "lng": -79.382081}], "distance": 483, "postalCode": "M5J 0B2", "cc": "CA", "city": "Toronto", "state": "ON", "country": "Canada", "formattedAddress": ["18 York Street (Bremner Ave)", "Toronto ON M5J 0B2", "Canada"]}, "categories": [{"id": "4bf58dd8d48988d1bd941735", "name": "Salad Place", "pluralName": "Salad Places", "shortName": "Salad", "icon": {"prefix": "https://ss3.4sqi.net/img/categories_v2/food/salad_", "suffix": ".png"}, "primary": true}], "photos": {"count": 0, "groups": []}}, "referralId": "e-0-5346c98a498ed612110d0f60-66"}, {"reasons": {"count": 0, "items": [{"summary": "This spot is popular", "type": "general", "reasonName": "globalInteractionReason"}]}, "venue": {"id": "4d2ce8d1fd2e236a8ac8ebde", "name": "The Ritz-Carlton", "location": {"address": "181 Wellington Street West", "crossStreet": "John Street", "lat": 43.645330157595886, "lng": -79.38708901405334, "labeledLatLngs": [{"label": "display", "lat": 43.645330157595886, "lng": -79.38708901405334}], "distance": 489, "postalCode": "M5V 3G7", "cc": "CA", "city": "Toronto", "state": "ON", "country": "Canada", "formattedAddress": ["181 Wellington Street West (John Street)", "Toronto ON M5V 3G7", "Canada"]}, "categories": [{"id": "4bf58dd8d48988d1fa931735", "name": "Hotel", "pluralName": "Hotels", "shortName": "Hotel", "icon": {"prefix": "https://ss3.4sqi.net/img/categories_v2/travel/hotel_", "suffix": ".png"}, "primary": true}], "photos": {"count": 0, "groups": []}}, "referralId": "e-0-4d2ce8d1fd2e236a8ac8ebde-67"}, {"reasons": {"count": 0, "items": [{"summary": "This spot is popular", "type": "general", "reasonName": "globalInteractionReason"}]}, "venue": {"id": "4adc55c6f964a520bd2b21e3", "name": "Starbucks", "location": {"address": "4 King St W", "crossStreet": "at Yonge St", "lat": 43.649328, "lng": -79.378339, "labeledLatLngs": [{"label": "display", "lat": 43.649328, "lng": -79.378339}], "distance": 354, "postalCode": "M5H 1B6", "cc": "CA", "city": "Toronto", "state": "ON", "country": "Canada", "formattedAddress": ["4 King St W (at Yonge St)", "Toronto ON M5H 1B6", "Canada"]}, "categories": [{"id": "4bf58dd8d48988d1e0931735", "name": "Coffee Shop", "pluralName": "Coffee Shops", "shortName": "Coffee Shop", "icon": {"prefix": "https://ss3.4sqi.net/img/categories_v2/food/coffeeshop_", "suffix": ".png"}, "primary": true}], "photos": {"count": 0, "groups": []}}, "referralId": "e-0-4adc55c6f964a520bd2b21e3-68"}, {"reasons": {"count": 0, "items": [{"summary": "This spot is popular", "type": "general", "reasonName": "globalInteractionReason"}]}, "venue": {"id": "4bdb8c1cc79cc928a77583e9", "name": "Maple Leaf Square", "location": {"address": "15 York St.", "crossStreet": "Bremner Blvd.", "lat": 43.64292522840183, "lng": -79.38089182467687, "labeledLatLngs": [{"label": "display", "lat": 43.64292522840183, "lng": -79.38089182467687}], "distance": 476, "cc": "CA", "city": "Toronto", "state": "ON", "country": "Canada", "formattedAddress": ["15 York St. (Bremner Blvd.)", "Toronto ON", "Canada"]}, "categories": [{"id": "4bf58dd8d48988d164941735", "name": "Plaza", "pluralName": "Plazas", "shortName": "Plaza", "icon": {"prefix": "https://ss3.4sqi.net/img/categories_v2/parks_outdoors/plaza_", "suffix": ".png"}, "primary": true}], "photos": {"count": 0, "groups": []}, "venuePage": {"id": "33431413"}}, "referralId": "e-0-4bdb8c1cc79cc928a77583e9-69"}, {"reasons": {"count": 0, "items": [{"summary": "This spot is popular", "type": "general", "reasonName": "globalInteractionReason"}]}, "venue": {"id": "4b0f3cd2f964a520b66023e3", "name": "Biff's Bistro", "location": {"address": "4 Front Street East", "crossStreet": "at Yonge St.", "lat": 43.647084825125084, "lng": -79.37634231908494, "labeledLatLngs": [{"label": "display", "lat": 43.647084825125084, "lng": -79.37634231908494}], "distance": 421, "postalCode": "M5E 1G4", "cc": "CA", "city": "Toronto", "state": "ON", "country": "Canada", "formattedAddress": ["4 Front Street East (at Yonge St.)", "Toronto ON M5E 1G4", "Canada"]}, "categories": [{"id": "4bf58dd8d48988d10c941735", "name": "French Restaurant", "pluralName": "French Restaurants", "shortName": "French", "icon": {"prefix": "https://ss3.4sqi.net/img/categories_v2/food/french_", "suffix": ".png"}, "primary": true}], "photos": {"count": 0, "groups": []}, "venuePage": {"id": "41473018"}}, "referralId": "e-0-4b0f3cd2f964a520b66023e3-70"}, {"reasons": {"count": 0, "items": [{"summary": "This spot is popular", "type": "general", "reasonName": "globalInteractionReason"}]}, "venue": {"id": "5a32970da42362290203a9d6", "name": "Assembly Chef's Hall", "location": {"address": "111 Richmond St W", "crossStreet": "btwn York & Bay St", "lat": 43.650578865093934, "lng": -79.3834119303614, "labeledLatLngs": [{"label": "display", "lat": 43.650578865093934, "lng": -79.3834119303614}], "distance": 406, "postalCode": "M5H 2G4", "cc": "CA", "neighborhood": "Financial District", "city": "Toronto", "state": "ON", "country": "Canada", "formattedAddress": ["111 Richmond St W (btwn York & Bay St)", "Toronto ON M5H 2G4", "Canada"]}, "categories": [{"id": "4bf58dd8d48988d120951735", "name": "Food Court", "pluralName": "Food Courts", "shortName": "Food Court", "icon": {"prefix": "https://ss3.4sqi.net/img/categories_v2/shops/food_foodcourt_", "suffix": ".png"}, "primary": true}], "photos": {"count": 0, "groups": []}}, "referralId": "e-0-5a32970da42362290203a9d6-71"}, {"reasons": {"count": 0, "items": [{"summary": "This spot is popular", "type": "general", "reasonName": "globalInteractionReason"}]}, "venue": {"id": "4ad4c062f964a520bbf720e3", "name": "Royal Alexandra Theatre", "location": {"address": "260 King St W", "crossStreet": "at Duncan St", "lat": 43.647255, "lng": -79.38753, "labeledLatLngs": [{"label": "display", "lat": 43.647255, "lng": -79.38753}], "distance": 479, "postalCode": "M5V 1H9", "cc": "CA", "neighborhood": "Entertainment District", "city": "Toronto", "state": "ON", "country": "Canada", "formattedAddress": ["260 King St W (at Duncan St)", "Toronto ON M5V 1H9", "Canada"]}, "categories": [{"id": "4bf58dd8d48988d137941735", "name": "Theater", "pluralName": "Theaters", "shortName": "Theater", "icon": {"prefix": "https://ss3.4sqi.net/img/categories_v2/arts_entertainment/performingarts_theater_", "suffix": ".png"}, "primary": true}], "photos": {"count": 0, "groups": []}, "venuePage": {"id": "32823702"}}, "referralId": "e-0-4ad4c062f964a520bbf720e3-72"}, {"reasons": {"count": 0, "items": [{"summary": "This spot is popular", "type": "general", "reasonName": "globalInteractionReason"}]}, "venue": {"id": "5214e7c111d2a83379eae21f", "name": "The Chase", "location": {"address": "10 Temperance St fl 5", "crossStreet": "Yonge St", "lat": 43.650951982093595, "lng": -79.37942201983014, "labeledLatLngs": [{"label": "display", "lat": 43.650951982093595, "lng": -79.37942201983014}], "distance": 454, "postalCode": "M5H 1Y4", "cc": "CA", "city": "Toronto", "state": "ON", "country": "Canada", "formattedAddress": ["10 Temperance St fl 5 (Yonge St)", "Toronto ON M5H 1Y4", "Canada"]}, "categories": [{"id": "4bf58dd8d48988d157941735", "name": "New American Restaurant", "pluralName": "New American Restaurants", "shortName": "New American", "icon": {"prefix": "https://ss3.4sqi.net/img/categories_v2/food/newamerican_", "suffix": ".png"}, "primary": true}], "photos": {"count": 0, "groups": []}}, "referralId": "e-0-5214e7c111d2a83379eae21f-73"}, {"reasons": {"count": 0, "items": [{"summary": "This spot is popular", "type": "general", "reasonName": "globalInteractionReason"}]}, "venue": {"id": "4d698ea4b6f46dcbd54d24b2", "name": "Spa My Blend by Clarins", "location": {"address": "181 Wellington St W", "lat": 43.645359, "lng": -79.387128, "labeledLatLngs": [{"label": "display", "lat": 43.645359, "lng": -79.387128}], "distance": 490, "postalCode": "M5V 3G7", "cc": "CA", "city": "Toronto", "state": "ON", "country": "Canada", "formattedAddress": ["181 Wellington St W", "Toronto ON M5V 3G7", "Canada"]}, "categories": [{"id": "4bf58dd8d48988d1ed941735", "name": "Spa", "pluralName": "Spas", "shortName": "Spa", "icon": {"prefix": "https://ss3.4sqi.net/img/categories_v2/shops/spa_", "suffix": ".png"}, "primary": true}], "photos": {"count": 0, "groups": []}}, "referralId": "e-0-4d698ea4b6f46dcbd54d24b2-74"}, {"reasons": {"count": 0, "items": [{"summary": "This spot is popular", "type": "general", "reasonName": "globalInteractionReason"}]}, "venue": {"id": "581cad6a7c74e15859a6f890", "name": "Scaddabush Italian Kitchen & Bar", "location": {"address": "200 Front St W", "crossStreet": "at Simcoe St", "lat": 43.6447367776608, "lng": -79.38535477982775, "labeledLatLngs": [{"label": "display", "lat": 43.6447367776608, "lng": -79.38535477982775}], "distance": 407, "postalCode": "M5V 3J1", "cc": "CA", "city": "Toronto", "state": "ON", "country": "Canada", "formattedAddress": ["200 Front St W (at Simcoe St)", "Toronto ON M5V 3J1", "Canada"]}, "categories": [{"id": "4bf58dd8d48988d110941735", "name": "Italian Restaurant", "pluralName": "Italian Restaurants", "shortName": "Italian", "icon": {"prefix": "https://ss3.4sqi.net/img/categories_v2/food/italian_", "suffix": ".png"}, "primary": true}], "photos": {"count": 0, "groups": []}}, "referralId": "e-0-581cad6a7c74e15859a6f890-75"}, {"reasons": {"count": 0, "items": [{"summary": "This spot is popular", "type": "general", "reasonName": "globalInteractionReason"}]}, "venue": {"id": "4ae0cf40f964a520bc8221e3", "name": "Jack Astor's Bar & Grill", "location": {"address": "144 Front St W", "crossStreet": "at University Ave", "lat": 43.645315, "lng": -79.383837, "labeledLatLngs": [{"label": "display", "lat": 43.645315, "lng": -79.383837}], "distance": 275, "postalCode": "M5J 2L7", "cc": "CA", "city": "Toronto", "state": "ON", "country": "Canada", "formattedAddress": ["144 Front St W (at University Ave)", "Toronto ON M5J 2L7", "Canada"]}, "categories": [{"id": "4bf58dd8d48988d14e941735", "name": "American Restaurant", "pluralName": "American Restaurants", "shortName": "American", "icon": {"prefix": "https://ss3.4sqi.net/img/categories_v2/food/default_", "suffix": ".png"}, "primary": true}], "photos": {"count": 0, "groups": []}}, "referralId": "e-0-4ae0cf40f964a520bc8221e3-76"}, {"reasons": {"count": 0, "items": [{"summary": "This spot is popular", "type": "general", "reasonName": "globalInteractionReason"}]}, "venue": {"id": "4c927dd2418ea1cd576aa585", "name": "Starbucks", "location": {"address": "123 Front St W", "crossStreet": "at University Ave.", "lat": 43.64510181136508, "lng": -79.38360972232998, "labeledLatLngs": [{"label": "display", "lat": 43.64510181136508, "lng": -79.38360972232998}], "distance": 283, "postalCode": "M5J 2M2", "cc": "CA", "city": "Toronto", "state": "ON", "country": "Canada", "formattedAddress": ["123 Front St W (at University Ave.)", "Toronto ON M5J 2M2", "Canada"]}, "categories": [{"id": "4bf58dd8d48988d1e0931735", "name": "Coffee Shop", "pluralName": "Coffee Shops", "shortName": "Coffee Shop", "icon": {"prefix": "https://ss3.4sqi.net/img/categories_v2/food/coffeeshop_", "suffix": ".png"}, "primary": true}], "photos": {"count": 0, "groups": []}}, "referralId": "e-0-4c927dd2418ea1cd576aa585-77"}, {"reasons": {"count": 0, "items": [{"summary": "This spot is popular", "type": "general", "reasonName": "globalInteractionReason"}]}, "venue": {"id": "4db5e84443a1369cb5da528a", "name": "Z-Teca Gourmet Burritos", "location": {"address": "199 Bay St", "crossStreet": "at Wellington St W", "lat": 43.6480141803431, "lng": -79.37911924716222, "labeledLatLngs": [{"label": "display", "lat": 43.6480141803431, "lng": -79.37911924716222}], "distance": 218, "postalCode": "M5L 1G4", "cc": "CA", "city": "Toronto", "state": "ON", "country": "Canada", "formattedAddress": ["199 Bay St (at Wellington St W)", "Toronto ON M5L 1G4", "Canada"]}, "categories": [{"id": "4bf58dd8d48988d153941735", "name": "Burrito Place", "pluralName": "Burrito Places", "shortName": "Burritos", "icon": {"prefix": "https://ss3.4sqi.net/img/categories_v2/food/burrito_", "suffix": ".png"}, "primary": true}], "photos": {"count": 0, "groups": []}}, "referralId": "e-0-4db5e84443a1369cb5da528a-78"}, {"reasons": {"count": 0, "items": [{"summary": "This spot is popular", "type": "general", "reasonName": "globalInteractionReason"}]}, "venue": {"id": "5a5a59c5a423620ec1dafd41", "name": "Pi Co.", "location": {"address": "170 University Ave", "crossStreet": "Adelaide St W", "lat": 43.648651, "lng": -79.385874, "labeledLatLngs": [{"label": "display", "lat": 43.648651, "lng": -79.385874}], "distance": 383, "postalCode": "M5H 3B3", "cc": "CA", "city": "Toronto", "state": "ON", "country": "Canada", "formattedAddress": ["170 University Ave (Adelaide St W)", "Toronto ON M5H 3B3", "Canada"]}, "categories": [{"id": "4bf58dd8d48988d1ca941735", "name": "Pizza Place", "pluralName": "Pizza Places", "shortName": "Pizza", "icon": {"prefix": "https://ss3.4sqi.net/img/categories_v2/food/pizza_", "suffix": ".png"}, "primary": true}], "photos": {"count": 0, "groups": []}}, "referralId": "e-0-5a5a59c5a423620ec1dafd41-79"}, {"reasons": {"count": 0, "items": [{"summary": "This spot is popular", "type": "general", "reasonName": "globalInteractionReason"}]}, "venue": {"id": "4ba90db8f964a5203f073ae3", "name": "Sweet Lulu", "location": {"address": "350 Bay St", "crossStreet": "at Temperance St", "lat": 43.65055650489936, "lng": -79.38117543224395, "labeledLatLngs": [{"label": "display", "lat": 43.65055650489936, "lng": -79.38117543224395}], "distance": 377, "cc": "CA", "city": "Toronto", "state": "ON", "country": "Canada", "formattedAddress": ["350 Bay St (at Temperance St)", "Toronto ON", "Canada"]}, "categories": [{"id": "4bf58dd8d48988d142941735", "name": "Asian Restaurant", "pluralName": "Asian Restaurants", "shortName": "Asian", "icon": {"prefix": "https://ss3.4sqi.net/img/categories_v2/food/asian_", "suffix": ".png"}, "primary": true}], "photos": {"count": 0, "groups": []}}, "referralId": "e-0-4ba90db8f964a5203f073ae3-80"}, {"reasons": {"count": 0, "items": [{"summary": "This spot is popular", "type": "general", "reasonName": "globalInteractionReason"}]}, "venue": {"id": "4af96fbbf964a520c01122e3", "name": "One King West Hotel & Residence", "location": {"address": "1 King St W", "crossStreet": "at Yonge St.", "lat": 43.6491395, "lng": -79.3778763, "labeledLatLngs": [{"label": "display", "lat": 43.6491395, "lng": -79.3778763}], "distance": 369, "postalCode": "M5H 1A1", "cc": "CA", "city": "Toronto", "state": "ON", "country": "Canada", "formattedAddress": ["1 King St W (at Yonge St.)", "Toronto ON M5H 1A1", "Canada"]}, "categories": [{"id": "4bf58dd8d48988d1fa931735", "name": "Hotel", "pluralName": "Hotels", "shortName": "Hotel", "icon": {"prefix": "https://ss3.4sqi.net/img/categories_v2/travel/hotel_", "suffix": ".png"}, "primary": true}], "photos": {"count": 0, "groups": []}}, "referralId": "e-0-4af96fbbf964a520c01122e3-81"}, {"reasons": {"count": 0, "items": [{"summary": "This spot is popular", "type": "general", "reasonName": "globalInteractionReason"}]}, "venue": {"id": "5a3a846af62e0960e9364d11", "name": "Bulldog On The Block", "location": {"address": "111 Richmond St W", "crossStreet": "York", "lat": 43.65065218852629, "lng": -79.38414092873634, "labeledLatLngs": [{"label": "display", "lat": 43.65065218852629, "lng": -79.38414092873634}], "distance": 438, "postalCode": "M5H 2G4", "cc": "CA", "city": "Toronto", "state": "ON", "country": "Canada", "formattedAddress": ["111 Richmond St W (York)", "Toronto ON M5H 2G4", "Canada"]}, "categories": [{"id": "4bf58dd8d48988d1e0931735", "name": "Coffee Shop", "pluralName": "Coffee Shops", "shortName": "Coffee Shop", "icon": {"prefix": "https://ss3.4sqi.net/img/categories_v2/food/coffeeshop_", "suffix": ".png"}, "primary": true}], "photos": {"count": 0, "groups": []}}, "referralId": "e-0-5a3a846af62e0960e9364d11-82"}, {"reasons": {"count": 0, "items": [{"summary": "This spot is popular", "type": "general", "reasonName": "globalInteractionReason"}]}, "venue": {"id": "597ae286b2958f7e52761fe8", "name": "The Adelaide Hotel Toronto", "location": {"address": "325 Bay St", "lat": 43.6498312, "lng": -79.3801639, "labeledLatLngs": [{"label": "display", "lat": 43.6498312, "lng": -79.3801639}], "distance": 316, "postalCode": "M5H 4G3", "cc": "CA", "city": "Toronto", "state": "ON", "country": "Canada", "formattedAddress": ["325 Bay St", "Toronto ON M5H 4G3", "Canada"]}, "categories": [{"id": "4bf58dd8d48988d1fa931735", "name": "Hotel", "pluralName": "Hotels", "shortName": "Hotel", "icon": {"prefix": "https://ss3.4sqi.net/img/categories_v2/travel/hotel_", "suffix": ".png"}, "primary": true}], "photos": {"count": 0, "groups": []}, "venuePage": {"id": "435826917"}}, "referralId": "e-0-597ae286b2958f7e52761fe8-83"}, {"reasons": {"count": 0, "items": [{"summary": "This spot is popular", "type": "general", "reasonName": "globalInteractionReason"}]}, "venue": {"id": "53856fa411d2061fc84a3d0a", "name": "Lobby Lounge at the Shangri-La Toronto", "location": {"address": "188 University Ave.", "lat": 43.64915499986854, "lng": -79.38654574367817, "labeledLatLngs": [{"label": "display", "lat": 43.64915499986854, "lng": -79.38654574367817}], "distance": 456, "postalCode": "M5H 0A3", "cc": "CA", "city": "Toronto", "state": "ON", "country": "Canada", "formattedAddress": ["188 University Ave.", "Toronto ON M5H 0A3", "Canada"]}, "categories": [{"id": "4bf58dd8d48988d121941735", "name": "Lounge", "pluralName": "Lounges", "shortName": "Lounge", "icon": {"prefix": "https://ss3.4sqi.net/img/categories_v2/nightlife/default_", "suffix": ".png"}, "primary": true}], "photos": {"count": 0, "groups": []}}, "referralId": "e-0-53856fa411d2061fc84a3d0a-84"}, {"reasons": {"count": 0, "items": [{"summary": "This spot is popular", "type": "general", "reasonName": "globalInteractionReason"}]}, "venue": {"id": "4cb87a334c60a093c04a39ca", "name": "Le Germain Hotel", "location": {"address": "75 Bremner Boulevard", "crossStreet": "York Street", "lat": 43.64312502979691, "lng": -79.38091770864038, "labeledLatLngs": [{"label": "display", "lat": 43.64312502979691, "lng": -79.38091770864038}], "distance": 454, "postalCode": "M5J 0A1", "cc": "CA", "city": "Toronto", "state": "ON", "country": "Canada", "formattedAddress": ["75 Bremner Boulevard (York Street)", "Toronto ON M5J 0A1", "Canada"]}, "categories": [{"id": "4bf58dd8d48988d1fa931735", "name": "Hotel", "pluralName": "Hotels", "shortName": "Hotel", "icon": {"prefix": "https://ss3.4sqi.net/img/categories_v2/travel/hotel_", "suffix": ".png"}, "primary": true}], "photos": {"count": 0, "groups": []}}, "referralId": "e-0-4cb87a334c60a093c04a39ca-85"}, {"reasons": {"count": 0, "items": [{"summary": "This spot is popular", "type": "general", "reasonName": "globalInteractionReason"}]}, "venue": {"id": "4b06e099f964a52002f222e3", "name": "Over Easy", "location": {"address": "56 Yonge St", "crossStreet": "at Melinda St", "lat": 43.64807704204346, "lng": -79.37759871575396, "labeledLatLngs": [{"label": "display", "lat": 43.64807704204346, "lng": -79.37759871575396}], "distance": 335, "postalCode": "M5E 1G5", "cc": "CA", "city": "Toronto", "state": "ON", "country": "Canada", "formattedAddress": ["56 Yonge St (at Melinda St)", "Toronto ON M5E 1G5", "Canada"]}, "categories": [{"id": "4bf58dd8d48988d143941735", "name": "Breakfast Spot", "pluralName": "Breakfast Spots", "shortName": "Breakfast", "icon": {"prefix": "https://ss3.4sqi.net/img/categories_v2/food/breakfast_", "suffix": ".png"}, "primary": true}], "photos": {"count": 0, "groups": []}}, "referralId": "e-0-4b06e099f964a52002f222e3-86"}, {"reasons": {"count": 0, "items": [{"summary": "This spot is popular", "type": "general", "reasonName": "globalInteractionReason"}]}, "venue": {"id": "54132b3b498ee9ca9332e189", "name": "M Square Coffee Co", "location": {"address": "C24 - 123 Queen St W", "lat": 43.65121797253777, "lng": -79.38355459932247, "labeledLatLngs": [{"label": "display", "lat": 43.65121797253777, "lng": -79.38355459932247}], "distance": 477, "cc": "CA", "city": "Toronto", "state": "ON", "country": "Canada", "formattedAddress": ["C24 - 123 Queen St W", "Toronto ON", "Canada"]}, "categories": [{"id": "4bf58dd8d48988d1e0931735", "name": "Coffee Shop", "pluralName": "Coffee Shops", "shortName": "Coffee Shop", "icon": {"prefix": "https://ss3.4sqi.net/img/categories_v2/food/coffeeshop_", "suffix": ".png"}, "primary": true}], "photos": {"count": 0, "groups": []}}, "referralId": "e-0-54132b3b498ee9ca9332e189-87"}, {"reasons": {"count": 0, "items": [{"summary": "This spot is popular", "type": "general", "reasonName": "globalInteractionReason"}]}, "venue": {"id": "4ccad68a19f376b060625eea", "name": "Garrison Bespoke", "location": {"address": "26 Wellington St E, #101", "lat": 43.648102, "lng": -79.376334, "labeledLatLngs": [{"label": "display", "lat": 43.648102, "lng": -79.376334}], "distance": 434, "postalCode": "M5E 1S2", "cc": "CA", "city": "Toronto", "state": "ON", "country": "Canada", "formattedAddress": ["26 Wellington St E, #101", "Toronto ON M5E 1S2", "Canada"]}, "categories": [{"id": "5032781d91d4c4b30a586d5b", "name": "Tailor Shop", "pluralName": "Tailor Shops", "shortName": "Tailor", "icon": {"prefix": "https://ss3.4sqi.net/img/categories_v2/shops/apparel_", "suffix": ".png"}, "primary": true}], "photos": {"count": 0, "groups": []}}, "referralId": "e-0-4ccad68a19f376b060625eea-88"}, {"reasons": {"count": 0, "items": [{"summary": "This spot is popular", "type": "general", "reasonName": "globalInteractionReason"}]}, "venue": {"id": "4d5effa95b276dcbc3b201c6", "name": "TOCA", "location": {"address": "181 Wellington Street West", "crossStreet": "in the Ritz-Carlton", "lat": 43.64543117726125, "lng": -79.38705858895491, "labeledLatLngs": [{"label": "display", "lat": 43.64543117726125, "lng": -79.38705858895491}], "distance": 482, "postalCode": "M5V 3G7", "cc": "CA", "city": "Toronto", "state": "ON", "country": "Canada", "formattedAddress": ["181 Wellington Street West (in the Ritz-Carlton)", "Toronto ON M5V 3G7", "Canada"]}, "categories": [{"id": "4bf58dd8d48988d110941735", "name": "Italian Restaurant", "pluralName": "Italian Restaurants", "shortName": "Italian", "icon": {"prefix": "https://ss3.4sqi.net/img/categories_v2/food/italian_", "suffix": ".png"}, "primary": true}], "photos": {"count": 0, "groups": []}}, "referralId": "e-0-4d5effa95b276dcbc3b201c6-89"}, {"reasons": {"count": 0, "items": [{"summary": "This spot is popular", "type": "general", "reasonName": "globalInteractionReason"}]}, "venue": {"id": "5578720f498ee3b165b1f32b", "name": "The Burger's Priest", "location": {"address": "212 Adelaide Street West", "lat": 43.648476440165176, "lng": -79.38737257506915, "labeledLatLngs": [{"label": "display", "lat": 43.648476440165176, "lng": -79.38737257506915}], "distance": 488, "postalCode": "M5H 1W7", "cc": "CA", "city": "Toronto", "state": "ON", "country": "Canada", "formattedAddress": ["212 Adelaide Street West", "Toronto ON M5H 1W7", "Canada"]}, "categories": [{"id": "4bf58dd8d48988d16c941735", "name": "Burger Joint", "pluralName": "Burger Joints", "shortName": "Burgers", "icon": {"prefix": "https://ss3.4sqi.net/img/categories_v2/food/burger_", "suffix": ".png"}, "primary": true}], "photos": {"count": 0, "groups": []}}, "referralId": "e-0-5578720f498ee3b165b1f32b-90"}, {"reasons": {"count": 0, "items": [{"summary": "This spot is popular", "type": "general", "reasonName": "globalInteractionReason"}]}, "venue": {"id": "4ad4c05cf964a520bbf520e3", "name": "Cosmopolitan Toronto Centre Hotel & Spa", "location": {"address": "8 Colborne St", "crossStreet": "at Yonge St", "lat": 43.64906432957466, "lng": -79.37759759701125, "labeledLatLngs": [{"label": "display", "lat": 43.64906432957466, "lng": -79.37759759701125}], "distance": 383, "postalCode": "M5E 1E1", "cc": "CA", "city": "Toronto", "state": "ON", "country": "Canada", "formattedAddress": ["8 Colborne St (at Yonge St)", "Toronto ON M5E 1E1", "Canada"]}, "categories": [{"id": "4bf58dd8d48988d1fa931735", "name": "Hotel", "pluralName": "Hotels", "shortName": "Hotel", "icon": {"prefix": "https://ss3.4sqi.net/img/categories_v2/travel/hotel_", "suffix": ".png"}, "primary": true}], "photos": {"count": 0, "groups": []}}, "referralId": "e-0-4ad4c05cf964a520bbf520e3-91"}, {"reasons": {"count": 0, "items": [{"summary": "This spot is popular", "type": "general", "reasonName": "globalInteractionReason"}]}, "venue": {"id": "528e195b11d2ad1ecaef8c8c", "name": "DAVIDsTEA", "location": {"address": "R134-120 Adelaide St W", "lat": 43.650546552943766, "lng": -79.38338493349875, "labeledLatLngs": [{"label": "display", "lat": 43.650546552943766, "lng": -79.38338493349875}], "distance": 402, "postalCode": "M5H 1T1", "cc": "CA", "city": "Toronto", "state": "ON", "country": "Canada", "formattedAddress": ["R134-120 Adelaide St W", "Toronto ON M5H 1T1", "Canada"]}, "categories": [{"id": "4bf58dd8d48988d1dc931735", "name": "Tea Room", "pluralName": "Tea Rooms", "shortName": "Tea Room", "icon": {"prefix": "https://ss3.4sqi.net/img/categories_v2/food/tearoom_", "suffix": ".png"}, "primary": true}], "photos": {"count": 0, "groups": []}}, "referralId": "e-0-528e195b11d2ad1ecaef8c8c-92"}, {"reasons": {"count": 0, "items": [{"summary": "This spot is popular", "type": "general", "reasonName": "globalInteractionReason"}]}, "venue": {"id": "4a9d0a53f964a520d23720e3", "name": "Hilton Toronto", "location": {"address": "145 Richmond St W", "crossStreet": "at University Ave", "lat": 43.6499459, "lng": -79.385479, "labeledLatLngs": [{"label": "display", "lat": 43.6499459, "lng": -79.385479}], "distance": 440, "postalCode": "M5H 2L2", "cc": "CA", "city": "Toronto", "state": "ON", "country": "Canada", "formattedAddress": ["145 Richmond St W (at University Ave)", "Toronto ON M5H 2L2", "Canada"]}, "categories": [{"id": "4bf58dd8d48988d1fa931735", "name": "Hotel", "pluralName": "Hotels", "shortName": "Hotel", "icon": {"prefix": "https://ss3.4sqi.net/img/categories_v2/travel/hotel_", "suffix": ".png"}, "primary": true}], "photos": {"count": 0, "groups": []}}, "referralId": "e-0-4a9d0a53f964a520d23720e3-93"}, {"reasons": {"count": 0, "items": [{"summary": "This spot is popular", "type": "general", "reasonName": "globalInteractionReason"}]}, "venue": {"id": "5057b3d1e4b0e54029a4acc8", "name": "Michael's on Simcoe", "location": {"address": "100 Simcoe St", "crossStreet": "at Adelaide St", "lat": 43.64826881661747, "lng": -79.38632821234134, "labeledLatLngs": [{"label": "display", "lat": 43.64826881661747, "lng": -79.38632821234134}], "distance": 401, "postalCode": "M5H 3G2", "cc": "CA", "city": "Toronto", "state": "ON", "country": "Canada", "formattedAddress": ["100 Simcoe St (at Adelaide St)", "Toronto ON M5H 3G2", "Canada"]}, "categories": [{"id": "4bf58dd8d48988d1cc941735", "name": "Steakhouse", "pluralName": "Steakhouses", "shortName": "Steakhouse", "icon": {"prefix": "https://ss3.4sqi.net/img/categories_v2/food/steakhouse_", "suffix": ".png"}, "primary": true}], "photos": {"count": 0, "groups": []}, "venuePage": {"id": "80039571"}}, "referralId": "e-0-5057b3d1e4b0e54029a4acc8-94"}, {"reasons": {"count": 0, "items": [{"summary": "This spot is popular", "type": "general", "reasonName": "globalInteractionReason"}]}, "venue": {"id": "5a6bad222632ec473853718a", "name": "Tachi", "location": {"address": "111 Richmond St W", "crossStreet": "York St", "lat": 43.65059603893127, "lng": -79.38339613055128, "labeledLatLngs": [{"label": "display", "lat": 43.65059603893127, "lng": -79.38339613055128}], "distance": 407, "postalCode": "M5H 2G4", "cc": "CA", "city": "Toronto", "state": "ON", "country": "Canada", "formattedAddress": ["111 Richmond St W (York St)", "Toronto ON M5H 2G4", "Canada"]}, "categories": [{"id": "4bf58dd8d48988d1d2941735", "name": "Sushi Restaurant", "pluralName": "Sushi Restaurants", "shortName": "Sushi", "icon": {"prefix": "https://ss3.4sqi.net/img/categories_v2/food/sushi_", "suffix": ".png"}, "primary": true}], "photos": {"count": 0, "groups": []}}, "referralId": "e-0-5a6bad222632ec473853718a-95"}, {"reasons": {"count": 0, "items": [{"summary": "This spot is popular", "type": "general", "reasonName": "globalInteractionReason"}]}, "venue": {"id": "4b60d5b9f964a52071fc29e3", "name": "Air Canada Club", "location": {"address": "Air Canada Centre", "lat": 43.643224100030416, "lng": -79.37915938219528, "labeledLatLngs": [{"label": "display", "lat": 43.643224100030416, "lng": -79.37915938219528}], "distance": 481, "postalCode": "M5J 2L2", "cc": "CA", "city": "Toronto", "state": "ON", "country": "Canada", "formattedAddress": ["Air Canada Centre", "Toronto ON M5J 2L2", "Canada"]}, "categories": [{"id": "4bf58dd8d48988d121941735", "name": "Lounge", "pluralName": "Lounges", "shortName": "Lounge", "icon": {"prefix": "https://ss3.4sqi.net/img/categories_v2/nightlife/default_", "suffix": ".png"}, "primary": true}], "photos": {"count": 0, "groups": []}}, "referralId": "e-0-4b60d5b9f964a52071fc29e3-96"}, {"reasons": {"count": 0, "items": [{"summary": "This spot is popular", "type": "general", "reasonName": "globalInteractionReason"}]}, "venue": {"id": "5979225fa87921424da2e994", "name": "Sud Forno", "location": {"address": "132 Yonge Street", "crossStreet": "Adelaide", "lat": 43.65093965733832, "lng": -79.37904545824371, "labeledLatLngs": [{"label": "display", "lat": 43.65093965733832, "lng": -79.37904545824371}], "distance": 465, "postalCode": "M5H", "cc": "CA", "city": "Toronto", "state": "ON", "country": "Canada", "formattedAddress": ["132 Yonge Street (Adelaide)", "Toronto ON M5H", "Canada"]}, "categories": [{"id": "4bf58dd8d48988d16a941735", "name": "Bakery", "pluralName": "Bakeries", "shortName": "Bakery", "icon": {"prefix": "https://ss3.4sqi.net/img/categories_v2/food/bakery_", "suffix": ".png"}, "primary": true}], "photos": {"count": 0, "groups": []}}, "referralId": "e-0-5979225fa87921424da2e994-97"}, {"reasons": {"count": 0, "items": [{"summary": "This spot is popular", "type": "general", "reasonName": "globalInteractionReason"}]}, "venue": {"id": "4ad4c060f964a52057f720e3", "name": "Jump", "location": {"address": "18 Wellington St. W", "crossStreet": "btwn. Yonge St. and Bay St.", "lat": 43.64814738516352, "lng": -79.37875242540652, "labeledLatLngs": [{"label": "display", "lat": 43.64814738516352, "lng": -79.37875242540652}], "distance": 251, "postalCode": "M5L 1G4", "cc": "CA", "city": "Toronto", "state": "ON", "country": "Canada", "formattedAddress": ["18 Wellington St. W (btwn. Yonge St. and Bay St.)", "Toronto ON M5L 1G4", "Canada"]}, "categories": [{"id": "4bf58dd8d48988d14e941735", "name": "American Restaurant", "pluralName": "American Restaurants", "shortName": "American", "icon": {"prefix": "https://ss3.4sqi.net/img/categories_v2/food/default_", "suffix": ".png"}, "primary": true}], "photos": {"count": 0, "groups": []}, "venuePage": {"id": "41473022"}}, "referralId": "e-0-4ad4c060f964a52057f720e3-98"}, {"reasons": {"count": 0, "items": [{"summary": "This spot is popular", "type": "general", "reasonName": "globalInteractionReason"}]}, "venue": {"id": "56cca056cd10f4e133df3253", "name": "Delta Toronto Club Lounge", "location": {"address": "75 Lower Simcoe", "lat": 43.64308454373067, "lng": -79.38388489051405, "labeledLatLngs": [{"label": "display", "lat": 43.64308454373067, "lng": -79.38388489051405}], "distance": 492, "cc": "CA", "city": "Toronto", "state": "ON", "country": "Canada", "formattedAddress": ["75 Lower Simcoe", "Toronto ON", "Canada"]}, "categories": [{"id": "4bf58dd8d48988d133951735", "name": "Roof Deck", "pluralName": "Roof Decks", "shortName": "Roof Deck", "icon": {"prefix": "https://ss3.4sqi.net/img/categories_v2/travel/hotel_roofdeck_", "suffix": ".png"}, "primary": true}], "photos": {"count": 0, "groups": []}}, "referralId": "e-0-56cca056cd10f4e133df3253-99"}]}]}}