{"meta": {"code": 200, "requestId": "5e1f6bfba2e538001bb826b1"}, "response": {"headerLocation": "Agincourt", "headerFullLocation": "Agincourt, Toronto", "headerLocationGranularity": "neighborhood", "totalResults": 4, "suggestedBounds": {"ne": {"lat": 43.7987003045, "lng": -79.25580688126533}, "sw": {"lat": 43.7897002955, "lng": -79.2682519187347}}, "groups": [{"type": "Recommended Places", "name": "recommended", "items": [{"reasons": {"count": 0, "items": [{"summary": "This spot is popular", "type": "general", "reasonName": "globalInteractionReason"}]}, "venue": {"id": "4e3451fcd4c063434821c41e", "name": "Panagio's Breakfast & Lunch", "location": {"address": "1928 McCowan Rd.", "lat": 43.79237001092506, "lng": -79.26020325805978, "labeledLatLngs": [{"label": "display", "lat": 43.79237001092506, "lng": -79.26020325805978}], "distance": 251, "postalCode": "M1S 4K1", "cc": "CA", "neighborhood": "Agincourt", "city": "Scarborough", "state": "ON", "country": "Canada", "formattedAddress": ["1928 McCowan Rd.", "Scarborough ON M1S 4K1", "Canada"]}, "categories": [{"id": "4bf58dd8d48988d143941735", "name": "Breakfast Spot", "pluralName": "Breakfast Spots", "shortName": "Breakfast", "icon": {"prefix": "https://ss3.4sqi.net/img/categories_v2/food/breakfast_", "suffix": ".png"}, "primary": true}], "photos": {"count": 0, "groups": []}}, "referralId": "e-0-4e3451fcd4c063434821c41e-0"}, {"reasons": {"count": 0, "items": [{"summary": "This spot is popular", "type": "general", "reasonName": "globalInteractionReason"}]}, "venue": {"id": "4cf9c1297f2db1f7bc7823d4", "name": "Twilight", "location": {"address": "55 Nugget Ave", "lat": 43.791999483291015, "lng": -79.25858447143591, "labeledLatLngs": [{"label": "display", "lat": 43.791999483291015, "lng": -79.25858447143591}], "distance": 369, "cc": "CA", "city": "Toronto", "state": "ON", "country": "Canada", "formattedAddress": ["55 Nugget Ave", "Toronto ON", "Canada"]}, "categories": [{"id": "4bf58dd8d48988d121941735", "name": "Lounge", "pluralName": "Lounges", "shortName": "Lounge", "icon": {"prefix": "https://ss3.4sqi.net/img/categories_v2/nightlife/default_", "suffix": ".png"}, "primary": true}], "photos": {"count": 0, "groups": []}}, "referralId": "e-0-4cf9c1297f2db1f7bc7823d4-1"}, {"reasons": {"count": 0, "items": [{"summary": "This spot is popular", "type": "general", "reasonName": "globalInteractionReason"}]}, "venue": {"id": "4b50b100f964a520b72d27e3", "name": "El Pulgarcito", "location": {"address": "30 Nugget Dr", "crossStreet": "Mccowan Road", "lat": 43.792647695283875, "lng": -79.25920775335268, "labeledLatLngs": [{"label": "display", "lat": 43.792647695283875, "lng": -79.25920775335268}], "distance": 285, "postalCode": "M1S 3A7", "cc": "CA", "neighborhood": "Agincourt", "city": "Toronto", "state": "ON", "country": "Canada", "formattedAddress": ["30 Nugget Dr (Mccowan Road)", "Toronto ON M1S 3A7", "Canada"]}, "categories": [{"id": "4bf58dd8d48988d1be941735", "name": "Latin American Restaurant", "pluralName": "Latin American Restaurants", "shortName": "Latin American", "icon": {"prefix": "https://ss3.4sqi.net/img/categories_v2/food/latinamerican_", "suffix": ".png"}, "primary": true}], "photos": {"count": 0, "groups": []}}, "referralId": "e-0-4b50b100f964a520b72d27e3-2"}, {"reasons": {"count": 0, "items": [{"summary": "This spot is popular", "type": "general", "reasonName": "globalInteractionReason"}]}, "venue": {"id": "4af71437f964a520940522e3", "name": "Commander Arena", "location": {"address": "140 Commander Blvd.", "lat": 43.794867324063404, "lng": -79.26798888527924, "labeledLatLngs": [{"label": "display", "lat": 43.794867324063404, "lng": -79.26798888527924}], "distance": 484, "cc": "CA", "city": "Toronto", "state": "ON", "country": "Canada", "formattedAddress": ["140 Commander Blvd.", "Toronto ON", "Canada"]}, "categories": [{"id": "4bf58dd8d48988d168941735", "name": "Skating Rink", "pluralName": "Skating Rinks", "shortName": "Skating Rink", "icon": {"prefix": "https://ss3.4sqi.net/img/categories_v2/parks_outdoors/skatingrink_", "suffix": ".png"}, "primary": true}], "photos": {"count": 0, "groups": []}}, "referralId": "e-0-4af71437f964a520940522e3-3"}]}]}}