{"meta": {"code": 200, "requestId": "5e1f6c05b9a389001bbcf532"}, "response": {"suggestedFilters": {"header": "Tap to show:", "filters": [{"name": "Open now", "key": "openNow"}]}, "headerLocation": "Sunnybrook - York Mills", "headerFullLocation": "Sunnybrook - York Mills, Toronto", "headerLocationGranularity": "neighborhood", "totalResults": 22, "suggestedBounds": {"ne": {"lat": 43.73039970450001, "lng": -79.33470758059177}, "sw": {"lat": 43.721399695500004, "lng": -79.34713841940824}}, "groups": [{"type": "Recommended Places", "name": "recommended", "items": [{"reasons": {"count": 0, "items": [{"summary": "This spot is popular", "type": "general", "reasonName": "globalInteractionReason"}]}, "venue": {"id": "4b71ff80f964a52035692de3", "name": "Fitness Connection", "location": {"address": "900 Don Mills Road", "lat": 43.72747286430573, "lng": -79.34170684305083, "labeledLatLngs": [{"label": "display", "lat": 43.72747286430573, "lng": -79.34170684305083}], "distance": 186, "cc": "CA", "city": "Toronto", "state": "ON", "country": "Canada", "formattedAddress": ["900 Don Mills Road", "Toronto ON", "Canada"]}, "categories": [{"id": "4bf58dd8d48988d176941735", "name": "Gym", "pluralName": "Gyms", "shortName": "Gym", "icon": {"prefix": "https://ss3.4sqi.net/img/categories_v2/building/gym_", "suffix": ".png"}, "primary": true}], "photos": {"count": 0, "groups": []}}, "referralId": "e-0-4b71ff80f964a52035692de3-0"}, {"reasons": {"count": 0, "items": [{"summary": "This spot is popular", "type": "general", "reasonName": "globalInteractionReason"}]}, "venue": {"id": "4bdaff7463c5c9b67bcb2568", "name": "Sorento Restaurant", "location": {"address": "900 Don Mills Rd.", "lat": 43.72657509457231, "lng": -79.34198930569546, "labeledLatLngs": [{"label": "display", "lat": 43.72657509457231, "lng": -79.34198930569546}], "distance": 114, "cc": "CA", "city": "Toronto", "state": "ON", "country": "Canada", "formattedAddress": ["900 Don Mills Rd.", "Toronto ON", "Canada"]}, "categories": [{"id": "4bf58dd8d48988d110941735", "name": "Italian Restaurant", "pluralName": "Italian Restaurants", "shortName": "Italian", "icon": {"prefix": "https://ss3.4sqi.net/img/categories_v2/food/italian_", "suffix": ".png"}, "primary": true}], "photos": {"count": 0, "groups": []}}, "referralId": "e-0-4bdaff7463c5c9b67bcb2568-1"}, {"reasons": {"count": 0, "items": [{"summary": "This spot is popular", "type": "general", "reasonName": "globalInteractionReason"}]}, "venue": {"id": "5c0c0b1eb9a5a8002c44ca3b", "name": "Oomomo", "location": {"address": "896 Don Mills Rd", "lat": 43.72642908913988, "lng": -79.34328336099873, "labeledLatLngs": [{"label": "display", "lat": 43.72642908913988, "lng": -79.34328336099873}], "distance": 198, "postalCode": "M3C 2H2", "cc": "CA", "city": "North York", "state": "ON", "country": "Canada", "formattedAddress": ["896 Don Mills Rd", "North York ON M3C 2H2", "Canada"]}, "categories": [{"id": "52dea92d3cf9994f4e043dbb", "name": "Discount Store", "pluralName": "Discount Stores", "shortName": "Discount Store", "icon": {"prefix": "https://ss3.4sqi.net/img/categories_v2/shops/discountstore_", "suffix": ".png"}, "primary": true}], "photos": {"count": 0, "groups": []}}, "referralId": "e-0-5c0c0b1eb9a5a8002c44ca3b-2"}, {"reasons": {"count": 0, "items": [{"summary": "This spot is popular", "type": "general", "reasonName": "globalInteractionReason"}]}, "venue": {"id": "4b6315b6f964a520d6612ae3", "name": "Swiss Chalet Rotisserie & Grill", "location": {"address": "900 Dufferin St, Unit 3", "lat": 43.7267367878352, "lng": -79.34140272120312, "labeledLatLngs": [{"label": "display", "lat": 43.7267367878352, "lng": -79.34140272120312}], "distance": 100, "postalCode": "M6H 4A9", "cc": "CA", "city": "Don Mills", "state": "ON", "country": "Canada", "formattedAddress": ["900 Dufferin St, Unit 3", "Don Mills ON M6H 4A9", "Canada"]}, "categories": [{"id": "4bf58dd8d48988d1c4941735", "name": "Restaurant", "pluralName": "Restaurants", "shortName": "Restaurant", "icon": {"prefix": "https://ss3.4sqi.net/img/categories_v2/food/default_", "suffix": ".png"}, "primary": true}], "photos": {"count": 0, "groups": []}}, "referralId": "e-0-4b6315b6f964a520d6612ae3-3"}, {"reasons": {"count": 0, "items": [{"summary": "This spot is popular", "type": "general", "reasonName": "globalInteractionReason"}]}, "venue": {"id": "4c21277d9a67a5935a82da87", "name": "Tilley Endurables", "location": {"address": "900 Don Mills Rd.", "crossStreet": "Barber Greene Rd.", "lat": 43.72703319748601, "lng": -79.34292634000684, "labeledLatLngs": [{"label": "display", "lat": 43.72703319748601, "lng": -79.34292634000684}], "distance": 204, "cc": "CA", "city": "Toronto Division", "state": "ON", "country": "Canada", "formattedAddress": ["900 Don Mills Rd. (Barber Greene Rd.)", "Toronto Division ON", "Canada"]}, "categories": [{"id": "4bf58dd8d48988d103951735", "name": "Clothing Store", "pluralName": "Clothing Stores", "shortName": "Apparel", "icon": {"prefix": "https://ss3.4sqi.net/img/categories_v2/shops/apparel_", "suffix": ".png"}, "primary": true}], "photos": {"count": 0, "groups": []}}, "referralId": "e-0-4c21277d9a67a5935a82da87-4"}, {"reasons": {"count": 0, "items": [{"summary": "This spot is popular", "type": "general", "reasonName": "globalInteractionReason"}]}, "venue": {"id": "4aec790bf964a5208fc721e3", "name": "Memories of Japan", "location": {"address": "900 Don Mills Rd.", "lat": 43.72734746849249, "lng": -79.34136445237439, "labeledLatLngs": [{"label": "display", "lat": 43.72734746849249, "lng": -79.34136445237439}], "distance": 165, "postalCode": "M3C 1V6", "cc": "CA", "city": "North York", "state": "ON", "country": "Canada", "formattedAddress": ["900 Don Mills Rd.", "North York ON M3C 1V6", "Canada"]}, "categories": [{"id": "4bf58dd8d48988d111941735", "name": "Japanese Restaurant", "pluralName": "Japanese Restaurants", "shortName": "Japanese", "icon": {"prefix": "https://ss3.4sqi.net/img/categories_v2/food/japanese_", "suffix": ".png"}, "primary": true}], "photos": {"count": 0, "groups": []}}, "referralId": "e-0-4aec790bf964a5208fc721e3-5"}, {"reasons": {"count": 0, "items": [{"summary": "This spot is popular", "type": "general", "reasonName": "globalInteractionReason"}]}, "venue": {"id": "4c15a2c2127f95211a102525", "name": "Skiis and Biikes", "location": {"address": "896 Don Mills Rd.", "crossStreet": "lawrence", "lat": 43.726350918006425, "lng": -79.34297712786963, "labeledLatLngs": [{"label": "display", "lat": 43.726350918006425, "lng": -79.34297712786963}], "distance": 172, "postalCode": "M3C 1V6\u200e", "cc": "CA", "city": "North York", "state": "ON", "country": "Canada", "formattedAddress": ["896 Don Mills Rd. (lawrence)", "North York ON M3C 1V6\u200e", "Canada"]}, "categories": [{"id": "4bf58dd8d48988d115951735", "name": "Bike Shop", "pluralName": "Bike Shops", "shortName": "Bike Shop", "icon": {"prefix": "https://ss3.4sqi.net/img/categories_v2/shops/bikeshop_", "suffix": ".png"}, "primary": true}], "photos": {"count": 0, "groups": []}}, "referralId": "e-0-4c15a2c2127f95211a102525-6"}, {"reasons": {"count": 0, "items": [{"summary": "This spot is popular", "type": "general", "reasonName": "globalInteractionReason"}]}, "venue": {"id": "4b06f192f964a520c1f322e3", "name": "Japanese Canadian Cultural Centre", "location": {"address": "6 Garamond Crt", "crossStreet": "Don Mills Rd. & Eglinton Ave. E", "lat": 43.726429, "lng": -79.334971, "labeledLatLngs": [{"label": "display", "lat": 43.726429, "lng": -79.334971}], "distance": 482, "postalCode": "M3C 1Z5", "cc": "CA", "city": "North York", "state": "ON", "country": "Canada", "formattedAddress": ["6 Garamond Crt (Don Mills Rd. & Eglinton Ave. E)", "North York ON M3C 1Z5", "Canada"]}, "categories": [{"id": "5032792091d4c4b30a586d5c", "name": "Concert Hall", "pluralName": "Concert Halls", "shortName": "Concert Hall", "icon": {"prefix": "https://ss3.4sqi.net/img/categories_v2/arts_entertainment/musicvenue_", "suffix": ".png"}, "primary": true}], "photos": {"count": 0, "groups": []}}, "referralId": "e-0-4b06f192f964a520c1f322e3-7"}, {"reasons": {"count": 0, "items": [{"summary": "This spot is popular", "type": "general", "reasonName": "globalInteractionReason"}]}, "venue": {"id": "4cb6497f3abd9c74093f572f", "name": "Just Hockey Source For Sports", "location": {"address": "900 Don Mills Road", "crossStreet": "Eglington", "lat": 43.72709513128194, "lng": -79.34259061584578, "labeledLatLngs": [{"label": "display", "lat": 43.72709513128194, "lng": -79.34259061584578}], "distance": 188, "postalCode": "M3C 1V6", "cc": "CA", "city": "Toronto", "state": "ON", "country": "Canada", "formattedAddress": ["900 Don Mills Road (Eglington)", "Toronto ON M3C 1V6", "Canada"]}, "categories": [{"id": "4bf58dd8d48988d1f2941735", "name": "Sporting Goods Shop", "pluralName": "Sporting Goods Shops", "shortName": "Sporting Goods", "icon": {"prefix": "https://ss3.4sqi.net/img/categories_v2/shops/sports_outdoors_", "suffix": ".png"}, "primary": true}], "photos": {"count": 0, "groups": []}}, "referralId": "e-0-4cb6497f3abd9c74093f572f-8"}, {"reasons": {"count": 0, "items": [{"summary": "This spot is popular", "type": "general", "reasonName": "globalInteractionReason"}]}, "venue": {"id": "51e18448498e7dedbf44ff5c", "name": "The Beer Store", "location": {"address": "900a Don Mills Rd", "crossStreet": "Barber Green Rd", "lat": 43.7269871, "lng": -79.3414943, "labeledLatLngs": [{"label": "display", "lat": 43.7269871, "lng": -79.3414943}], "distance": 129, "postalCode": "M3C 1V6", "cc": "CA", "city": "North York", "state": "ON", "country": "Canada", "formattedAddress": ["900a Don Mills Rd (Barber Green Rd)", "North York ON M3C 1V6", "Canada"]}, "categories": [{"id": "5370f356bcbc57f1066c94c2", "name": "Beer Store", "pluralName": "Beer Stores", "shortName": "Beer Store", "icon": {"prefix": "https://ss3.4sqi.net/img/categories_v2/nightlife/beergarden_", "suffix": ".png"}, "primary": true}], "photos": {"count": 0, "groups": []}}, "referralId": "e-0-51e18448498e7dedbf44ff5c-9"}, {"reasons": {"count": 0, "items": [{"summary": "This spot is popular", "type": "general", "reasonName": "globalInteractionReason"}]}, "venue": {"id": "4b2d6fb4f964a520a5d624e3", "name": "Genghis Khan Mongolian Grill", "location": {"address": "900 Don Mills Rd", "lat": 43.7269059862849, "lng": -79.34121626053623, "labeledLatLngs": [{"label": "display", "lat": 43.7269059862849, "lng": -79.34121626053623}], "distance": 114, "cc": "CA", "city": "North York", "state": "ON", "country": "Canada", "formattedAddress": ["900 Don Mills Rd", "North York ON", "Canada"]}, "categories": [{"id": "4bf58dd8d48988d142941735", "name": "Asian Restaurant", "pluralName": "Asian Restaurants", "shortName": "Asian", "icon": {"prefix": "https://ss3.4sqi.net/img/categories_v2/food/asian_", "suffix": ".png"}, "primary": true}], "photos": {"count": 0, "groups": []}}, "referralId": "e-0-4b2d6fb4f964a520a5d624e3-10"}, {"reasons": {"count": 0, "items": [{"summary": "This spot is popular", "type": "general", "reasonName": "globalInteractionReason"}]}, "venue": {"id": "4bec7af349430f4760c807d2", "name": "Tim Hortons", "location": {"address": "843 Don Mills Rd", "crossStreet": "at Wynford Dr. (in Esso)", "lat": 43.72289725323043, "lng": -79.33911703526974, "labeledLatLngs": [{"label": "display", "lat": 43.72289725323043, "lng": -79.33911703526974}], "distance": 364, "postalCode": "M3C 1V4", "cc": "CA", "city": "North York", "state": "ON", "country": "Canada", "formattedAddress": ["843 Don Mills Rd (at Wynford Dr. (in Esso))", "North York ON M3C 1V4", "Canada"]}, "categories": [{"id": "4bf58dd8d48988d1e0931735", "name": "Coffee Shop", "pluralName": "Coffee Shops", "shortName": "Coffee Shop", "icon": {"prefix": "https://ss3.4sqi.net/img/categories_v2/food/coffeeshop_", "suffix": ".png"}, "primary": true}], "photos": {"count": 0, "groups": []}}, "referralId": "e-0-4bec7af349430f4760c807d2-11"}, {"reasons": {"count": 0, "items": [{"summary": "This spot is popular", "type": "general", "reasonName": "globalInteractionReason"}]}, "venue": {"id": "4b1014fdf964a520b06823e3", "name": "Real Canadian Superstore", "location": {"address": "825 Don Mills Rd", "crossStreet": "at Eglinton Ave. E.", "lat": 43.722704, "lng": -79.337508, "labeledLatLngs": [{"label": "display", "lat": 43.722704, "lng": -79.337508}], "distance": 449, "postalCode": "M3C 1V4", "cc": "CA", "city": "Toronto", "state": "ON", "country": "Canada", "formattedAddress": ["825 Don Mills Rd (at Eglinton Ave. E.)", "Toronto ON M3C 1V4", "Canada"]}, "categories": [{"id": "52f2ab2ebcbc57f1066b8b46", "name": "Supermarket", "pluralName": "Supermarkets", "shortName": "Supermarket", "icon": {"prefix": "https://ss3.4sqi.net/img/categories_v2/shops/food_grocery_", "suffix": ".png"}, "primary": true}], "photos": {"count": 0, "groups": []}}, "referralId": "e-0-4b1014fdf964a520b06823e3-12"}, {"reasons": {"count": 0, "items": [{"summary": "This spot is popular", "type": "general", "reasonName": "globalInteractionReason"}]}, "venue": {"id": "5686b77338faf7478eb6c6aa", "name": "Asian Legend", "location": {"lat": 43.7265905030894, "lng": -79.34218786843495, "labeledLatLngs": [{"label": "display", "lat": 43.7265905030894, "lng": -79.34218786843495}], "distance": 127, "cc": "CA", "country": "Canada", "formattedAddress": ["Canada"]}, "categories": [{"id": "4bf58dd8d48988d1f5931735", "name": "Dim Sum Restaurant", "pluralName": "Dim Sum Restaurants", "shortName": "Dim Sum", "icon": {"prefix": "https://ss3.4sqi.net/img/categories_v2/food/dimsum_", "suffix": ".png"}, "primary": true}], "photos": {"count": 0, "groups": []}}, "referralId": "e-0-5686b77338faf7478eb6c6aa-13"}, {"reasons": {"count": 0, "items": [{"summary": "This spot is popular", "type": "general", "reasonName": "globalInteractionReason"}]}, "venue": {"id": "4ce5aed1f3bda1430f89a6e4", "name": "GoodLife Fitness", "location": {"address": "825 Don Mills Rd", "crossStreet": "at Eglinton Ave. E", "lat": 43.722704, "lng": -79.337508, "labeledLatLngs": [{"label": "display", "lat": 43.722704, "lng": -79.337508}], "distance": 449, "postalCode": "M3C 1V4", "cc": "CA", "city": "North York", "state": "ON", "country": "Canada", "formattedAddress": ["825 Don Mills Rd (at Eglinton Ave. E)", "North York ON M3C 1V4", "Canada"]}, "categories": [{"id": "4bf58dd8d48988d176941735", "name": "Gym", "pluralName": "Gyms", "shortName": "Gym", "icon": {"prefix": "https://ss3.4sqi.net/img/categories_v2/building/gym_", "suffix": ".png"}, "primary": true}], "photos": {"count": 0, "groups": []}}, "referralId": "e-0-4ce5aed1f3bda1430f89a6e4-14"}, {"reasons": {"count": 0, "items": [{"summary": "This spot is popular", "type": "general", "reasonName": "globalInteractionReason"}]}, "venue": {"id": "52fd7d28498e9164b5ba53a2", "name": "Pho 88 \u767c\u767c\u9910\u5ef3", "location": {"address": "900 Don Mills Road", "crossStreet": "Don Mills Road and Lawrence Ave East", "lat": 43.72664201962024, "lng": -79.3423446449432, "labeledLatLngs": [{"label": "display", "lat": 43.72664201962024, "lng": -79.3423446449432}], "distance": 141, "cc": "CA", "city": "Toronto", "state": "ON", "country": "Canada", "formattedAddress": ["900 Don Mills Road (Don Mills Road and Lawrence Ave East)", "Toronto ON", "Canada"]}, "categories": [{"id": "4bf58dd8d48988d142941735", "name": "Asian Restaurant", "pluralName": "Asian Restaurants", "shortName": "Asian", "icon": {"prefix": "https://ss3.4sqi.net/img/categories_v2/food/asian_", "suffix": ".png"}, "primary": true}], "photos": {"count": 0, "groups": []}}, "referralId": "e-0-52fd7d28498e9164b5ba53a2-15"}, {"reasons": {"count": 0, "items": [{"summary": "This spot is popular", "type": "general", "reasonName": "globalInteractionReason"}]}, "venue": {"id": "4bc10cd9f8219c747cc5b210", "name": "The Beer Store", "location": {"address": "825 Don Mills Rd", "lat": 43.7227042, "lng": -79.3375083, "labeledLatLngs": [{"label": "display", "lat": 43.7227042, "lng": -79.3375083}], "distance": 449, "postalCode": "M3C 1V4", "cc": "CA", "city": "Toronto", "state": "ON", "country": "Canada", "formattedAddress": ["825 Don Mills Rd", "Toronto ON M3C 1V4", "Canada"]}, "categories": [{"id": "5370f356bcbc57f1066c94c2", "name": "Beer Store", "pluralName": "Beer Stores", "shortName": "Beer Store", "icon": {"prefix": "https://ss3.4sqi.net/img/categories_v2/nightlife/beergarden_", "suffix": ".png"}, "primary": true}], "photos": {"count": 0, "groups": []}}, "referralId": "e-0-4bc10cd9f8219c747cc5b210-16"}, {"reasons": {"count": 0, "items": [{"summary": "This spot is popular", "type": "general", "reasonName": "globalInteractionReason"}]}, "venue": {"id": "4b632004f964a520d6642ae3", "name": "Congee Star \u5e1d\u738b\u540d\u7ca5", "location": {"address": "900 Don Mills Rd.", "crossStreet": "at Barber Greene Rd.", "lat": 43.72658622416194, "lng": -79.34183343111253, "labeledLatLngs": [{"label": "display", "lat": 43.72658622416194, "lng": -79.34183343111253}], "distance": 105, "postalCode": "M3C 1V6", "cc": "CA", "city": "Toronto", "state": "ON", "country": "Canada", "formattedAddress": ["900 Don Mills Rd. (at Barber Greene Rd.)", "Toronto ON M3C 1V6", "Canada"]}, "categories": [{"id": "4bf58dd8d48988d145941735", "name": "Chinese Restaurant", "pluralName": "Chinese Restaurants", "shortName": "Chinese", "icon": {"prefix": "https://ss3.4sqi.net/img/categories_v2/food/asian_", "suffix": ".png"}, "primary": true}], "photos": {"count": 0, "groups": []}}, "referralId": "e-0-4b632004f964a520d6642ae3-17"}, {"reasons": {"count": 0, "items": [{"summary": "This spot is popular", "type": "general", "reasonName": "globalInteractionReason"}]}, "venue": {"id": "4b97d317f964a520161835e3", "name": "Subway", "location": {"address": "29 Gervais Dr", "crossStreet": "Wynford", "lat": 43.72432189860479, "lng": -79.33685838010095, "labeledLatLngs": [{"label": "display", "lat": 43.72432189860479, "lng": -79.33685838010095}], "distance": 371, "postalCode": "M3C 1Y1", "cc": "CA", "city": "Toronto", "state": "ON", "country": "Canada", "formattedAddress": ["29 Gervais Dr (Wynford)", "Toronto ON M3C 1Y1", "Canada"]}, "categories": [{"id": "4bf58dd8d48988d1c5941735", "name": "Sandwich Place", "pluralName": "Sandwich Places", "shortName": "Sandwiches", "icon": {"prefix": "https://ss3.4sqi.net/img/categories_v2/food/deli_", "suffix": ".png"}, "primary": true}], "photos": {"count": 0, "groups": []}}, "referralId": "e-0-4b97d317f964a520161835e3-18"}, {"reasons": {"count": 0, "items": [{"summary": "This spot is popular", "type": "general", "reasonName": "globalInteractionReason"}]}, "venue": {"id": "4b046a62f964a520035422e3", "name": "Harvey's", "location": {"address": "898 Don Mills Rd                          Barber Greene Business Park", "lat": 43.726618141963044, "lng": -79.34099700109225, "labeledLatLngs": [{"label": "display", "lat": 43.726618141963044, "lng": -79.34099700109225}], "distance": 80, "postalCode": "M3C 1V6", "cc": "CA", "city": "North York", "state": "ON", "country": "Canada", "formattedAddress": ["898 Don Mills Rd                          Barber Greene Business Park", "North York ON M3C 1V6", "Canada"]}, "categories": [{"id": "4bf58dd8d48988d16e941735", "name": "Fast Food Restaurant", "pluralName": "Fast Food Restaurants", "shortName": "Fast Food", "icon": {"prefix": "https://ss3.4sqi.net/img/categories_v2/food/fastfood_", "suffix": ".png"}, "primary": true}], "photos": {"count": 0, "groups": []}}, "referralId": "e-0-4b046a62f964a520035422e3-19"}, {"reasons": {"count": 0, "items": [{"summary": "This spot is popular", "type": "general", "reasonName": "globalInteractionReason"}]}, "venue": {"id": "4b4b7b51f964a520749d26e3", "name": "Delimark Cafe", "location": {"address": "895 Don Mills Road", "crossStreet": "at Green Belt Dr", "lat": 43.72753609649164, "lng": -79.33954737355866, "labeledLatLngs": [{"label": "display", "lat": 43.72753609649164, "lng": -79.33954737355866}], "distance": 213, "cc": "CA", "city": "Toronto", "state": "ON", "country": "Canada", "formattedAddress": ["895 Don Mills Road (at Green Belt Dr)", "Toronto ON", "Canada"]}, "categories": [{"id": "4bf58dd8d48988d1e0931735", "name": "Coffee Shop", "pluralName": "Coffee Shops", "shortName": "Coffee Shop", "icon": {"prefix": "https://ss3.4sqi.net/img/categories_v2/food/coffeeshop_", "suffix": ".png"}, "primary": true}], "photos": {"count": 0, "groups": []}}, "referralId": "e-0-4b4b7b51f964a520749d26e3-20"}, {"reasons": {"count": 0, "items": [{"summary": "This spot is popular", "type": "general", "reasonName": "globalInteractionReason"}]}, "venue": {"id": "4b93e417f964a520d25734e3", "name": "Just Hockey", "location": {"crossStreet": "Don Mills and Barbara Greene", "lat": 43.72700002138394, "lng": -79.34250711829844, "labeledLatLngs": [{"label": "display", "lat": 43.72700002138394, "lng": -79.34250711829844}], "distance": 176, "cc": "CA", "city": "Toronto Division", "state": "ON", "country": "Canada", "formattedAddress": ["Toronto Division ON", "Canada"]}, "categories": [{"id": "4bf58dd8d48988d1f2941735", "name": "Sporting Goods Shop", "pluralName": "Sporting Goods Shops", "shortName": "Sporting Goods", "icon": {"prefix": "https://ss3.4sqi.net/img/categories_v2/shops/sports_outdoors_", "suffix": ".png"}, "primary": true}], "photos": {"count": 0, "groups": []}}, "referralId": "e-0-4b93e417f964a520d25734e3-21"}]}]}}