{"meta": {"code": 200, "requestId": "5e1f6c1898205d001b66d5e4"}, "response": {"headerLocation": "Keelesdale", "headerFullLocation": "Keelesdale, Toronto", "headerLocationGranularity": "neighborhood", "totalResults": 4, "suggestedBounds": {"ne": {"lat": 43.6956158045, "lng": -79.46980148650087}, "sw": {"lat": 43.686615795499996, "lng": -79.48222511349908}}, "groups": [{"type": "Recommended Places", "name": "recommended", "items": [{"reasons": {"count": 0, "items": [{"summary": "This spot is popular", "type": "general", "reasonName": "globalInteractionReason"}]}, "venue": {"id": "5143b746e4b0ff6e207da7e4", "name": "Subway", "location": {"address": "2597 Eglinton Ave W", "crossStreet": "at Yarrow Rd.", "lat": 43.69021830300218, "lng": -79.47404997234327, "labeledLatLngs": [{"label": "display", "lat": 43.69021830300218, "lng": -79.47404997234327}], "distance": 186, "postalCode": "M6M 1T3", "cc": "CA", "city": "Toronto", "state": "ON", "country": "Canada", "formattedAddress": ["2597 Eglinton Ave W (at Yarrow Rd.)", "Toronto ON M6M 1T3", "Canada"]}, "categories": [{"id": "4bf58dd8d48988d1c5941735", "name": "Sandwich Place", "pluralName": "Sandwich Places", "shortName": "Sandwiches", "icon": {"prefix": "https://ss3.4sqi.net/img/categories_v2/food/deli_", "suffix": ".png"}, "primary": true}], "photos": {"count": 0, "groups": []}}, "referralId": "e-0-5143b746e4b0ff6e207da7e4-0"}, {"reasons": {"count": 0, "items": [{"summary": "This spot is popular", "type": "general", "reasonName": "globalInteractionReason"}]}, "venue": {"id": "55131562498ea1434fcfc6c1", "name": "Dollar Tree", "location": {"address": "2654 Eglinton Ave W", "lat": 43.6902962, "lng": -79.4746668, "labeledLatLngs": [{"label": "display", "lat": 43.6902962, "lng": -79.4746668}], "distance": 141, "postalCode": "M6M 1T7", "cc": "CA", "city": "Toronto", "state": "ON", "country": "Canada", "formattedAddress": ["2654 Eglinton Ave W", "Toronto ON M6M 1T7", "Canada"]}, "categories": [{"id": "52dea92d3cf9994f4e043dbb", "name": "Discount Store", "pluralName": "Discount Stores", "shortName": "Discount Store", "icon": {"prefix": "https://ss3.4sqi.net/img/categories_v2/shops/discountstore_", "suffix": ".png"}, "primary": true}], "photos": {"count": 0, "groups": []}}, "referralId": "e-0-55131562498ea1434fcfc6c1-1"}, {"reasons": {"count": 0, "items": [{"summary": "This spot is popular", "type": "general", "reasonName": "globalInteractionReason"}]}, "venue": {"id": "519ea323498e96ce0a983933", "name": "McDonald's", "location": {"address": "Lawrence Avenue", "crossStreet": "Walmart", "lat": 43.692926495448766, "lng": -79.47998177868274, "labeledLatLngs": [{"label": "display", "lat": 43.692926495448766, "lng": -79.47998177868274}], "distance": 377, "cc": "CA", "country": "Canada", "formattedAddress": ["Lawrence Avenue (Walmart)", "Canada"]}, "categories": [{"id": "4bf58dd8d48988d16e941735", "name": "Fast Food Restaurant", "pluralName": "Fast Food Restaurants", "shortName": "Fast Food", "icon": {"prefix": "https://ss3.4sqi.net/img/categories_v2/food/fastfood_", "suffix": ".png"}, "primary": true}], "photos": {"count": 0, "groups": []}}, "referralId": "e-0-519ea323498e96ce0a983933-2"}, {"reasons": {"count": 0, "items": [{"summary": "This spot is popular", "type": "general", "reasonName": "globalInteractionReason"}]}, "venue": {"id": "5000f2b3e4b0ae2f16d5dad7", "name": "Z Bar & Grille", "location": {"address": "2527 Eglinton Ave. W", "lat": 43.6906730071065, "lng": -79.47276425326548, "labeledLatLngs": [{"label": "display", "lat": 43.6906730071065, "lng": -79.47276425326548}], "distance": 266, "cc": "CA", "city": "Toronto", "state": "ON", "country": "Canada", "formattedAddress": ["2527 Eglinton Ave. W", "Toronto ON", "Canada"]}, "categories": [{"id": "4bf58dd8d48988d116941735", "name": "Bar", "pluralName": "Bars", "shortName": "Bar", "icon": {"prefix": "https://ss3.4sqi.net/img/categories_v2/nightlife/pub_", "suffix": ".png"}, "primary": true}], "photos": {"count": 0, "groups": []}}, "referralId": "e-0-5000f2b3e4b0ae2f16d5dad7-3"}]}]}}