{"meta": {"code": 200, "requestId": "5e1f6ba9963d29001b1d4984"}, "response": {"headerLocation": "Briar Hill - Belgravia", "headerFullLocation": "Briar Hill - Belgravia, Toronto", "headerLocationGranularity": "neighborhood", "totalResults": 4, "suggestedBounds": {"ne": {"lat": 43.714077004500005, "lng": -79.43885887350775}, "sw": {"lat": 43.7050769955, "lng": -79.4512863264922}}, "groups": [{"type": "Recommended Places", "name": "recommended", "items": [{"reasons": {"count": 0, "items": [{"summary": "This spot is popular", "type": "general", "reasonName": "globalInteractionReason"}]}, "venue": {"id": "4fca732be4b07c8e3e198c27", "name": "Miyako Sushi Restaurant", "location": {"address": "572 Marlee Ave", "crossStreet": "at Glencairn Ave", "lat": 43.709111, "lng": -79.44393, "labeledLatLngs": [{"label": "display", "lat": 43.709111, "lng": -79.44393}], "distance": 105, "cc": "CA", "city": "Toronto", "state": "ON", "country": "Canada", "formattedAddress": ["572 Marlee Ave (at Glencairn Ave)", "Toronto ON", "Canada"]}, "categories": [{"id": "4bf58dd8d48988d111941735", "name": "Japanese Restaurant", "pluralName": "Japanese Restaurants", "shortName": "Japanese", "icon": {"prefix": "https://ss3.4sqi.net/img/categories_v2/food/japanese_", "suffix": ".png"}, "primary": true}], "photos": {"count": 0, "groups": []}}, "referralId": "e-0-4fca732be4b07c8e3e198c27-0"}, {"reasons": {"count": 0, "items": [{"summary": "This spot is popular", "type": "general", "reasonName": "globalInteractionReason"}]}, "venue": {"id": "4b776902f964a52094982ee3", "name": "Li Cheng Restaurant", "location": {"address": "529 Marlee Avenue", "lat": 43.70882792296303, "lng": -79.44336647383521, "labeledLatLngs": [{"label": "display", "lat": 43.70882792296303, "lng": -79.44336647383521}], "distance": 160, "cc": "CA", "city": "Toronto", "state": "ON", "country": "Canada", "formattedAddress": ["529 Marlee Avenue", "Toronto ON", "Canada"]}, "categories": [{"id": "4bf58dd8d48988d142941735", "name": "Asian Restaurant", "pluralName": "Asian Restaurants", "shortName": "Asian", "icon": {"prefix": "https://ss3.4sqi.net/img/categories_v2/food/asian_", "suffix": ".png"}, "primary": true}], "photos": {"count": 0, "groups": []}}, "referralId": "e-0-4b776902f964a52094982ee3-1"}, {"reasons": {"count": 0, "items": [{"summary": "This spot is popular", "type": "general", "reasonName": "globalInteractionReason"}]}, "venue": {"id": "4ad4c05df964a52071f620e3", "name": "Chalker's Pub, Billiards and Bistro", "location": {"address": "247 Marlee Avenue", "lat": 43.705746734874204, "lng": -79.44237750652644, "labeledLatLngs": [{"label": "display", "lat": 43.705746734874204, "lng": -79.44237750652644}], "distance": 478, "postalCode": "M6B 4B8", "cc": "CA", "city": "Toronto", "state": "ON", "country": "Canada", "formattedAddress": ["247 Marlee Avenue", "Toronto ON M6B 4B8", "Canada"]}, "categories": [{"id": "4bf58dd8d48988d11b941735", "name": "Pub", "pluralName": "Pubs", "shortName": "Pub", "icon": {"prefix": "https://ss3.4sqi.net/img/categories_v2/nightlife/pub_", "suffix": ".png"}, "primary": true}], "photos": {"count": 0, "groups": []}}, "referralId": "e-0-4ad4c05df964a52071f620e3-2"}, {"reasons": {"count": 0, "items": [{"summary": "This spot is popular", "type": "general", "reasonName": "globalInteractionReason"}]}, "venue": {"id": "4cc0bf6e31ceef3b87645d0d", "name": "Domino's Pizza", "location": {"address": "377 Marlee Ave", "lat": 43.707170406048526, "lng": -79.44265804811249, "labeledLatLngs": [{"label": "display", "lat": 43.707170406048526, "lng": -79.44265804811249}], "distance": 330, "postalCode": "M6B 3H9", "cc": "CA", "city": "Toronto", "state": "ON", "country": "Canada", "formattedAddress": ["377 Marlee Ave", "Toronto ON M6B 3H9", "Canada"]}, "categories": [{"id": "4bf58dd8d48988d1ca941735", "name": "Pizza Place", "pluralName": "Pizza Places", "shortName": "Pizza", "icon": {"prefix": "https://ss3.4sqi.net/img/categories_v2/food/pizza_", "suffix": ".png"}, "primary": true}], "photos": {"count": 0, "groups": []}}, "referralId": "e-0-4cc0bf6e31ceef3b87645d0d-3"}]}]}}