{"meta": {"code": 200, "requestId": "5e1f6c825fb726001b7fd989"}, "response": {"suggestedFilters": {"header": "Tap to show:", "filters": [{"name": "Open now", "key": "openNow"}]}, "headerLocation": "Christie Pits", "headerFullLocation": "Christie Pits, Toronto", "headerLocationGranularity": "neighborhood", "totalResults": 17, "suggestedBounds": {"ne": {"lat": 43.6740420045, "lng": -79.41635411972038}, "sw": {"lat": 43.6650419955, "lng": -79.42877328027961}}, "groups": [{"type": "Recommended Places", "name": "recommended", "items": [{"reasons": {"count": 0, "items": [{"summary": "This spot is popular", "type": "general", "reasonName": "globalInteractionReason"}]}, "venue": {"id": "4adcfd7cf964a5203e6321e3", "name": "Fiesta Farms", "location": {"address": "200 Christie St", "crossStreet": "at Essex St", "lat": 43.66847077052224, "lng": -79.42048512748114, "labeledLatLngs": [{"label": "display", "lat": 43.66847077052224, "lng": -79.42048512748114}], "distance": 205, "postalCode": "M6G 3B6", "cc": "CA", "city": "Toronto", "state": "ON", "country": "Canada", "formattedAddress": ["200 Christie St (at Essex St)", "Toronto ON M6G 3B6", "Canada"]}, "categories": [{"id": "4bf58dd8d48988d118951735", "name": "Grocery Store", "pluralName": "Grocery Stores", "shortName": "Grocery Store", "icon": {"prefix": "https://ss3.4sqi.net/img/categories_v2/shops/food_grocery_", "suffix": ".png"}, "primary": true}], "photos": {"count": 0, "groups": []}, "venuePage": {"id": "56848730"}}, "referralId": "e-0-4adcfd7cf964a5203e6321e3-0"}, {"reasons": {"count": 0, "items": [{"summary": "This spot is popular", "type": "general", "reasonName": "globalInteractionReason"}]}, "venue": {"id": "540c8301498e51456f71ae7e", "name": "Contra Cafe", "location": {"address": "1028 Shaw St", "crossStreet": "Yarmouth", "lat": 43.669107144072974, "lng": -79.42610471852032, "labeledLatLngs": [{"label": "display", "lat": 43.669107144072974, "lng": -79.42610471852032}], "distance": 289, "cc": "CA", "city": "Toronto", "state": "ON", "country": "Canada", "formattedAddress": ["1028 Shaw St (Yarmouth)", "Toronto ON", "Canada"]}, "categories": [{"id": "4bf58dd8d48988d16d941735", "name": "Caf\u00e9", "pluralName": "Caf\u00e9s", "shortName": "Caf\u00e9", "icon": {"prefix": "https://ss3.4sqi.net/img/categories_v2/food/cafe_", "suffix": ".png"}, "primary": true}], "photos": {"count": 0, "groups": []}}, "referralId": "e-0-540c8301498e51456f71ae7e-1"}, {"reasons": {"count": 0, "items": [{"summary": "This spot is popular", "type": "general", "reasonName": "globalInteractionReason"}]}, "venue": {"id": "4b003cf6f964a520d73b22e3", "name": "Vinny\u2019s Panini", "location": {"address": "787 Dupont Street", "lat": 43.67067884412717, "lng": -79.42614819830024, "labeledLatLngs": [{"label": "display", "lat": 43.67067884412717, "lng": -79.42614819830024}], "distance": 315, "postalCode": "M6G 1Z5", "cc": "CA", "city": "Toronto", "state": "ON", "country": "Canada", "formattedAddress": ["787 Dupont Street", "Toronto ON M6G 1Z5", "Canada"]}, "categories": [{"id": "4bf58dd8d48988d110941735", "name": "Italian Restaurant", "pluralName": "Italian Restaurants", "shortName": "Italian", "icon": {"prefix": "https://ss3.4sqi.net/img/categories_v2/food/italian_", "suffix": ".png"}, "primary": true}], "photos": {"count": 0, "groups": []}}, "referralId": "e-0-4b003cf6f964a520d73b22e3-2"}, {"reasons": {"count": 0, "items": [{"summary": "This spot is popular", "type": "general", "reasonName": "globalInteractionReason"}]}, "venue": {"id": "4dc9d2add4c07b350108956a", "name": "Starbucks", "location": {"address": "657 Dupont St", "crossStreet": "at Christie St.", "lat": 43.67153, "lng": -79.4214, "labeledLatLngs": [{"label": "display", "lat": 43.67153, "lng": -79.4214}], "distance": 240, "postalCode": "M6G 1Z4", "cc": "CA", "city": "Toronto", "state": "ON", "country": "Canada", "formattedAddress": ["657 Dupont St (at Christie St.)", "Toronto ON M6G 1Z4", "Canada"]}, "categories": [{"id": "4bf58dd8d48988d1e0931735", "name": "Coffee Shop", "pluralName": "Coffee Shops", "shortName": "Coffee Shop", "icon": {"prefix": "https://ss3.4sqi.net/img/categories_v2/food/coffeeshop_", "suffix": ".png"}, "primary": true}], "photos": {"count": 0, "groups": []}}, "referralId": "e-0-4dc9d2add4c07b350108956a-3"}, {"reasons": {"count": 0, "items": [{"summary": "This spot is popular", "type": "general", "reasonName": "globalInteractionReason"}]}, "venue": {"id": "4adb4d20f964a520b12521e3", "name": "Universal Grill", "location": {"address": "1071 Shaw St.", "crossStreet": "Dupont", "lat": 43.670549820711926, "lng": -79.42654054306477, "labeledLatLngs": [{"label": "display", "lat": 43.670549820711926, "lng": -79.42654054306477}], "distance": 339, "cc": "CA", "city": "Toronto", "state": "ON", "country": "Canada", "formattedAddress": ["1071 Shaw St. (Dupont)", "Toronto ON", "Canada"]}, "categories": [{"id": "4bf58dd8d48988d147941735", "name": "Diner", "pluralName": "Diners", "shortName": "Diner", "icon": {"prefix": "https://ss3.4sqi.net/img/categories_v2/food/diner_", "suffix": ".png"}, "primary": true}], "photos": {"count": 0, "groups": []}}, "referralId": "e-0-4adb4d20f964a520b12521e3-4"}, {"reasons": {"count": 0, "items": [{"summary": "This spot is popular", "type": "general", "reasonName": "globalInteractionReason"}]}, "venue": {"id": "536e42af498e8a0880b220d7", "name": "Scout and Cash Caffe", "location": {"address": "146 Christie Street", "crossStreet": "Bloor", "lat": 43.66735987720157, "lng": -79.41993774586636, "labeledLatLngs": [{"label": "display", "lat": 43.66735987720157, "lng": -79.41993774586636}], "distance": 322, "postalCode": "M6G 3B3", "cc": "CA", "city": "Toronto", "state": "ON", "country": "Canada", "formattedAddress": ["146 Christie Street (Bloor)", "Toronto ON M6G 3B3", "Canada"]}, "categories": [{"id": "4bf58dd8d48988d16d941735", "name": "Caf\u00e9", "pluralName": "Caf\u00e9s", "shortName": "Caf\u00e9", "icon": {"prefix": "https://ss3.4sqi.net/img/categories_v2/food/cafe_", "suffix": ".png"}, "primary": true}], "photos": {"count": 0, "groups": []}, "venuePage": {"id": "85621950"}}, "referralId": "e-0-536e42af498e8a0880b220d7-5"}, {"reasons": {"count": 0, "items": [{"summary": "This spot is popular", "type": "general", "reasonName": "globalInteractionReason"}]}, "venue": {"id": "4ade0037f964a520396721e3", "name": "Faema Caffe", "location": {"address": "672 Dupont Street", "crossStreet": "Christie", "lat": 43.6710456734398, "lng": -79.41929697990417, "labeledLatLngs": [{"label": "display", "lat": 43.6710456734398, "lng": -79.41929697990417}], "distance": 311, "postalCode": "M6G 1Z6", "cc": "CA", "city": "Toronto", "state": "ON", "country": "Canada", "formattedAddress": ["672 Dupont Street (Christie)", "Toronto ON M6G 1Z6", "Canada"]}, "categories": [{"id": "4bf58dd8d48988d16d941735", "name": "Caf\u00e9", "pluralName": "Caf\u00e9s", "shortName": "Caf\u00e9", "icon": {"prefix": "https://ss3.4sqi.net/img/categories_v2/food/cafe_", "suffix": ".png"}, "primary": true}], "photos": {"count": 0, "groups": []}}, "referralId": "e-0-4ade0037f964a520396721e3-6"}, {"reasons": {"count": 0, "items": [{"summary": "This spot is popular", "type": "general", "reasonName": "globalInteractionReason"}]}, "venue": {"id": "4f737b84e4b060af1b23c5b7", "name": "Actinolite", "location": {"address": "971 Ossington Ave", "lat": 43.66785822046965, "lng": -79.42805427320322, "labeledLatLngs": [{"label": "display", "lat": 43.66785822046965, "lng": -79.42805427320322}], "distance": 480, "postalCode": "M6G 3V5", "cc": "CA", "city": "Toronto", "state": "ON", "country": "Canada", "formattedAddress": ["971 Ossington Ave", "Toronto ON M6G 3V5", "Canada"]}, "categories": [{"id": "4bf58dd8d48988d1c4941735", "name": "Restaurant", "pluralName": "Restaurants", "shortName": "Restaurant", "icon": {"prefix": "https://ss3.4sqi.net/img/categories_v2/food/default_", "suffix": ".png"}, "primary": true}], "photos": {"count": 0, "groups": []}}, "referralId": "e-0-4f737b84e4b060af1b23c5b7-7"}, {"reasons": {"count": 0, "items": [{"summary": "This spot is popular", "type": "general", "reasonName": "globalInteractionReason"}]}, "venue": {"id": "4aee0faef964a520b1d121e3", "name": "Loblaws", "location": {"address": "650 Dupont St", "crossStreet": "at Christie St.", "lat": 43.671657, "lng": -79.421364, "labeledLatLngs": [{"label": "display", "lat": 43.671657, "lng": -79.421364}], "distance": 254, "postalCode": "M6G 4B1", "cc": "CA", "city": "Toronto", "state": "ON", "country": "Canada", "formattedAddress": ["650 Dupont St (at Christie St.)", "Toronto ON M6G 4B1", "Canada"]}, "categories": [{"id": "4bf58dd8d48988d118951735", "name": "Grocery Store", "pluralName": "Grocery Stores", "shortName": "Grocery Store", "icon": {"prefix": "https://ss3.4sqi.net/img/categories_v2/shops/food_grocery_", "suffix": ".png"}, "primary": true}], "photos": {"count": 0, "groups": []}}, "referralId": "e-0-4aee0faef964a520b1d121e3-8"}, {"reasons": {"count": 0, "items": [{"summary": "This spot is popular", "type": "general", "reasonName": "globalInteractionReason"}]}, "venue": {"id": "4b76e890f964a52065692ee3", "name": "Stubbe Chocolates", "location": {"address": "653 Dupont Street", "crossStreet": "\"at Christie St.\"", "lat": 43.67156577026589, "lng": -79.42128899001831, "labeledLatLngs": [{"label": "display", "lat": 43.67156577026589, "lng": -79.42128899001831}], "distance": 247, "postalCode": "M6G 1Z4", "cc": "CA", "city": "Toronto", "state": "ON", "country": "Canada", "formattedAddress": ["653 Dupont Street (\"at Christie St.\")", "Toronto ON M6G 1Z4", "Canada"]}, "categories": [{"id": "4bf58dd8d48988d117951735", "name": "Candy Store", "pluralName": "Candy Stores", "shortName": "Candy Store", "icon": {"prefix": "https://ss3.4sqi.net/img/categories_v2/shops/candystore_", "suffix": ".png"}, "primary": true}], "photos": {"count": 0, "groups": []}}, "referralId": "e-0-4b76e890f964a52065692ee3-9"}, {"reasons": {"count": 0, "items": [{"summary": "This spot is popular", "type": "general", "reasonName": "globalInteractionReason"}]}, "venue": {"id": "4bb799a07421a593dcb9c040", "name": "Marlenes Just Babies", "location": {"address": "631 Dupont St", "lat": 43.671824, "lng": -79.420499, "labeledLatLngs": [{"label": "display", "lat": 43.671824, "lng": -79.420499}], "distance": 303, "postalCode": "M6G 1Z4", "cc": "CA", "city": "Toronto", "state": "ON", "country": "Canada", "formattedAddress": ["631 Dupont St", "Toronto ON M6G 1Z4", "Canada"]}, "categories": [{"id": "52f2ab2ebcbc57f1066b8b32", "name": "Baby Store", "pluralName": "Baby Stores", "shortName": "Baby Store", "icon": {"prefix": "https://ss3.4sqi.net/img/categories_v2/shops/apparel_kids_", "suffix": ".png"}, "primary": true}], "photos": {"count": 0, "groups": []}}, "referralId": "e-0-4bb799a07421a593dcb9c040-10"}, {"reasons": {"count": 0, "items": [{"summary": "This spot is popular", "type": "general", "reasonName": "globalInteractionReason"}]}, "venue": {"id": "4d72ca285838a09358d410db", "name": "Dupont Disco", "location": {"address": "807 Dupont St.", "crossStreet": "Shaw St.", "lat": 43.67048982553482, "lng": -79.42661141389264, "labeledLatLngs": [{"label": "display", "lat": 43.67048982553482, "lng": -79.42661141389264}], "distance": 342, "postalCode": "M6G 1Z7", "cc": "CA", "city": "Toronto", "state": "ON", "country": "Canada", "formattedAddress": ["807 Dupont St. (Shaw St.)", "Toronto ON M6G 1Z7", "Canada"]}, "categories": [{"id": "4bf58dd8d48988d11f941735", "name": "Nightclub", "pluralName": "Nightclubs", "shortName": "Nightclub", "icon": {"prefix": "https://ss3.4sqi.net/img/categories_v2/nightlife/nightclub_", "suffix": ".png"}, "primary": true}], "photos": {"count": 0, "groups": []}}, "referralId": "e-0-4d72ca285838a09358d410db-11"}, {"reasons": {"count": 0, "items": [{"summary": "This spot is popular", "type": "general", "reasonName": "globalInteractionReason"}]}, "venue": {"id": "4bfc2a7fe05e0f47b348cfa8", "name": "Queens Club", "location": {"address": "568 Dupont St.", "lat": 43.672386069777616, "lng": -79.41810570233238, "labeledLatLngs": [{"label": "display", "lat": 43.672386069777616, "lng": -79.41810570233238}], "distance": 478, "postalCode": "M6G 1Y9", "cc": "CA", "city": "Toronto", "state": "ON", "country": "Canada", "formattedAddress": ["568 Dupont St.", "Toronto ON M6G 1Y9", "Canada"]}, "categories": [{"id": "4f4528bc4b90abdf24c9de85", "name": "Athletics & Sports", "pluralName": "Athletics & Sports", "shortName": "Athletics & Sports", "icon": {"prefix": "https://ss3.4sqi.net/img/categories_v2/shops/sports_outdoors_", "suffix": ".png"}, "primary": true}], "photos": {"count": 0, "groups": []}}, "referralId": "e-0-4bfc2a7fe05e0f47b348cfa8-12"}, {"reasons": {"count": 0, "items": [{"summary": "This spot is popular", "type": "general", "reasonName": "globalInteractionReason"}]}, "venue": {"id": "4b86818cf964a520218d31e3", "name": "Pioneer Energy", "location": {"address": "860 Dupont St.", "crossStreet": "Ossington", "lat": 43.67035525082211, "lng": -79.42840047898076, "labeledLatLngs": [{"label": "display", "lat": 43.67035525082211, "lng": -79.42840047898076}], "distance": 478, "postalCode": "M6C 1Z8", "cc": "CA", "city": "Toronto", "state": "ON", "country": "Canada", "formattedAddress": ["860 Dupont St. (Ossington)", "Toronto ON M6C 1Z8", "Canada"]}, "categories": [{"id": "4bf58dd8d48988d113951735", "name": "Gas Station", "pluralName": "Gas Stations", "shortName": "Gas Station", "icon": {"prefix": "https://ss3.4sqi.net/img/categories_v2/shops/gas_", "suffix": ".png"}, "primary": true}], "photos": {"count": 0, "groups": []}}, "referralId": "e-0-4b86818cf964a520218d31e3-13"}, {"reasons": {"count": 0, "items": [{"summary": "This spot is popular", "type": "general", "reasonName": "globalInteractionReason"}]}, "venue": {"id": "4c840c82d8086dcbcfcb8552", "name": "Marian Engel Park", "location": {"address": "285 Melita Avenue", "lat": 43.67375357657298, "lng": -79.42398759247811, "labeledLatLngs": [{"label": "display", "lat": 43.67375357657298, "lng": -79.42398759247811}], "distance": 482, "postalCode": "M6G 3W7", "cc": "CA", "city": "Toronto", "state": "ON", "country": "Canada", "formattedAddress": ["285 Melita Avenue", "Toronto ON M6G 3W7", "Canada"]}, "categories": [{"id": "4bf58dd8d48988d163941735", "name": "Park", "pluralName": "Parks", "shortName": "Park", "icon": {"prefix": "https://ss3.4sqi.net/img/categories_v2/parks_outdoors/park_", "suffix": ".png"}, "primary": true}], "photos": {"count": 0, "groups": []}}, "referralId": "e-0-4c840c82d8086dcbcfcb8552-14"}, {"reasons": {"count": 0, "items": [{"summary": "This spot is popular", "type": "general", "reasonName": "globalInteractionReason"}]}, "venue": {"id": "4d8fe809cb9b224bd1c3a541", "name": "Garrison Creek Park", "location": {"address": "1152 Shaw", "crossStreet": "Dupont", "lat": 43.67168977827157, "lng": -79.42780494689941, "labeledLatLngs": [{"label": "display", "lat": 43.67168977827157, "lng": -79.42780494689941}], "distance": 485, "cc": "CA", "city": "Toronto", "state": "ON", "country": "Canada", "formattedAddress": ["1152 Shaw (Dupont)", "Toronto ON", "Canada"]}, "categories": [{"id": "4bf58dd8d48988d163941735", "name": "Park", "pluralName": "Parks", "shortName": "Park", "icon": {"prefix": "https://ss3.4sqi.net/img/categories_v2/parks_outdoors/park_", "suffix": ".png"}, "primary": true}], "photos": {"count": 0, "groups": []}}, "referralId": "e-0-4d8fe809cb9b224bd1c3a541-15"}, {"reasons": {"count": 0, "items": [{"summary": "This spot is popular", "type": "general", "reasonName": "globalInteractionReason"}]}, "venue": {"id": "4c176f94f1c976b05620a272", "name": "Foto Grocery", "location": {"address": "972 Ossington", "lat": 43.66797858931121, "lng": -79.42821689567089, "labeledLatLngs": [{"label": "display", "lat": 43.66797858931121, "lng": -79.42821689567089}], "distance": 487, "cc": "CA", "city": "Toronto", "state": "ON", "country": "Canada", "formattedAddress": ["972 Ossington", "Toronto ON", "Canada"]}, "categories": [{"id": "4bf58dd8d48988d118951735", "name": "Grocery Store", "pluralName": "Grocery Stores", "shortName": "Grocery Store", "icon": {"prefix": "https://ss3.4sqi.net/img/categories_v2/shops/food_grocery_", "suffix": ".png"}, "primary": true}], "photos": {"count": 0, "groups": []}}, "referralId": "e-0-4c176f94f1c976b05620a272-16"}]}]}}