{"meta": {"code": 200, "requestId": "5e1f6bd471c428001bc6874b"}, "response": {"suggestedFilters": {"header": "Tap to show:", "filters": [{"name": "Open now", "key": "openNow"}]}, "headerLocation": "Harbourfront", "headerFullLocation": "Harbourfront, Toronto", "headerLocationGranularity": "neighborhood", "totalResults": 154, "suggestedBounds": {"ne": {"lat": 43.6453157045, "lng": -79.37554568947674}, "sw": {"lat": 43.636315695499995, "lng": -79.38795891052321}}, "groups": [{"type": "Recommended Places", "name": "recommended", "items": [{"reasons": {"count": 0, "items": [{"summary": "This spot is popular", "type": "general", "reasonName": "globalInteractionReason"}]}, "venue": {"id": "4bfaa3494a67c928d08528cf", "name": "Harbourfront", "location": {"lat": 43.639525632239106, "lng": -79.38068838052389, "labeledLatLngs": [{"label": "display", "lat": 43.639525632239106, "lng": -79.38068838052389}], "distance": 167, "cc": "CA", "city": "Toronto", "state": "ON", "country": "Canada", "formattedAddress": ["Toronto ON", "Canada"]}, "categories": [{"id": "4f2a25ac4b909258e854f55f", "name": "Neighborhood", "pluralName": "Neighborhoods", "shortName": "Neighborhood", "icon": {"prefix": "https://ss3.4sqi.net/img/categories_v2/parks_outdoors/neighborhood_", "suffix": ".png"}, "primary": true}], "photos": {"count": 0, "groups": []}}, "referralId": "e-0-4bfaa3494a67c928d08528cf-0"}, {"reasons": {"count": 0, "items": [{"summary": "This spot is popular", "type": "general", "reasonName": "globalInteractionReason"}]}, "venue": {"id": "4b642db1f964a520b7a22ae3", "name": "Roundhouse Park", "location": {"address": "255 Bremner Blvd.", "crossStreet": "at Lower Simcoe St.", "lat": 43.64174513889102, "lng": -79.38427882922346, "labeledLatLngs": [{"label": "display", "lat": 43.64174513889102, "lng": -79.38427882922346}], "distance": 228, "postalCode": "M5V 3M9", "cc": "CA", "neighborhood": "Entertainment District", "city": "Toronto", "state": "ON", "country": "Canada", "formattedAddress": ["255 Bremner Blvd. (at Lower Simcoe St.)", "Toronto ON M5V 3M9", "Canada"]}, "categories": [{"id": "4bf58dd8d48988d163941735", "name": "Park", "pluralName": "Parks", "shortName": "Park", "icon": {"prefix": "https://ss3.4sqi.net/img/categories_v2/parks_outdoors/park_", "suffix": ".png"}, "primary": true}], "photos": {"count": 0, "groups": []}}, "referralId": "e-0-4b642db1f964a520b7a22ae3-1"}, {"reasons": {"count": 0, "items": [{"summary": "This spot is popular", "type": "general", "reasonName": "globalInteractionReason"}]}, "venue": {"id": "5346c98a498ed612110d0f60", "name": "iQ Food Co", "location": {"address": "18 York Street", "crossStreet": "Bremner Ave", "lat": 43.642851, "lng": -79.382081, "labeledLatLngs": [{"label": "display", "lat": 43.642851, "lng": -79.382081}], "distance": 228, "postalCode": "M5J 0B2", "cc": "CA", "city": "Toronto", "state": "ON", "country": "Canada", "formattedAddress": ["18 York Street (Bremner Ave)", "Toronto ON M5J 0B2", "Canada"]}, "categories": [{"id": "4bf58dd8d48988d1bd941735", "name": "Salad Place", "pluralName": "Salad Places", "shortName": "Salad", "icon": {"prefix": "https://ss3.4sqi.net/img/categories_v2/food/salad_", "suffix": ".png"}, "primary": true}], "photos": {"count": 0, "groups": []}}, "referralId": "e-0-5346c98a498ed612110d0f60-2"}, {"reasons": {"count": 0, "items": [{"summary": "This spot is popular", "type": "general", "reasonName": "globalInteractionReason"}]}, "venue": {"id": "4be46c832468c92887c1fe42", "name": "Real Sports Apparel", "location": {"address": "15 York St. Unit B", "crossStreet": "Maple Leaf Square", "lat": 43.64285984835777, "lng": -79.38018363195047, "labeledLatLngs": [{"label": "display", "lat": 43.64285984835777, "lng": -79.38018363195047}], "distance": 260, "postalCode": "M5J", "cc": "CA", "city": "Toronto", "state": "ON", "country": "Canada", "formattedAddress": ["15 York St. Unit B (Maple Leaf Square)", "Toronto ON M5J", "Canada"]}, "categories": [{"id": "4bf58dd8d48988d1f2941735", "name": "Sporting Goods Shop", "pluralName": "Sporting Goods Shops", "shortName": "Sporting Goods", "icon": {"prefix": "https://ss3.4sqi.net/img/categories_v2/shops/sports_outdoors_", "suffix": ".png"}, "primary": true}], "photos": {"count": 0, "groups": []}, "venuePage": {"id": "33431415"}}, "referralId": "e-0-4be46c832468c92887c1fe42-3"}, {"reasons": {"count": 0, "items": [{"summary": "This spot is popular", "type": "general", "reasonName": "globalInteractionReason"}]}, "venue": {"id": "4caaabd8f47ea143763b8521", "name": "Longo's Maple Leaf Square", "location": {"address": "15 York St.", "crossStreet": "enter on Bremner", "lat": 43.64251679604069, "lng": -79.38139301653129, "labeledLatLngs": [{"label": "display", "lat": 43.64251679604069, "lng": -79.38139301653129}], "distance": 191, "postalCode": "M5J 0A3", "cc": "CA", "city": "Toronto", "state": "ON", "country": "Canada", "formattedAddress": ["15 York St. (enter on Bremner)", "Toronto ON M5J 0A3", "Canada"]}, "categories": [{"id": "52f2ab2ebcbc57f1066b8b46", "name": "Supermarket", "pluralName": "Supermarkets", "shortName": "Supermarket", "icon": {"prefix": "https://ss3.4sqi.net/img/categories_v2/shops/food_grocery_", "suffix": ".png"}, "primary": true}], "photos": {"count": 0, "groups": []}}, "referralId": "e-0-4caaabd8f47ea143763b8521-4"}, {"reasons": {"count": 0, "items": [{"summary": "This spot is popular", "type": "general", "reasonName": "globalInteractionReason"}]}, "venue": {"id": "4d07f8041657a35d19272ae7", "name": "Lake Ontario", "location": {"lat": 43.63894493157648, "lng": -79.37966465950012, "labeledLatLngs": [{"label": "display", "lat": 43.63894493157648, "lng": -79.37966465950012}], "distance": 267, "cc": "CA", "city": "Toronto", "state": "ON", "country": "Canada", "formattedAddress": ["Toronto ON", "Canada"]}, "categories": [{"id": "4bf58dd8d48988d161941735", "name": "Lake", "pluralName": "Lakes", "shortName": "Lake", "icon": {"prefix": "https://ss3.4sqi.net/img/categories_v2/parks_outdoors/lake_", "suffix": ".png"}, "primary": true}], "photos": {"count": 0, "groups": []}}, "referralId": "e-0-4d07f8041657a35d19272ae7-5"}, {"reasons": {"count": 0, "items": [{"summary": "This spot is popular", "type": "general", "reasonName": "globalInteractionReason"}]}, "venue": {"id": "55a19437498eeea53fa58b54", "name": "BeaverTails", "location": {"address": "145 Queen\u2019s Quay W", "crossStreet": "York St", "lat": 43.639736, "lng": -79.380068, "labeledLatLngs": [{"label": "display", "lat": 43.639736, "lng": -79.380068}], "distance": 181, "postalCode": "M5J 2H4", "cc": "CA", "neighborhood": "Harbourfront", "city": "Toronto", "state": "ON", "country": "Canada", "formattedAddress": ["145 Queen\u2019s Quay W (York St)", "Toronto ON M5J 2H4", "Canada"]}, "categories": [{"id": "4bf58dd8d48988d1d0941735", "name": "Dessert Shop", "pluralName": "Dessert Shops", "shortName": "Desserts", "icon": {"prefix": "https://ss3.4sqi.net/img/categories_v2/food/dessert_", "suffix": ".png"}, "primary": true}], "photos": {"count": 0, "groups": []}}, "referralId": "e-0-55a19437498eeea53fa58b54-6"}, {"reasons": {"count": 0, "items": [{"summary": "This spot is popular", "type": "general", "reasonName": "globalInteractionReason"}]}, "venue": {"id": "4ad4c05ef964a52094f620e3", "name": "Harbourfront Centre", "location": {"address": "235 Queens Quay West", "crossStreet": "at Lower Simcoe St.", "lat": 43.63855578926675, "lng": -79.38319016270458, "labeledLatLngs": [{"label": "display", "lat": 43.63855578926675, "lng": -79.38319016270458}], "distance": 276, "postalCode": "M5J 2G8", "cc": "CA", "city": "Toronto", "state": "ON", "country": "Canada", "formattedAddress": ["235 Queens Quay West (at Lower Simcoe St.)", "Toronto ON M5J 2G8", "Canada"]}, "categories": [{"id": "4bf58dd8d48988d1f2931735", "name": "Performing Arts Venue", "pluralName": "Performing Arts Venues", "shortName": "Performing Arts", "icon": {"prefix": "https://ss3.4sqi.net/img/categories_v2/arts_entertainment/performingarts_", "suffix": ".png"}, "primary": true}], "photos": {"count": 0, "groups": []}, "venuePage": {"id": "37512083"}}, "referralId": "e-0-4ad4c05ef964a52094f620e3-7"}, {"reasons": {"count": 0, "items": [{"summary": "This spot is popular", "type": "general", "reasonName": "globalInteractionReason"}]}, "venue": {"id": "4b7199ebf964a52048502de3", "name": "Natrel Pond/Rink", "location": {"address": "235 Queens Quay W", "crossStreet": "Harbourfront Centre", "lat": 43.6384313677662, "lng": -79.38252754335107, "labeledLatLngs": [{"label": "display", "lat": 43.6384313677662, "lng": -79.38252754335107}], "distance": 272, "postalCode": "M5J 2G8", "cc": "CA", "city": "Toronto", "state": "ON", "country": "Canada", "formattedAddress": ["235 Queens Quay W (Harbourfront Centre)", "Toronto ON M5J 2G8", "Canada"]}, "categories": [{"id": "4bf58dd8d48988d168941735", "name": "Skating Rink", "pluralName": "Skating Rinks", "shortName": "Skating Rink", "icon": {"prefix": "https://ss3.4sqi.net/img/categories_v2/parks_outdoors/skatingrink_", "suffix": ".png"}, "primary": true}], "photos": {"count": 0, "groups": []}}, "referralId": "e-0-4b7199ebf964a52048502de3-8"}, {"reasons": {"count": 0, "items": [{"summary": "This spot is popular", "type": "general", "reasonName": "globalInteractionReason"}]}, "venue": {"id": "4bdb8c1cc79cc928a77583e9", "name": "Maple Leaf Square", "location": {"address": "15 York St.", "crossStreet": "Bremner Blvd.", "lat": 43.64292522840183, "lng": -79.38089182467687, "labeledLatLngs": [{"label": "display", "lat": 43.64292522840183, "lng": -79.38089182467687}], "distance": 244, "cc": "CA", "city": "Toronto", "state": "ON", "country": "Canada", "formattedAddress": ["15 York St. (Bremner Blvd.)", "Toronto ON", "Canada"]}, "categories": [{"id": "4bf58dd8d48988d164941735", "name": "Plaza", "pluralName": "Plazas", "shortName": "Plaza", "icon": {"prefix": "https://ss3.4sqi.net/img/categories_v2/parks_outdoors/plaza_", "suffix": ".png"}, "primary": true}], "photos": {"count": 0, "groups": []}, "venuePage": {"id": "33431413"}}, "referralId": "e-0-4bdb8c1cc79cc928a77583e9-9"}, {"reasons": {"count": 0, "items": [{"summary": "This spot is popular", "type": "general", "reasonName": "globalInteractionReason"}]}, "venue": {"id": "53357710498e20817350cfb4", "name": "Delta Hotels by Marriott Toronto", "location": {"address": "75 Lower Simcoe Street", "lat": 43.6428819, "lng": -79.3839491, "labeledLatLngs": [{"label": "display", "lat": 43.6428819, "lng": -79.3839491}], "distance": 290, "postalCode": "M5J 3A6", "cc": "CA", "city": "Toronto", "state": "ON", "country": "Canada", "formattedAddress": ["75 Lower Simcoe Street", "Toronto ON M5J 3A6", "Canada"]}, "categories": [{"id": "4bf58dd8d48988d1fa931735", "name": "Hotel", "pluralName": "Hotels", "shortName": "Hotel", "icon": {"prefix": "https://ss3.4sqi.net/img/categories_v2/travel/hotel_", "suffix": ".png"}, "primary": true}], "photos": {"count": 0, "groups": []}}, "referralId": "e-0-53357710498e20817350cfb4-10"}, {"reasons": {"count": 0, "items": [{"summary": "This spot is popular", "type": "general", "reasonName": "globalInteractionReason"}]}, "venue": {"id": "562922be498e2c6aad0e6091", "name": "Evviva Restaurant", "location": {"address": "25 Lower Simcoe St", "crossStreet": "Grand Trunk Cresc", "lat": 43.64157991761808, "lng": -79.38345644030795, "labeledLatLngs": [{"label": "display", "lat": 43.64157991761808, "lng": -79.38345644030795}], "distance": 161, "postalCode": "M5J 3A1", "cc": "CA", "city": "Toronto", "state": "ON", "country": "Canada", "formattedAddress": ["25 Lower Simcoe St (Grand Trunk Cresc)", "Toronto ON M5J 3A1", "Canada"]}, "categories": [{"id": "4bf58dd8d48988d146941735", "name": "Deli / Bodega", "pluralName": "Delis / Bodegas", "shortName": "Deli / Bodega", "icon": {"prefix": "https://ss3.4sqi.net/img/categories_v2/food/deli_", "suffix": ".png"}, "primary": true}], "photos": {"count": 0, "groups": []}}, "referralId": "e-0-562922be498e2c6aad0e6091-11"}, {"reasons": {"count": 0, "items": [{"summary": "This spot is popular", "type": "general", "reasonName": "globalInteractionReason"}]}, "venue": {"id": "4e49413e81dc766f3e3d6312", "name": "Harbour Square Park", "location": {"address": "25 Queens Quay West", "lat": 43.63925269130776, "lng": -79.37839547902978, "labeledLatLngs": [{"label": "display", "lat": 43.63925269130776, "lng": -79.37839547902978}], "distance": 321, "cc": "CA", "city": "Toronto", "state": "ON", "country": "Canada", "formattedAddress": ["25 Queens Quay West", "Toronto ON", "Canada"]}, "categories": [{"id": "4bf58dd8d48988d163941735", "name": "Park", "pluralName": "Parks", "shortName": "Park", "icon": {"prefix": "https://ss3.4sqi.net/img/categories_v2/parks_outdoors/park_", "suffix": ".png"}, "primary": true}], "photos": {"count": 0, "groups": []}}, "referralId": "e-0-4e49413e81dc766f3e3d6312-12"}, {"reasons": {"count": 0, "items": [{"summary": "This spot is popular", "type": "general", "reasonName": "globalInteractionReason"}]}, "venue": {"id": "5014414be4b05d9dc85cf8a1", "name": "Lick It Gelato", "location": {"address": "250 Queens Quay W", "lat": 43.63925633222479, "lng": -79.38464951914256, "labeledLatLngs": [{"label": "display", "lat": 43.63925633222479, "lng": -79.38464951914256}], "distance": 290, "postalCode": "M5J 2N2", "cc": "CA", "city": "Toronto", "state": "ON", "country": "Canada", "formattedAddress": ["250 Queens Quay W", "Toronto ON M5J 2N2", "Canada"]}, "categories": [{"id": "4bf58dd8d48988d1c9941735", "name": "Ice Cream Shop", "pluralName": "Ice Cream Shops", "shortName": "Ice Cream", "icon": {"prefix": "https://ss3.4sqi.net/img/categories_v2/food/icecream_", "suffix": ".png"}, "primary": true}], "photos": {"count": 0, "groups": []}}, "referralId": "e-0-5014414be4b05d9dc85cf8a1-13"}, {"reasons": {"count": 0, "items": [{"summary": "This spot is popular", "type": "general", "reasonName": "globalInteractionReason"}]}, "venue": {"id": "57768fb1498ec8fca5cc0594", "name": "Boxcar Social", "location": {"address": "235 Queens Quay W", "lat": 43.63831906511549, "lng": -79.38246311921247, "labeledLatLngs": [{"label": "display", "lat": 43.63831906511549, "lng": -79.38246311921247}], "distance": 283, "postalCode": "M5J 2G8", "cc": "CA", "city": "Toronto", "state": "ON", "country": "Canada", "formattedAddress": ["235 Queens Quay W", "Toronto ON M5J 2G8", "Canada"]}, "categories": [{"id": "4bf58dd8d48988d16d941735", "name": "Caf\u00e9", "pluralName": "Caf\u00e9s", "shortName": "Caf\u00e9", "icon": {"prefix": "https://ss3.4sqi.net/img/categories_v2/food/cafe_", "suffix": ".png"}, "primary": true}], "photos": {"count": 0, "groups": []}}, "referralId": "e-0-57768fb1498ec8fca5cc0594-14"}, {"reasons": {"count": 0, "items": [{"summary": "This spot is popular", "type": "general", "reasonName": "globalInteractionReason"}]}, "venue": {"id": "4c9fbdd77c096dcbfe43e1d1", "name": "e11even", "location": {"address": "15 York St.", "crossStreet": "at Bremner Blvd.", "lat": 43.64242558687748, "lng": -79.38144094115985, "labeledLatLngs": [{"label": "display", "lat": 43.64242558687748, "lng": -79.38144094115985}], "distance": 180, "postalCode": "M5J 0A3", "cc": "CA", "city": "Toronto", "state": "ON", "country": "Canada", "formattedAddress": ["15 York St. (at Bremner Blvd.)", "Toronto ON M5J 0A3", "Canada"]}, "categories": [{"id": "4bf58dd8d48988d157941735", "name": "New American Restaurant", "pluralName": "New American Restaurants", "shortName": "New American", "icon": {"prefix": "https://ss3.4sqi.net/img/categories_v2/food/newamerican_", "suffix": ".png"}, "primary": true}], "photos": {"count": 0, "groups": []}, "venuePage": {"id": "33864002"}}, "referralId": "e-0-4c9fbdd77c096dcbfe43e1d1-15"}, {"reasons": {"count": 0, "items": [{"summary": "This spot is popular", "type": "general", "reasonName": "globalInteractionReason"}]}, "venue": {"id": "4c05b0ce5753c92838e739f1", "name": "Real Sports Bar & Grill", "location": {"address": "15 York St", "crossStreet": "at Bremner Blvd", "lat": 43.64255846521551, "lng": -79.37996506690979, "labeledLatLngs": [{"label": "display", "lat": 43.64255846521551, "lng": -79.37996506690979}], "distance": 241, "postalCode": "M5J 0A3", "cc": "CA", "city": "Toronto", "state": "ON", "country": "Canada", "formattedAddress": ["15 York St (at Bremner Blvd)", "Toronto ON M5J 0A3", "Canada"]}, "categories": [{"id": "4bf58dd8d48988d11d941735", "name": "Sports Bar", "pluralName": "Sports Bars", "shortName": "Sports Bar", "icon": {"prefix": "https://ss3.4sqi.net/img/categories_v2/nightlife/sportsbar_", "suffix": ".png"}, "primary": true}], "photos": {"count": 0, "groups": []}, "venuePage": {"id": "33431419"}}, "referralId": "e-0-4c05b0ce5753c92838e739f1-16"}, {"reasons": {"count": 0, "items": [{"summary": "This spot is popular", "type": "general", "reasonName": "globalInteractionReason"}]}, "venue": {"id": "59a988a27dc9e105c88b184b", "name": "Aroma Espresso Bar", "location": {"address": "137 Bremner Blvd", "crossStreet": "Lower Simcoe St", "lat": 43.6423209103846, "lng": -79.38374932648954, "labeledLatLngs": [{"label": "display", "lat": 43.6423209103846, "lng": -79.38374932648954}], "distance": 232, "postalCode": "M5J 3A7", "cc": "CA", "city": "Toronto", "state": "ON", "country": "Canada", "formattedAddress": ["137 Bremner Blvd (Lower Simcoe St)", "Toronto ON M5J 3A7", "Canada"]}, "categories": [{"id": "4bf58dd8d48988d16d941735", "name": "Caf\u00e9", "pluralName": "Caf\u00e9s", "shortName": "Caf\u00e9", "icon": {"prefix": "https://ss3.4sqi.net/img/categories_v2/food/cafe_", "suffix": ".png"}, "primary": true}], "photos": {"count": 0, "groups": []}}, "referralId": "e-0-59a988a27dc9e105c88b184b-17"}, {"reasons": {"count": 0, "items": [{"summary": "This spot is popular", "type": "general", "reasonName": "globalInteractionReason"}]}, "venue": {"id": "515779bee4b0a9d4c8c9380d", "name": "Ontario Square", "location": {"lat": 43.63937829745867, "lng": -79.38209598496967, "labeledLatLngs": [{"label": "display", "lat": 43.63937829745867, "lng": -79.38209598496967}], "distance": 162, "cc": "CA", "country": "Canada", "formattedAddress": ["Canada"]}, "categories": [{"id": "4bf58dd8d48988d164941735", "name": "Plaza", "pluralName": "Plazas", "shortName": "Plaza", "icon": {"prefix": "https://ss3.4sqi.net/img/categories_v2/parks_outdoors/plaza_", "suffix": ".png"}, "primary": true}], "photos": {"count": 0, "groups": []}}, "referralId": "e-0-515779bee4b0a9d4c8c9380d-18"}, {"reasons": {"count": 0, "items": [{"summary": "This spot is popular", "type": "general", "reasonName": "globalInteractionReason"}]}, "venue": {"id": "57b22076498efeeeb93cfc47", "name": "Sharetea", "location": {"address": "109-89 Queens Quay W", "lat": 43.640175967763966, "lng": -79.37960567018246, "labeledLatLngs": [{"label": "display", "lat": 43.640175967763966, "lng": -79.37960567018246}], "distance": 187, "postalCode": "M5J 2T5", "cc": "CA", "city": "Toronto", "state": "ON", "country": "Canada", "formattedAddress": ["109-89 Queens Quay W", "Toronto ON M5J 2T5", "Canada"]}, "categories": [{"id": "52e81612bcbc57f1066b7a0c", "name": "Bubble Tea Shop", "pluralName": "Bubble Tea Shops", "shortName": "Bubble Tea", "icon": {"prefix": "https://ss3.4sqi.net/img/categories_v2/food/bubble_", "suffix": ".png"}, "primary": true}], "photos": {"count": 0, "groups": []}}, "referralId": "e-0-57b22076498efeeeb93cfc47-19"}, {"reasons": {"count": 0, "items": [{"summary": "This spot is popular", "type": "general", "reasonName": "globalInteractionReason"}]}, "venue": {"id": "545bef71498eddc2599b086a", "name": "SOCO Kitchen+Bar", "location": {"address": "75 Lower Simcoe St", "crossStreet": "Bremner", "lat": 43.64280448399251, "lng": -79.38392149415381, "labeledLatLngs": [{"label": "display", "lat": 43.64280448399251, "lng": -79.38392149415381}], "distance": 282, "postalCode": "M5J 3A6", "cc": "CA", "city": "Toronto", "state": "ON", "country": "Canada", "formattedAddress": ["75 Lower Simcoe St (Bremner)", "Toronto ON M5J 3A6", "Canada"]}, "categories": [{"id": "52e81612bcbc57f1066b79f1", "name": "Bistro", "pluralName": "Bistros", "shortName": "Bistro", "icon": {"prefix": "https://ss3.4sqi.net/img/categories_v2/food/default_", "suffix": ".png"}, "primary": true}], "photos": {"count": 0, "groups": []}}, "referralId": "e-0-545bef71498eddc2599b086a-20"}, {"reasons": {"count": 0, "items": [{"summary": "This spot is popular", "type": "general", "reasonName": "globalInteractionReason"}]}, "venue": {"id": "4ad4c05ff964a520edf620e3", "name": "The Power Plant", "location": {"address": "231 Queens Quay West", "lat": 43.63827200397285, "lng": -79.38199390946676, "labeledLatLngs": [{"label": "display", "lat": 43.63827200397285, "lng": -79.38199390946676}], "distance": 283, "postalCode": "M5J 2G8", "cc": "CA", "city": "Toronto", "state": "ON", "country": "Canada", "formattedAddress": ["231 Queens Quay West", "Toronto ON M5J 2G8", "Canada"]}, "categories": [{"id": "4bf58dd8d48988d1e2931735", "name": "Art Gallery", "pluralName": "Art Galleries", "shortName": "Art Gallery", "icon": {"prefix": "https://ss3.4sqi.net/img/categories_v2/arts_entertainment/artgallery_", "suffix": ".png"}, "primary": true}], "photos": {"count": 0, "groups": []}}, "referralId": "e-0-4ad4c05ff964a520edf620e3-21"}, {"reasons": {"count": 0, "items": [{"summary": "This spot is popular", "type": "general", "reasonName": "globalInteractionReason"}]}, "venue": {"id": "56201ed4498e7f700c462170", "name": "Miku", "location": {"address": "10 Bay St", "crossStreet": "at Queens Quay W", "lat": 43.64137436, "lng": -79.37753063, "labeledLatLngs": [{"label": "display", "lat": 43.64137436, "lng": -79.37753063}], "distance": 345, "postalCode": "M5J 2R8", "cc": "CA", "city": "Toronto", "state": "ON", "country": "Canada", "formattedAddress": ["10 Bay St (at Queens Quay W)", "Toronto ON M5J 2R8", "Canada"]}, "categories": [{"id": "4bf58dd8d48988d111941735", "name": "Japanese Restaurant", "pluralName": "Japanese Restaurants", "shortName": "Japanese", "icon": {"prefix": "https://ss3.4sqi.net/img/categories_v2/food/japanese_", "suffix": ".png"}, "primary": true}], "photos": {"count": 0, "groups": []}}, "referralId": "e-0-56201ed4498e7f700c462170-22"}, {"reasons": {"count": 0, "items": [{"summary": "This spot is popular", "type": "general", "reasonName": "globalInteractionReason"}]}, "venue": {"id": "4cb87a334c60a093c04a39ca", "name": "Le Germain Hotel", "location": {"address": "75 Bremner Boulevard", "crossStreet": "York Street", "lat": 43.64312502979691, "lng": -79.38091770864038, "labeledLatLngs": [{"label": "display", "lat": 43.64312502979691, "lng": -79.38091770864038}], "distance": 265, "postalCode": "M5J 0A1", "cc": "CA", "city": "Toronto", "state": "ON", "country": "Canada", "formattedAddress": ["75 Bremner Boulevard (York Street)", "Toronto ON M5J 0A1", "Canada"]}, "categories": [{"id": "4bf58dd8d48988d1fa931735", "name": "Hotel", "pluralName": "Hotels", "shortName": "Hotel", "icon": {"prefix": "https://ss3.4sqi.net/img/categories_v2/travel/hotel_", "suffix": ".png"}, "primary": true}], "photos": {"count": 0, "groups": []}}, "referralId": "e-0-4cb87a334c60a093c04a39ca-23"}, {"reasons": {"count": 0, "items": [{"summary": "This spot is popular", "type": "general", "reasonName": "globalInteractionReason"}]}, "venue": {"id": "54b9b9aa498e6f9349fd2125", "name": "Taverna Mercatto", "location": {"address": "130 Bremner", "lat": 43.64262514139939, "lng": -79.38325673989138, "labeledLatLngs": [{"label": "display", "lat": 43.64262514139939, "lng": -79.38325673989138}], "distance": 235, "cc": "CA", "country": "Canada", "formattedAddress": ["130 Bremner", "Canada"]}, "categories": [{"id": "4bf58dd8d48988d110941735", "name": "Italian Restaurant", "pluralName": "Italian Restaurants", "shortName": "Italian", "icon": {"prefix": "https://ss3.4sqi.net/img/categories_v2/food/italian_", "suffix": ".png"}, "primary": true}], "photos": {"count": 0, "groups": []}}, "referralId": "e-0-54b9b9aa498e6f9349fd2125-24"}, {"reasons": {"count": 0, "items": [{"summary": "This spot is popular", "type": "general", "reasonName": "globalInteractionReason"}]}, "venue": {"id": "4ae33054f964a520759121e3", "name": "Pearl Harbourfront", "location": {"address": "200-207 Queens Quay W.", "lat": 43.63815654013541, "lng": -79.38068763743328, "labeledLatLngs": [{"label": "display", "lat": 43.63815654013541, "lng": -79.38068763743328}], "distance": 308, "postalCode": "M5J 1A7", "cc": "CA", "city": "Toronto", "state": "ON", "country": "Canada", "formattedAddress": ["200-207 Queens Quay W.", "Toronto ON M5J 1A7", "Canada"]}, "categories": [{"id": "4bf58dd8d48988d145941735", "name": "Chinese Restaurant", "pluralName": "Chinese Restaurants", "shortName": "Chinese", "icon": {"prefix": "https://ss3.4sqi.net/img/categories_v2/food/asian_", "suffix": ".png"}, "primary": true}], "photos": {"count": 0, "groups": []}}, "referralId": "e-0-4ae33054f964a520759121e3-25"}, {"reasons": {"count": 0, "items": [{"summary": "This spot is popular", "type": "general", "reasonName": "globalInteractionReason"}]}, "venue": {"id": "4b55dfbff964a5200ef427e3", "name": "TELUS", "location": {"address": "25 York St UNIT A7", "lat": 43.64331243103257, "lng": -79.38099939294844, "labeledLatLngs": [{"label": "display", "lat": 43.64331243103257, "lng": -79.38099939294844}], "distance": 284, "postalCode": "M5J 2V5", "cc": "CA", "city": "Toronto", "state": "ON", "country": "Canada", "formattedAddress": ["25 York St UNIT A7", "Toronto ON M5J 2V5", "Canada"]}, "categories": [{"id": "52f2ab2ebcbc57f1066b8b36", "name": "IT Services", "pluralName": "IT Services", "shortName": "IT Services", "icon": {"prefix": "https://ss3.4sqi.net/img/categories_v2/shops/technology_", "suffix": ".png"}, "primary": true}], "photos": {"count": 0, "groups": []}}, "referralId": "e-0-4b55dfbff964a5200ef427e3-26"}, {"reasons": {"count": 0, "items": [{"summary": "This spot is popular", "type": "general", "reasonName": "globalInteractionReason"}]}, "venue": {"id": "4b155081f964a520b4b023e3", "name": "Scotiabank Arena", "location": {"address": "40 Bay St", "lat": 43.64344617535107, "lng": -79.37903988889991, "labeledLatLngs": [{"label": "display", "lat": 43.64344617535107, "lng": -79.37903988889991}], "distance": 365, "postalCode": "M5J 2X2", "cc": "CA", "city": "Toronto", "state": "ON", "country": "Canada", "formattedAddress": ["40 Bay St", "Toronto ON M5J 2X2", "Canada"]}, "categories": [{"id": "4bf58dd8d48988d18b941735", "name": "Basketball Stadium", "pluralName": "Basketball Stadiums", "shortName": "Basketball", "icon": {"prefix": "https://ss3.4sqi.net/img/categories_v2/arts_entertainment/stadium_basketball_", "suffix": ".png"}, "primary": true}], "photos": {"count": 0, "groups": []}, "venuePage": {"id": "33431410"}}, "referralId": "e-0-4b155081f964a520b4b023e3-27"}, {"reasons": {"count": 0, "items": [{"summary": "This spot is popular", "type": "general", "reasonName": "globalInteractionReason"}]}, "venue": {"id": "56cca056cd10f4e133df3253", "name": "Delta Toronto Club Lounge", "location": {"address": "75 Lower Simcoe", "lat": 43.64308454373067, "lng": -79.38388489051405, "labeledLatLngs": [{"label": "display", "lat": 43.64308454373067, "lng": -79.38388489051405}], "distance": 305, "cc": "CA", "city": "Toronto", "state": "ON", "country": "Canada", "formattedAddress": ["75 Lower Simcoe", "Toronto ON", "Canada"]}, "categories": [{"id": "4bf58dd8d48988d133951735", "name": "Roof Deck", "pluralName": "Roof Decks", "shortName": "Roof Deck", "icon": {"prefix": "https://ss3.4sqi.net/img/categories_v2/travel/hotel_roofdeck_", "suffix": ".png"}, "primary": true}], "photos": {"count": 0, "groups": []}}, "referralId": "e-0-56cca056cd10f4e133df3253-28"}, {"reasons": {"count": 0, "items": [{"summary": "This spot is popular", "type": "general", "reasonName": "globalInteractionReason"}]}, "venue": {"id": "4f05da6f0e61b14c28b2e05f", "name": "Ripley's Aquarium of Canada", "location": {"address": "288 Bremner Blvd", "lat": 43.642104321965796, "lng": -79.38625159146146, "labeledLatLngs": [{"label": "display", "lat": 43.642104321965796, "lng": -79.38625159146146}], "distance": 389, "postalCode": "M5J 3A6", "cc": "CA", "city": "Toronto", "state": "ON", "country": "Canada", "formattedAddress": ["288 Bremner Blvd", "Toronto ON M5J 3A6", "Canada"]}, "categories": [{"id": "4fceea171983d5d06c3e9823", "name": "Aquarium", "pluralName": "Aquariums", "shortName": "Aquarium", "icon": {"prefix": "https://ss3.4sqi.net/img/categories_v2/arts_entertainment/aquarium_", "suffix": ".png"}, "primary": true}], "photos": {"count": 0, "groups": []}}, "referralId": "e-0-4f05da6f0e61b14c28b2e05f-29"}, {"reasons": {"count": 0, "items": [{"summary": "This spot is popular", "type": "general", "reasonName": "globalInteractionReason"}]}, "venue": {"id": "5a53c6b0b0405614996330c6", "name": "Mos Mos", "location": {"address": "20 Bay street", "crossStreet": "harbour", "lat": 43.64163954520267, "lng": -79.3775517786762, "labeledLatLngs": [{"label": "display", "lat": 43.64163954520267, "lng": -79.3775517786762}], "distance": 350, "postalCode": "M5J", "cc": "CA", "city": "Toronto", "state": "ON", "country": "Canada", "formattedAddress": ["20 Bay street (harbour)", "Toronto ON M5J", "Canada"]}, "categories": [{"id": "4bf58dd8d48988d1e0931735", "name": "Coffee Shop", "pluralName": "Coffee Shops", "shortName": "Coffee Shop", "icon": {"prefix": "https://ss3.4sqi.net/img/categories_v2/food/coffeeshop_", "suffix": ".png"}, "primary": true}], "photos": {"count": 0, "groups": []}}, "referralId": "e-0-5a53c6b0b0405614996330c6-30"}, {"reasons": {"count": 0, "items": [{"summary": "This spot is popular", "type": "general", "reasonName": "globalInteractionReason"}]}, "venue": {"id": "4ad4c062f964a520bff720e3", "name": "Fleck Dance Theater", "location": {"address": "235 Queens Quay West", "lat": 43.638300366812686, "lng": -79.3804699399247, "labeledLatLngs": [{"label": "display", "lat": 43.638300366812686, "lng": -79.3804699399247}], "distance": 298, "postalCode": "M5J 2G8", "cc": "CA", "city": "Toronto", "state": "ON", "country": "Canada", "formattedAddress": ["235 Queens Quay West", "Toronto ON M5J 2G8", "Canada"]}, "categories": [{"id": "4bf58dd8d48988d134941735", "name": "Dance Studio", "pluralName": "Dance Studios", "shortName": "Dance Studio", "icon": {"prefix": "https://ss3.4sqi.net/img/categories_v2/arts_entertainment/performingarts_dancestudio_", "suffix": ".png"}, "primary": true}], "photos": {"count": 0, "groups": []}}, "referralId": "e-0-4ad4c062f964a520bff720e3-31"}, {"reasons": {"count": 0, "items": [{"summary": "This spot is popular", "type": "general", "reasonName": "globalInteractionReason"}]}, "venue": {"id": "5671984a498eb233dad6c790", "name": "Ray Bay", "location": {"address": "Ripley's Aquarium Of Canada", "lat": 43.642323, "lng": -79.38593, "labeledLatLngs": [{"label": "display", "lat": 43.642323, "lng": -79.38593}], "distance": 376, "cc": "CA", "country": "Canada", "formattedAddress": ["Ripley's Aquarium Of Canada", "Canada"]}, "categories": [{"id": "4fceea171983d5d06c3e9823", "name": "Aquarium", "pluralName": "Aquariums", "shortName": "Aquarium", "icon": {"prefix": "https://ss3.4sqi.net/img/categories_v2/arts_entertainment/aquarium_", "suffix": ".png"}, "primary": true}], "photos": {"count": 0, "groups": []}}, "referralId": "e-0-5671984a498eb233dad6c790-32"}, {"reasons": {"count": 0, "items": [{"summary": "This spot is popular", "type": "general", "reasonName": "globalInteractionReason"}]}, "venue": {"id": "55561f8a498e2e5c866ac4c9", "name": "Union Pearson Express", "location": {"address": "61 Front St. W", "lat": 43.64436200658875, "lng": -79.38319927907953, "labeledLatLngs": [{"label": "display", "lat": 43.64436200658875, "lng": -79.38319927907953}], "distance": 411, "postalCode": "M5J 2Z8", "cc": "CA", "neighborhood": "Entertainment District", "city": "Toronto", "state": "ON", "country": "Canada", "formattedAddress": ["61 Front St. W", "Toronto ON M5J 2Z8", "Canada"]}, "categories": [{"id": "4bf58dd8d48988d129951735", "name": "Train Station", "pluralName": "Train Stations", "shortName": "Train Station", "icon": {"prefix": "https://ss3.4sqi.net/img/categories_v2/travel/trainstation_", "suffix": ".png"}, "primary": true}], "photos": {"count": 0, "groups": []}}, "referralId": "e-0-55561f8a498e2e5c866ac4c9-33"}, {"reasons": {"count": 0, "items": [{"summary": "This spot is popular", "type": "general", "reasonName": "globalInteractionReason"}]}, "venue": {"id": "4b0d7e5df964a520924923e3", "name": "PawsWay", "location": {"address": "245 Queens Quay W", "crossStreet": "North Building", "lat": 43.63859915782706, "lng": -79.38499178154079, "labeledLatLngs": [{"label": "display", "lat": 43.63859915782706, "lng": -79.38499178154079}], "distance": 359, "postalCode": "M5J 2K9", "cc": "CA", "city": "Toronto", "state": "ON", "country": "Canada", "formattedAddress": ["245 Queens Quay W (North Building)", "Toronto ON M5J 2K9", "Canada"]}, "categories": [{"id": "4bf58dd8d48988d171941735", "name": "Event Space", "pluralName": "Event Spaces", "shortName": "Event Space", "icon": {"prefix": "https://ss3.4sqi.net/img/categories_v2/building/eventspace_", "suffix": ".png"}, "primary": true}], "photos": {"count": 0, "groups": []}, "venuePage": {"id": "67028198"}}, "referralId": "e-0-4b0d7e5df964a520924923e3-34"}, {"reasons": {"count": 0, "items": [{"summary": "This spot is popular", "type": "general", "reasonName": "globalInteractionReason"}]}, "venue": {"id": "4b60d5b9f964a52071fc29e3", "name": "Air Canada Club", "location": {"address": "Air Canada Centre", "lat": 43.643224100030416, "lng": -79.37915938219528, "labeledLatLngs": [{"label": "display", "lat": 43.643224100030416, "lng": -79.37915938219528}], "distance": 339, "postalCode": "M5J 2L2", "cc": "CA", "city": "Toronto", "state": "ON", "country": "Canada", "formattedAddress": ["Air Canada Centre", "Toronto ON M5J 2L2", "Canada"]}, "categories": [{"id": "4bf58dd8d48988d121941735", "name": "Lounge", "pluralName": "Lounges", "shortName": "Lounge", "icon": {"prefix": "https://ss3.4sqi.net/img/categories_v2/nightlife/default_", "suffix": ".png"}, "primary": true}], "photos": {"count": 0, "groups": []}}, "referralId": "e-0-4b60d5b9f964a52071fc29e3-35"}, {"reasons": {"count": 0, "items": [{"summary": "This spot is popular", "type": "general", "reasonName": "globalInteractionReason"}]}, "venue": {"id": "4ad4c05ef964a520cbf620e3", "name": "Steam Whistle Brewing", "location": {"address": "255 Bremner Blvd.", "crossStreet": "btwn Rees St. & Simcoe St.", "lat": 43.641751628677554, "lng": -79.38708862583252, "labeledLatLngs": [{"label": "display", "lat": 43.641751628677554, "lng": -79.38708862583252}], "distance": 442, "postalCode": "M5V 3M9", "cc": "CA", "city": "Toronto", "state": "ON", "country": "Canada", "formattedAddress": ["255 Bremner Blvd. (btwn Rees St. & Simcoe St.)", "Toronto ON M5V 3M9", "Canada"]}, "categories": [{"id": "50327c8591d4c4b30a586d5d", "name": "Brewery", "pluralName": "Breweries", "shortName": "Brewery", "icon": {"prefix": "https://ss3.4sqi.net/img/categories_v2/food/brewery_", "suffix": ".png"}, "primary": true}], "photos": {"count": 0, "groups": []}, "venuePage": {"id": "33864025"}}, "referralId": "e-0-4ad4c05ef964a520cbf620e3-36"}, {"reasons": {"count": 0, "items": [{"summary": "This spot is popular", "type": "general", "reasonName": "globalInteractionReason"}]}, "venue": {"id": "5de849003935b5000848a107", "name": "Kinton Ramen", "location": {"lat": 43.641663, "lng": -79.37907, "labeledLatLngs": [{"label": "display", "lat": 43.641663, "lng": -79.37907}], "distance": 235, "postalCode": "M5J 0C3", "cc": "CA", "city": "Toronto", "state": "ON", "country": "Canada", "formattedAddress": ["Toronto ON M5J 0C3", "Canada"]}, "categories": [{"id": "55a59bace4b013909087cb24", "name": "Ramen Restaurant", "pluralName": "Ramen Restaurants", "shortName": "Ramen", "icon": {"prefix": "https://ss3.4sqi.net/img/categories_v2/food/ramen_", "suffix": ".png"}, "primary": true}], "photos": {"count": 0, "groups": []}}, "referralId": "e-0-5de849003935b5000848a107-37"}, {"reasons": {"count": 0, "items": [{"summary": "This spot is popular", "type": "general", "reasonName": "globalInteractionReason"}]}, "venue": {"id": "4ff45283e4b0aeae9d3ae866", "name": "Sky Pod", "location": {"address": "CN Tower", "lat": 43.64256148814412, "lng": -79.38703777833165, "labeledLatLngs": [{"label": "display", "lat": 43.64256148814412, "lng": -79.38703777833165}], "distance": 468, "cc": "CA", "neighborhood": "Entertainment District", "city": "Toronto", "state": "ON", "country": "Canada", "formattedAddress": ["CN Tower", "Toronto ON", "Canada"]}, "categories": [{"id": "4bf58dd8d48988d165941735", "name": "Scenic Lookout", "pluralName": "Scenic Lookouts", "shortName": "Scenic Lookout", "icon": {"prefix": "https://ss3.4sqi.net/img/categories_v2/parks_outdoors/sceniclookout_", "suffix": ".png"}, "primary": true}], "photos": {"count": 0, "groups": []}}, "referralId": "e-0-4ff45283e4b0aeae9d3ae866-38"}, {"reasons": {"count": 0, "items": [{"summary": "This spot is popular", "type": "general", "reasonName": "globalInteractionReason"}]}, "venue": {"id": "557f05ca498ec78ac7b29315", "name": "Balzac's Coffee", "location": {"address": "7 Station St", "crossStreet": "at SkyWalk", "lat": 43.644372584148364, "lng": -79.38306470027423, "labeledLatLngs": [{"label": "display", "lat": 43.644372584148364, "lng": -79.38306470027423}], "distance": 409, "postalCode": "M5J 1C3", "cc": "CA", "city": "Toronto", "state": "ON", "country": "Canada", "formattedAddress": ["7 Station St (at SkyWalk)", "Toronto ON M5J 1C3", "Canada"]}, "categories": [{"id": "4bf58dd8d48988d1e0931735", "name": "Coffee Shop", "pluralName": "Coffee Shops", "shortName": "Coffee Shop", "icon": {"prefix": "https://ss3.4sqi.net/img/categories_v2/food/coffeeshop_", "suffix": ".png"}, "primary": true}], "photos": {"count": 0, "groups": []}}, "referralId": "e-0-557f05ca498ec78ac7b29315-39"}, {"reasons": {"count": 0, "items": [{"summary": "This spot is popular", "type": "general", "reasonName": "globalInteractionReason"}]}, "venue": {"id": "5c08474447f876002c736b68", "name": "WVRST", "location": {"address": "65 Front St W", "lat": 43.64496809087762, "lng": -79.38137631843854, "labeledLatLngs": [{"label": "display", "lat": 43.64496809087762, "lng": -79.38137631843854}], "distance": 463, "postalCode": "M5J 1E6", "cc": "CA", "city": "Toronto", "state": "ON", "country": "Canada", "formattedAddress": ["65 Front St W", "Toronto ON M5J 1E6", "Canada"]}, "categories": [{"id": "56aa371ce4b08b9a8d57356c", "name": "Beer Bar", "pluralName": "Beer Bars", "shortName": "Beer Bar", "icon": {"prefix": "https://ss3.4sqi.net/img/categories_v2/nightlife/pub_", "suffix": ".png"}, "primary": true}], "photos": {"count": 0, "groups": []}}, "referralId": "e-0-5c08474447f876002c736b68-40"}, {"reasons": {"count": 0, "items": [{"summary": "This spot is popular", "type": "general", "reasonName": "globalInteractionReason"}]}, "venue": {"id": "4ad4c061f964a520adf720e3", "name": "Rogers Centre", "location": {"address": "1 Blue Jays Way", "crossStreet": "at Front St", "lat": 43.64175329733295, "lng": -79.38714957057036, "labeledLatLngs": [{"label": "display", "lat": 43.64175329733295, "lng": -79.38714957057036}], "distance": 447, "postalCode": "M5V 1J1", "cc": "CA", "city": "Toronto", "state": "ON", "country": "Canada", "formattedAddress": ["1 Blue Jays Way (at Front St)", "Toronto ON M5V 1J1", "Canada"]}, "categories": [{"id": "4bf58dd8d48988d18c941735", "name": "Baseball Stadium", "pluralName": "Baseball Stadiums", "shortName": "Baseball", "icon": {"prefix": "https://ss3.4sqi.net/img/categories_v2/arts_entertainment/stadium_baseball_", "suffix": ".png"}, "primary": true}], "photos": {"count": 0, "groups": []}}, "referralId": "e-0-4ad4c061f964a520adf720e3-41"}, {"reasons": {"count": 0, "items": [{"summary": "This spot is popular", "type": "general", "reasonName": "globalInteractionReason"}]}, "venue": {"id": "597b72811b0ea5223f9f77f7", "name": "Joe Bird", "location": {"address": "207 Queen Quay West", "crossStreet": "York", "lat": 43.6382035241723, "lng": -79.38035466343936, "labeledLatLngs": [{"label": "display", "lat": 43.6382035241723, "lng": -79.38035466343936}], "distance": 311, "cc": "CA", "city": "Toronto", "state": "ON", "country": "Canada", "formattedAddress": ["207 Queen Quay West (York)", "Toronto ON", "Canada"]}, "categories": [{"id": "4d4ae6fc7a7b7dea34424761", "name": "Fried Chicken Joint", "pluralName": "Fried Chicken Joints", "shortName": "Fried Chicken", "icon": {"prefix": "https://ss3.4sqi.net/img/categories_v2/food/friedchicken_", "suffix": ".png"}, "primary": true}], "photos": {"count": 0, "groups": []}}, "referralId": "e-0-597b72811b0ea5223f9f77f7-42"}, {"reasons": {"count": 0, "items": [{"summary": "This spot is popular", "type": "general", "reasonName": "globalInteractionReason"}]}, "venue": {"id": "4bbcd229593fef3b77ab0256", "name": "Booster Juice", "location": {"address": "25 York Street, Unit #A6", "crossStreet": "In Telus Tower", "lat": 43.64322536, "lng": -79.3812383, "labeledLatLngs": [{"label": "display", "lat": 43.64322536, "lng": -79.3812383}], "distance": 271, "postalCode": "M5J 2V5", "cc": "CA", "city": "Toronto", "state": "ON", "country": "Canada", "formattedAddress": ["25 York Street, Unit #A6 (In Telus Tower)", "Toronto ON M5J 2V5", "Canada"]}, "categories": [{"id": "4bf58dd8d48988d112941735", "name": "Juice Bar", "pluralName": "Juice Bars", "shortName": "Juice Bar", "icon": {"prefix": "https://ss3.4sqi.net/img/categories_v2/food/juicebar_", "suffix": ".png"}, "primary": true}], "photos": {"count": 0, "groups": []}}, "referralId": "e-0-4bbcd229593fef3b77ab0256-43"}, {"reasons": {"count": 0, "items": [{"summary": "This spot is popular", "type": "general", "reasonName": "globalInteractionReason"}]}, "venue": {"id": "4ad4c05ef964a52096f620e3", "name": "CN Tower", "location": {"address": "301 Front St W", "crossStreet": "at John St", "lat": 43.642535570189125, "lng": -79.38718187733883, "distance": 477, "postalCode": "M5V 2T6", "cc": "CA", "neighborhood": "Entertainment District", "city": "Toronto", "state": "ON", "country": "Canada", "formattedAddress": ["301 Front St W (at John St)", "Toronto ON M5V 2T6", "Canada"]}, "categories": [{"id": "4bf58dd8d48988d12d941735", "name": "Monument / Landmark", "pluralName": "Monuments / Landmarks", "shortName": "Landmark", "icon": {"prefix": "https://ss3.4sqi.net/img/categories_v2/building/government_monument_", "suffix": ".png"}, "primary": true}], "photos": {"count": 0, "groups": []}, "venuePage": {"id": "33864000"}}, "referralId": "e-0-4ad4c05ef964a52096f620e3-44"}, {"reasons": {"count": 0, "items": [{"summary": "This spot is popular", "type": "general", "reasonName": "globalInteractionReason"}]}, "venue": {"id": "5952cf02829b0c59fa430f63", "name": "The Rec Room", "location": {"address": "255 Bremner Blvd", "lat": 43.641109851662456, "lng": -79.38676279808568, "labeledLatLngs": [{"label": "display", "lat": 43.641109851662456, "lng": -79.38676279808568}], "distance": 404, "postalCode": "M5V 3M9", "cc": "CA", "city": "Toronto", "state": "ON", "country": "Canada", "formattedAddress": ["255 Bremner Blvd", "Toronto ON M5V 3M9", "Canada"]}, "categories": [{"id": "4bf58dd8d48988d116941735", "name": "Bar", "pluralName": "Bars", "shortName": "Bar", "icon": {"prefix": "https://ss3.4sqi.net/img/categories_v2/nightlife/pub_", "suffix": ".png"}, "primary": true}], "photos": {"count": 0, "groups": []}}, "referralId": "e-0-5952cf02829b0c59fa430f63-45"}, {"reasons": {"count": 0, "items": [{"summary": "This spot is popular", "type": "general", "reasonName": "globalInteractionReason"}]}, "venue": {"id": "516da5e0e4b0ad66584cf170", "name": "Amsterdam Brewhouse", "location": {"address": "245 Queens Quay W", "crossStreet": "at Reese St", "lat": 43.63812210550607, "lng": -79.38480300808894, "labeledLatLngs": [{"label": "display", "lat": 43.63812210550607, "lng": -79.38480300808894}], "distance": 387, "postalCode": "M5J 2K9", "cc": "CA", "city": "Toronto", "state": "ON", "country": "Canada", "formattedAddress": ["245 Queens Quay W (at Reese St)", "Toronto ON M5J 2K9", "Canada"]}, "categories": [{"id": "50327c8591d4c4b30a586d5d", "name": "Brewery", "pluralName": "Breweries", "shortName": "Brewery", "icon": {"prefix": "https://ss3.4sqi.net/img/categories_v2/food/brewery_", "suffix": ".png"}, "primary": true}], "photos": {"count": 0, "groups": []}}, "referralId": "e-0-516da5e0e4b0ad66584cf170-46"}, {"reasons": {"count": 0, "items": [{"summary": "This spot is popular", "type": "general", "reasonName": "globalInteractionReason"}]}, "venue": {"id": "4c57636330d82d7f57d3d962", "name": "Toronto Railway Heritage Centre", "location": {"address": "Roundhouse Park", "lat": 43.64130010529897, "lng": -79.38588431405732, "labeledLatLngs": [{"label": "display", "lat": 43.64130010529897, "lng": -79.38588431405732}], "distance": 337, "cc": "CA", "city": "Toronto", "state": "ON", "country": "Canada", "formattedAddress": ["Roundhouse Park", "Toronto ON", "Canada"]}, "categories": [{"id": "4bf58dd8d48988d190941735", "name": "History Museum", "pluralName": "History Museums", "shortName": "History Museum", "icon": {"prefix": "https://ss3.4sqi.net/img/categories_v2/arts_entertainment/museum_history_", "suffix": ".png"}, "primary": true}], "photos": {"count": 0, "groups": []}}, "referralId": "e-0-4c57636330d82d7f57d3d962-47"}, {"reasons": {"count": 0, "items": [{"summary": "This spot is popular", "type": "general", "reasonName": "globalInteractionReason"}]}, "venue": {"id": "567197e7498e8ca8c0fe5ea4", "name": "Dangerous Lagoon", "location": {"address": "Ripley's Aquarium Of Canada", "lat": 43.64233, "lng": -79.385925, "labeledLatLngs": [{"label": "display", "lat": 43.64233, "lng": -79.385925}], "distance": 376, "cc": "CA", "country": "Canada", "formattedAddress": ["Ripley's Aquarium Of Canada", "Canada"]}, "categories": [{"id": "4fceea171983d5d06c3e9823", "name": "Aquarium", "pluralName": "Aquariums", "shortName": "Aquarium", "icon": {"prefix": "https://ss3.4sqi.net/img/categories_v2/arts_entertainment/aquarium_", "suffix": ".png"}, "primary": true}], "photos": {"count": 0, "groups": []}}, "referralId": "e-0-567197e7498e8ca8c0fe5ea4-48"}, {"reasons": {"count": 0, "items": [{"summary": "This spot is popular", "type": "general", "reasonName": "globalInteractionReason"}]}, "venue": {"id": "563d2f2dcd10bcf27ae37c3b", "name": "Pilot Coffee Roasters", "location": {"address": "65 Front St W", "crossStreet": "btwn Bay St & York St", "lat": 43.64501814464698, "lng": -79.3804150931199, "labeledLatLngs": [{"label": "display", "lat": 43.64501814464698, "lng": -79.3804150931199}], "distance": 480, "postalCode": "M5J 1E6", "cc": "CA", "city": "Toronto", "state": "ON", "country": "Canada", "formattedAddress": ["65 Front St W (btwn Bay St & York St)", "Toronto ON M5J 1E6", "Canada"]}, "categories": [{"id": "4bf58dd8d48988d1e0931735", "name": "Coffee Shop", "pluralName": "Coffee Shops", "shortName": "Coffee Shop", "icon": {"prefix": "https://ss3.4sqi.net/img/categories_v2/food/coffeeshop_", "suffix": ".png"}, "primary": true}], "photos": {"count": 0, "groups": []}}, "referralId": "e-0-563d2f2dcd10bcf27ae37c3b-49"}, {"reasons": {"count": 0, "items": [{"summary": "This spot is popular", "type": "general", "reasonName": "globalInteractionReason"}]}, "venue": {"id": "4e0f9e9e1838f62321d17b8d", "name": "Harbourfront Wavedecks", "location": {"address": "Queens Quay W.", "crossStreet": "Btwn Spadina & Lower Simcoe", "lat": 43.6389104293985, "lng": -79.38485064893273, "labeledLatLngs": [{"label": "display", "lat": 43.6389104293985, "lng": -79.38485064893273}], "distance": 327, "cc": "CA", "city": "Toronto", "state": "ON", "country": "Canada", "formattedAddress": ["Queens Quay W. (Btwn Spadina & Lower Simcoe)", "Toronto ON", "Canada"]}, "categories": [{"id": "4bf58dd8d48988d165941735", "name": "Scenic Lookout", "pluralName": "Scenic Lookouts", "shortName": "Scenic Lookout", "icon": {"prefix": "https://ss3.4sqi.net/img/categories_v2/parks_outdoors/sceniclookout_", "suffix": ".png"}, "primary": true}], "photos": {"count": 0, "groups": []}}, "referralId": "e-0-4e0f9e9e1838f62321d17b8d-50"}, {"reasons": {"count": 0, "items": [{"summary": "This spot is popular", "type": "general", "reasonName": "globalInteractionReason"}]}, "venue": {"id": "4ba2c7acf964a5209f1838e3", "name": "Subway", "location": {"address": "228 Queens Quay West, Unit 1", "crossStreet": "Lower Simcoe St.", "lat": 43.6397080530486, "lng": -79.38344130418051, "labeledLatLngs": [{"label": "display", "lat": 43.6397080530486, "lng": -79.38344130418051}], "distance": 183, "postalCode": "M5J 2X1", "cc": "CA", "city": "Toronto", "state": "ON", "country": "Canada", "formattedAddress": ["228 Queens Quay West, Unit 1 (Lower Simcoe St.)", "Toronto ON M5J 2X1", "Canada"]}, "categories": [{"id": "4bf58dd8d48988d1c5941735", "name": "Sandwich Place", "pluralName": "Sandwich Places", "shortName": "Sandwiches", "icon": {"prefix": "https://ss3.4sqi.net/img/categories_v2/food/deli_", "suffix": ".png"}, "primary": true}], "photos": {"count": 0, "groups": []}}, "referralId": "e-0-4ba2c7acf964a5209f1838e3-51"}, {"reasons": {"count": 0, "items": [{"summary": "This spot is popular", "type": "general", "reasonName": "globalInteractionReason"}]}, "venue": {"id": "597d07dd3149b97652231223", "name": "Pie Bar", "location": {"lat": 43.63817355603517, "lng": -79.38054644461133, "labeledLatLngs": [{"label": "display", "lat": 43.63817355603517, "lng": -79.38054644461133}], "distance": 309, "postalCode": "M5J 1A7", "cc": "CA", "city": "Toronto", "state": "ON", "country": "Canada", "formattedAddress": ["Toronto ON M5J 1A7", "Canada"]}, "categories": [{"id": "4bf58dd8d48988d1ca941735", "name": "Pizza Place", "pluralName": "Pizza Places", "shortName": "Pizza", "icon": {"prefix": "https://ss3.4sqi.net/img/categories_v2/food/pizza_", "suffix": ".png"}, "primary": true}], "photos": {"count": 0, "groups": []}}, "referralId": "e-0-597d07dd3149b97652231223-52"}, {"reasons": {"count": 0, "items": [{"summary": "This spot is popular", "type": "general", "reasonName": "globalInteractionReason"}]}, "venue": {"id": "51cf6105498e99bf4fc45d1b", "name": "Lavazza Espression", "location": {"address": "225 Queens Quay W.", "lat": 43.63953746292591, "lng": -79.38176322686563, "labeledLatLngs": [{"label": "display", "lat": 43.63953746292591, "lng": -79.38176322686563}], "distance": 142, "postalCode": "M5A 1B9", "cc": "CA", "city": "Toronto", "state": "ON", "country": "Canada", "formattedAddress": ["225 Queens Quay W.", "Toronto ON M5A 1B9", "Canada"]}, "categories": [{"id": "4bf58dd8d48988d1e0931735", "name": "Coffee Shop", "pluralName": "Coffee Shops", "shortName": "Coffee Shop", "icon": {"prefix": "https://ss3.4sqi.net/img/categories_v2/food/coffeeshop_", "suffix": ".png"}, "primary": true}], "photos": {"count": 0, "groups": []}}, "referralId": "e-0-51cf6105498e99bf4fc45d1b-53"}, {"reasons": {"count": 0, "items": [{"summary": "This spot is popular", "type": "general", "reasonName": "globalInteractionReason"}]}, "venue": {"id": "5c893d57a87921002c566a2d", "name": "Steam Whistle's Biergarten", "location": {"address": "255 Bremner Blvd", "lat": 43.64066595472727, "lng": -79.38585895302366, "labeledLatLngs": [{"label": "display", "lat": 43.64066595472727, "lng": -79.38585895302366}], "distance": 331, "postalCode": "M5V 3M9", "cc": "CA", "city": "Toronto", "state": "ON", "country": "Canada", "formattedAddress": ["255 Bremner Blvd", "Toronto ON M5V 3M9", "Canada"]}, "categories": [{"id": "4bf58dd8d48988d1c4941735", "name": "Restaurant", "pluralName": "Restaurants", "shortName": "Restaurant", "icon": {"prefix": "https://ss3.4sqi.net/img/categories_v2/food/default_", "suffix": ".png"}, "primary": true}], "photos": {"count": 0, "groups": []}}, "referralId": "e-0-5c893d57a87921002c566a2d-54"}, {"reasons": {"count": 0, "items": [{"summary": "This spot is popular", "type": "general", "reasonName": "globalInteractionReason"}]}, "venue": {"id": "5a37fcbf123a1968dcbc4fe2", "name": "Union Chicken", "location": {"lat": 43.64491185903613, "lng": -79.38232534702786, "labeledLatLngs": [{"label": "display", "lat": 43.64491185903613, "lng": -79.38232534702786}], "distance": 458, "postalCode": "M5J 2Z1", "cc": "CA", "city": "Toronto", "state": "ON", "country": "Canada", "formattedAddress": ["Toronto ON M5J 2Z1", "Canada"]}, "categories": [{"id": "4d4ae6fc7a7b7dea34424761", "name": "Fried Chicken Joint", "pluralName": "Fried Chicken Joints", "shortName": "Fried Chicken", "icon": {"prefix": "https://ss3.4sqi.net/img/categories_v2/food/friedchicken_", "suffix": ".png"}, "primary": true}], "photos": {"count": 0, "groups": []}}, "referralId": "e-0-5a37fcbf123a1968dcbc4fe2-55"}, {"reasons": {"count": 0, "items": [{"summary": "This spot is popular", "type": "general", "reasonName": "globalInteractionReason"}]}, "venue": {"id": "4d0faed7d467236a7291bf4a", "name": "Corks Beer & Wine Bar", "location": {"address": "15 York St", "lat": 43.64249338656422, "lng": -79.38154042927468, "labeledLatLngs": [{"label": "display", "lat": 43.64249338656422, "lng": -79.38154042927468}], "distance": 187, "cc": "CA", "city": "Toronto", "state": "ON", "country": "Canada", "formattedAddress": ["15 York St", "Toronto ON", "Canada"]}, "categories": [{"id": "4bf58dd8d48988d116941735", "name": "Bar", "pluralName": "Bars", "shortName": "Bar", "icon": {"prefix": "https://ss3.4sqi.net/img/categories_v2/nightlife/pub_", "suffix": ".png"}, "primary": true}], "photos": {"count": 0, "groups": []}}, "referralId": "e-0-4d0faed7d467236a7291bf4a-56"}, {"reasons": {"count": 0, "items": [{"summary": "This spot is popular", "type": "general", "reasonName": "globalInteractionReason"}]}, "venue": {"id": "4ad4c05cf964a520dff520e3", "name": "360 Restaurant", "location": {"address": "301 Front St W", "crossStreet": "301 Front St. W", "lat": 43.642537317144566, "lng": -79.38704201569328, "labeledLatLngs": [{"label": "display", "lat": 43.642537317144566, "lng": -79.38704201569328}], "distance": 467, "postalCode": "M5V 2T6", "cc": "CA", "city": "Toronto", "state": "ON", "country": "Canada", "formattedAddress": ["301 Front St W (301 Front St. W)", "Toronto ON M5V 2T6", "Canada"]}, "categories": [{"id": "4bf58dd8d48988d123941735", "name": "Wine Bar", "pluralName": "Wine Bars", "shortName": "Wine Bar", "icon": {"prefix": "https://ss3.4sqi.net/img/categories_v2/food/winery_", "suffix": ".png"}, "primary": true}], "photos": {"count": 0, "groups": []}}, "referralId": "e-0-4ad4c05cf964a520dff520e3-57"}, {"reasons": {"count": 0, "items": [{"summary": "This spot is popular", "type": "general", "reasonName": "globalInteractionReason"}]}, "venue": {"id": "57c76c1b498e26057391344c", "name": "Uncle Tetsu's Japanese Cheesecake", "location": {"lat": 43.64442750617172, "lng": -79.38131123056226, "labeledLatLngs": [{"label": "display", "lat": 43.64442750617172, "lng": -79.38131123056226}], "distance": 403, "postalCode": "M5J", "cc": "CA", "city": "Toronto", "state": "ON", "country": "Canada", "formattedAddress": ["Toronto ON M5J", "Canada"]}, "categories": [{"id": "4bf58dd8d48988d16a941735", "name": "Bakery", "pluralName": "Bakeries", "shortName": "Bakery", "icon": {"prefix": "https://ss3.4sqi.net/img/categories_v2/food/bakery_", "suffix": ".png"}, "primary": true}], "photos": {"count": 0, "groups": []}}, "referralId": "e-0-57c76c1b498e26057391344c-58"}, {"reasons": {"count": 0, "items": [{"summary": "This spot is popular", "type": "general", "reasonName": "globalInteractionReason"}]}, "venue": {"id": "4b8fd614f964a520b56433e3", "name": "Labatt Breweries of Canada", "location": {"address": "207 Queen\u2019s Quay West", "lat": 43.63828189167837, "lng": -79.38037771487727, "labeledLatLngs": [{"label": "display", "lat": 43.63828189167837, "lng": -79.38037771487727}], "distance": 303, "postalCode": "M5J 1A7", "cc": "CA", "city": "Toronto", "state": "ON", "country": "Canada", "formattedAddress": ["207 Queen\u2019s Quay West", "Toronto ON M5J 1A7", "Canada"]}, "categories": [{"id": "50327c8591d4c4b30a586d5d", "name": "Brewery", "pluralName": "Breweries", "shortName": "Brewery", "icon": {"prefix": "https://ss3.4sqi.net/img/categories_v2/food/brewery_", "suffix": ".png"}, "primary": true}], "photos": {"count": 0, "groups": []}}, "referralId": "e-0-4b8fd614f964a520b56433e3-59"}, {"reasons": {"count": 0, "items": [{"summary": "This spot is popular", "type": "general", "reasonName": "globalInteractionReason"}]}, "venue": {"id": "4ad7b757f964a520ff0d21e3", "name": "Harbour 60 Toronto", "location": {"address": "60 Harbour St", "crossStreet": "at Yonge St.", "lat": 43.64222021431867, "lng": -79.37794459004243, "labeledLatLngs": [{"label": "display", "lat": 43.64222021431867, "lng": -79.37794459004243}], "distance": 344, "postalCode": "M5J 1B7", "cc": "CA", "city": "Toronto", "state": "ON", "country": "Canada", "formattedAddress": ["60 Harbour St (at Yonge St.)", "Toronto ON M5J 1B7", "Canada"]}, "categories": [{"id": "4bf58dd8d48988d1cc941735", "name": "Steakhouse", "pluralName": "Steakhouses", "shortName": "Steakhouse", "icon": {"prefix": "https://ss3.4sqi.net/img/categories_v2/food/steakhouse_", "suffix": ".png"}, "primary": true}], "photos": {"count": 0, "groups": []}, "venuePage": {"id": "540371736"}}, "referralId": "e-0-4ad7b757f964a520ff0d21e3-60"}, {"reasons": {"count": 0, "items": [{"summary": "This spot is popular", "type": "general", "reasonName": "globalInteractionReason"}]}, "venue": {"id": "501d4d55e4b0825080212f3c", "name": "Gonoe Sushi Japanese Restaurant", "location": {"address": "262 Queens Quay W", "lat": 43.63901430970685, "lng": -79.38591360078077, "labeledLatLngs": [{"label": "display", "lat": 43.63901430970685, "lng": -79.38591360078077}], "distance": 390, "cc": "CA", "city": "Toronto", "state": "ON", "country": "Canada", "formattedAddress": ["262 Queens Quay W", "Toronto ON", "Canada"]}, "categories": [{"id": "4bf58dd8d48988d1d2941735", "name": "Sushi Restaurant", "pluralName": "Sushi Restaurants", "shortName": "Sushi", "icon": {"prefix": "https://ss3.4sqi.net/img/categories_v2/food/sushi_", "suffix": ".png"}, "primary": true}], "photos": {"count": 0, "groups": []}}, "referralId": "e-0-501d4d55e4b0825080212f3c-61"}, {"reasons": {"count": 0, "items": [{"summary": "This spot is popular", "type": "general", "reasonName": "globalInteractionReason"}]}, "venue": {"id": "58f8165f6bd36b5411c96dd9", "name": "Glass Floor", "location": {"lat": 43.642643117348996, "lng": -79.38694780301735, "labeledLatLngs": [{"label": "display", "lat": 43.642643117348996, "lng": -79.38694780301735}], "distance": 465, "postalCode": "M5V 2T6", "cc": "CA", "city": "Toronto", "state": "ON", "country": "Canada", "formattedAddress": ["Toronto ON M5V 2T6", "Canada"]}, "categories": [{"id": "4bf58dd8d48988d165941735", "name": "Scenic Lookout", "pluralName": "Scenic Lookouts", "shortName": "Scenic Lookout", "icon": {"prefix": "https://ss3.4sqi.net/img/categories_v2/parks_outdoors/sceniclookout_", "suffix": ".png"}, "primary": true}], "photos": {"count": 0, "groups": []}}, "referralId": "e-0-58f8165f6bd36b5411c96dd9-62"}, {"reasons": {"count": 0, "items": [{"summary": "This spot is popular", "type": "general", "reasonName": "globalInteractionReason"}]}, "venue": {"id": "5481b06c498ee191fa045a00", "name": "Kupfert & Kim", "location": {"address": "88 Queens Quay W", "crossStreet": "Queens Quay & Bay Street", "lat": 43.64117858582677, "lng": -79.37814448224783, "labeledLatLngs": [{"label": "display", "lat": 43.64117858582677, "lng": -79.37814448224783}], "distance": 293, "cc": "CA", "neighborhood": "Harbourfront", "city": "Toronto", "state": "ON", "country": "Canada", "formattedAddress": ["88 Queens Quay W (Queens Quay & Bay Street)", "Toronto ON", "Canada"]}, "categories": [{"id": "4bf58dd8d48988d1d3941735", "name": "Vegetarian / Vegan Restaurant", "pluralName": "Vegetarian / Vegan Restaurants", "shortName": "Vegetarian / Vegan", "icon": {"prefix": "https://ss3.4sqi.net/img/categories_v2/food/vegetarian_", "suffix": ".png"}, "primary": true}], "photos": {"count": 0, "groups": []}}, "referralId": "e-0-5481b06c498ee191fa045a00-63"}, {"reasons": {"count": 0, "items": [{"summary": "This spot is popular", "type": "general", "reasonName": "globalInteractionReason"}]}, "venue": {"id": "4b83ddb4f964a5204f1431e3", "name": "Starbucks", "location": {"address": "120 Bremner Blvd", "crossStreet": "in Telus Tower", "lat": 43.64309, "lng": -79.383071, "labeledLatLngs": [{"label": "display", "lat": 43.64309, "lng": -79.383071}], "distance": 274, "postalCode": "M5J 0A8", "cc": "CA", "city": "Toronto", "state": "ON", "country": "Canada", "formattedAddress": ["120 Bremner Blvd (in Telus Tower)", "Toronto ON M5J 0A8", "Canada"]}, "categories": [{"id": "4bf58dd8d48988d1e0931735", "name": "Coffee Shop", "pluralName": "Coffee Shops", "shortName": "Coffee Shop", "icon": {"prefix": "https://ss3.4sqi.net/img/categories_v2/food/coffeeshop_", "suffix": ".png"}, "primary": true}], "photos": {"count": 0, "groups": []}}, "referralId": "e-0-4b83ddb4f964a5204f1431e3-64"}, {"reasons": {"count": 0, "items": [{"summary": "This spot is popular", "type": "general", "reasonName": "globalInteractionReason"}]}, "venue": {"id": "55a40a8e498e0819937a8534", "name": "Aroma Espresso Bar", "location": {"address": "88 Queens Quay", "crossStreet": "Bay", "lat": 43.64074017304165, "lng": -79.37847790115718, "labeledLatLngs": [{"label": "display", "lat": 43.64074017304165, "lng": -79.37847790115718}], "distance": 263, "cc": "CA", "city": "Toronto", "state": "ON", "country": "Canada", "formattedAddress": ["88 Queens Quay (Bay)", "Toronto ON", "Canada"]}, "categories": [{"id": "4bf58dd8d48988d1e0931735", "name": "Coffee Shop", "pluralName": "Coffee Shops", "shortName": "Coffee Shop", "icon": {"prefix": "https://ss3.4sqi.net/img/categories_v2/food/coffeeshop_", "suffix": ".png"}, "primary": true}], "photos": {"count": 0, "groups": []}}, "referralId": "e-0-55a40a8e498e0819937a8534-65"}, {"reasons": {"count": 0, "items": [{"summary": "This spot is popular", "type": "general", "reasonName": "globalInteractionReason"}]}, "venue": {"id": "4ada6dfcf964a520842221e3", "name": "Starbucks", "location": {"address": "208 Queens Quay W", "crossStreet": "at York St", "lat": 43.640257, "lng": -79.381731, "labeledLatLngs": [{"label": "display", "lat": 43.640257, "lng": -79.381731}], "distance": 62, "postalCode": "M5J 2Y1", "cc": "CA", "city": "Toronto", "state": "ON", "country": "Canada", "formattedAddress": ["208 Queens Quay W (at York St)", "Toronto ON M5J 2Y1", "Canada"]}, "categories": [{"id": "4bf58dd8d48988d1e0931735", "name": "Coffee Shop", "pluralName": "Coffee Shops", "shortName": "Coffee Shop", "icon": {"prefix": "https://ss3.4sqi.net/img/categories_v2/food/coffeeshop_", "suffix": ".png"}, "primary": true}], "photos": {"count": 0, "groups": []}}, "referralId": "e-0-4ada6dfcf964a520842221e3-66"}, {"reasons": {"count": 0, "items": [{"summary": "This spot is popular", "type": "general", "reasonName": "globalInteractionReason"}]}, "venue": {"id": "5671974c498e35b7bd0517a4", "name": "Canadian Waters", "location": {"address": "Ripley's Aquarium Of Canada", "lat": 43.64210325443365, "lng": -79.3862534013201, "labeledLatLngs": [{"label": "display", "lat": 43.64210325443365, "lng": -79.3862534013201}], "distance": 389, "cc": "CA", "country": "Canada", "formattedAddress": ["Ripley's Aquarium Of Canada", "Canada"]}, "categories": [{"id": "4fceea171983d5d06c3e9823", "name": "Aquarium", "pluralName": "Aquariums", "shortName": "Aquarium", "icon": {"prefix": "https://ss3.4sqi.net/img/categories_v2/arts_entertainment/aquarium_", "suffix": ".png"}, "primary": true}], "photos": {"count": 0, "groups": []}}, "referralId": "e-0-5671974c498e35b7bd0517a4-67"}, {"reasons": {"count": 0, "items": [{"summary": "This spot is popular", "type": "general", "reasonName": "globalInteractionReason"}]}, "venue": {"id": "53af56a1498ee47d2a3a06d7", "name": "Tim Hortons", "location": {"address": "249 Queens Quay West", "crossStreet": "Rees Street", "lat": 43.6387246, "lng": -79.3863403, "labeledLatLngs": [{"label": "display", "lat": 43.6387246, "lng": -79.3863403}], "distance": 436, "postalCode": "M5V 1A2", "cc": "CA", "city": "Toronto", "state": "ON", "country": "Canada", "formattedAddress": ["249 Queens Quay West (Rees Street)", "Toronto ON M5V 1A2", "Canada"]}, "categories": [{"id": "4bf58dd8d48988d1e0931735", "name": "Coffee Shop", "pluralName": "Coffee Shops", "shortName": "Coffee Shop", "icon": {"prefix": "https://ss3.4sqi.net/img/categories_v2/food/coffeeshop_", "suffix": ".png"}, "primary": true}], "photos": {"count": 0, "groups": []}}, "referralId": "e-0-53af56a1498ee47d2a3a06d7-68"}, {"reasons": {"count": 0, "items": [{"summary": "This spot is popular", "type": "general", "reasonName": "globalInteractionReason"}]}, "venue": {"id": "4be81c74ee96c92873a7fdbf", "name": "Sushi Shop", "location": {"address": "25 York St", "crossStreet": "in Telus Tower", "lat": 43.643485, "lng": -79.38096, "labeledLatLngs": [{"label": "display", "lat": 43.643485, "lng": -79.38096}], "distance": 303, "postalCode": "M5J 2V5", "cc": "CA", "city": "Toronto", "state": "ON", "country": "Canada", "formattedAddress": ["25 York St (in Telus Tower)", "Toronto ON M5J 2V5", "Canada"]}, "categories": [{"id": "4bf58dd8d48988d1c4941735", "name": "Restaurant", "pluralName": "Restaurants", "shortName": "Restaurant", "icon": {"prefix": "https://ss3.4sqi.net/img/categories_v2/food/default_", "suffix": ".png"}, "primary": true}], "photos": {"count": 0, "groups": []}}, "referralId": "e-0-4be81c74ee96c92873a7fdbf-69"}, {"reasons": {"count": 0, "items": [{"summary": "This spot is popular", "type": "general", "reasonName": "globalInteractionReason"}]}, "venue": {"id": "567197b5498ec3d948d60864", "name": "Rainbow Reef", "location": {"address": "Ripley's Aquarium Of Canada", "lat": 43.64226, "lng": -79.385994, "labeledLatLngs": [{"label": "display", "lat": 43.64226, "lng": -79.385994}], "distance": 377, "cc": "CA", "country": "Canada", "formattedAddress": ["Ripley's Aquarium Of Canada", "Canada"]}, "categories": [{"id": "4fceea171983d5d06c3e9823", "name": "Aquarium", "pluralName": "Aquariums", "shortName": "Aquarium", "icon": {"prefix": "https://ss3.4sqi.net/img/categories_v2/arts_entertainment/aquarium_", "suffix": ".png"}, "primary": true}], "photos": {"count": 0, "groups": []}}, "referralId": "e-0-567197b5498ec3d948d60864-70"}, {"reasons": {"count": 0, "items": [{"summary": "This spot is popular", "type": "general", "reasonName": "globalInteractionReason"}]}, "venue": {"id": "5a23467c47f8762eb7bdfc90", "name": "Amano Pasta", "location": {"address": "65 FRONT ST W", "lat": 43.64491852117436, "lng": -79.38235777637108, "labeledLatLngs": [{"label": "display", "lat": 43.64491852117436, "lng": -79.38235777637108}], "distance": 459, "postalCode": "M5J", "cc": "CA", "city": "Toronto", "state": "ON", "country": "Canada", "formattedAddress": ["65 FRONT ST W", "Toronto ON M5J", "Canada"]}, "categories": [{"id": "4bf58dd8d48988d110941735", "name": "Italian Restaurant", "pluralName": "Italian Restaurants", "shortName": "Italian", "icon": {"prefix": "https://ss3.4sqi.net/img/categories_v2/food/italian_", "suffix": ".png"}, "primary": true}], "photos": {"count": 0, "groups": []}}, "referralId": "e-0-5a23467c47f8762eb7bdfc90-71"}, {"reasons": {"count": 0, "items": [{"summary": "This spot is popular", "type": "general", "reasonName": "globalInteractionReason"}]}, "venue": {"id": "554cab45498e01d1a2080230", "name": "Starbucks", "location": {"address": "120 Bremner St", "crossStreet": "York St", "lat": 43.64265659071355, "lng": -79.3833577475679, "labeledLatLngs": [{"label": "display", "lat": 43.64265659071355, "lng": -79.3833577475679}], "distance": 242, "cc": "CA", "city": "Toronto", "state": "ON", "country": "Canada", "formattedAddress": ["120 Bremner St (York St)", "Toronto ON", "Canada"]}, "categories": [{"id": "4bf58dd8d48988d1e0931735", "name": "Coffee Shop", "pluralName": "Coffee Shops", "shortName": "Coffee Shop", "icon": {"prefix": "https://ss3.4sqi.net/img/categories_v2/food/coffeeshop_", "suffix": ".png"}, "primary": true}], "photos": {"count": 0, "groups": []}}, "referralId": "e-0-554cab45498e01d1a2080230-72"}, {"reasons": {"count": 0, "items": [{"summary": "This spot is popular", "type": "general", "reasonName": "globalInteractionReason"}]}, "venue": {"id": "534af3d411d24fecc553d2f3", "name": "Radisson Admiral Hotel Toronto-Harbourfront", "location": {"address": "249 Queen's Quay West", "lat": 43.6386727, "lng": -79.3857168, "labeledLatLngs": [{"label": "display", "lat": 43.6386727, "lng": -79.3857168}], "distance": 398, "postalCode": "M5J 2N5", "cc": "CA", "city": "Toronto", "state": "ON", "country": "Canada", "formattedAddress": ["249 Queen's Quay West", "Toronto ON M5J 2N5", "Canada"]}, "categories": [{"id": "4bf58dd8d48988d1fa931735", "name": "Hotel", "pluralName": "Hotels", "shortName": "Hotel", "icon": {"prefix": "https://ss3.4sqi.net/img/categories_v2/travel/hotel_", "suffix": ".png"}, "primary": true}], "photos": {"count": 0, "groups": []}, "venuePage": {"id": "464933585"}}, "referralId": "e-0-534af3d411d24fecc553d2f3-73"}, {"reasons": {"count": 0, "items": [{"summary": "This spot is popular", "type": "general", "reasonName": "globalInteractionReason"}]}, "venue": {"id": "4ad4c05bf964a5209bf520e3", "name": "The Westin Harbour Castle, Toronto", "location": {"address": "1 Harbour Square", "crossStreet": "at Bay St", "lat": 43.64121139206991, "lng": -79.37574863433838, "labeledLatLngs": [{"label": "display", "lat": 43.64121139206991, "lng": -79.37574863433838}], "distance": 485, "postalCode": "M5J 1A6", "cc": "CA", "city": "Toronto", "state": "ON", "country": "Canada", "formattedAddress": ["1 Harbour Square (at Bay St)", "Toronto ON M5J 1A6", "Canada"]}, "categories": [{"id": "4bf58dd8d48988d1fa931735", "name": "Hotel", "pluralName": "Hotels", "shortName": "Hotel", "icon": {"prefix": "https://ss3.4sqi.net/img/categories_v2/travel/hotel_", "suffix": ".png"}, "primary": true}], "photos": {"count": 0, "groups": []}}, "referralId": "e-0-4ad4c05bf964a5209bf520e3-74"}, {"reasons": {"count": 0, "items": [{"summary": "This spot is popular", "type": "general", "reasonName": "globalInteractionReason"}]}, "venue": {"id": "59a0c566fc9e941199511d9f", "name": "Kellys Landing", "location": {"address": "123 Front St W", "lat": 43.64500578241027, "lng": -79.3826604817129, "labeledLatLngs": [{"label": "display", "lat": 43.64500578241027, "lng": -79.3826604817129}], "distance": 472, "postalCode": "M5J 2M2", "cc": "CA", "neighborhood": "Downtown Toronto, Toronto, ON", "city": "Toronto", "state": "ON", "country": "Canada", "formattedAddress": ["123 Front St W", "Toronto ON M5J 2M2", "Canada"]}, "categories": [{"id": "4bf58dd8d48988d1c4941735", "name": "Restaurant", "pluralName": "Restaurants", "shortName": "Restaurant", "icon": {"prefix": "https://ss3.4sqi.net/img/categories_v2/food/default_", "suffix": ".png"}, "primary": true}], "photos": {"count": 0, "groups": []}}, "referralId": "e-0-59a0c566fc9e941199511d9f-75"}, {"reasons": {"count": 0, "items": [{"summary": "This spot is popular", "type": "general", "reasonName": "globalInteractionReason"}]}, "venue": {"id": "50b79b94e4b0a577af25a83f", "name": "Indian Roti House", "location": {"address": "256 Queens Quay W", "crossStreet": "btwn Rees St & Lower Simcoe S", "lat": 43.63906038875002, "lng": -79.38542224544638, "labeledLatLngs": [{"label": "display", "lat": 43.63906038875002, "lng": -79.38542224544638}], "distance": 354, "postalCode": "M5J 1B5", "cc": "CA", "city": "Toronto", "state": "ON", "country": "Canada", "formattedAddress": ["256 Queens Quay W (btwn Rees St & Lower Simcoe S)", "Toronto ON M5J 1B5", "Canada"]}, "categories": [{"id": "4bf58dd8d48988d10f941735", "name": "Indian Restaurant", "pluralName": "Indian Restaurants", "shortName": "Indian", "icon": {"prefix": "https://ss3.4sqi.net/img/categories_v2/food/indian_", "suffix": ".png"}, "primary": true}], "photos": {"count": 0, "groups": []}, "venuePage": {"id": "43722371"}}, "referralId": "e-0-50b79b94e4b0a577af25a83f-76"}, {"reasons": {"count": 0, "items": [{"summary": "This spot is popular", "type": "general", "reasonName": "globalInteractionReason"}]}, "venue": {"id": "4e62a4a08877954de84c94c4", "name": "World Caf\u00e9 at Harbourfront Centre", "location": {"address": "235 Queens Quay W", "lat": 43.63834730048568, "lng": -79.383045755058, "labeledLatLngs": [{"label": "display", "lat": 43.63834730048568, "lng": -79.383045755058}], "distance": 293, "cc": "CA", "city": "Toronto", "state": "ON", "country": "Canada", "formattedAddress": ["235 Queens Quay W", "Toronto ON", "Canada"]}, "categories": [{"id": "4bf58dd8d48988d16d941735", "name": "Caf\u00e9", "pluralName": "Caf\u00e9s", "shortName": "Caf\u00e9", "icon": {"prefix": "https://ss3.4sqi.net/img/categories_v2/food/cafe_", "suffix": ".png"}, "primary": true}], "photos": {"count": 0, "groups": []}}, "referralId": "e-0-4e62a4a08877954de84c94c4-77"}, {"reasons": {"count": 0, "items": [{"summary": "This spot is popular", "type": "general", "reasonName": "globalInteractionReason"}]}, "venue": {"id": "561c0f49498e5a2eb51af02b", "name": "Toronto Railway Museum", "location": {"lat": 43.64074506722835, "lng": -79.38598104134535, "labeledLatLngs": [{"label": "display", "lat": 43.64074506722835, "lng": -79.38598104134535}], "distance": 340, "cc": "CA", "city": "Toronto", "state": "ON", "country": "Canada", "formattedAddress": ["Toronto ON", "Canada"]}, "categories": [{"id": "4bf58dd8d48988d190941735", "name": "History Museum", "pluralName": "History Museums", "shortName": "History Museum", "icon": {"prefix": "https://ss3.4sqi.net/img/categories_v2/arts_entertainment/museum_history_", "suffix": ".png"}, "primary": true}], "photos": {"count": 0, "groups": []}}, "referralId": "e-0-561c0f49498e5a2eb51af02b-78"}, {"reasons": {"count": 0, "items": [{"summary": "This spot is popular", "type": "general", "reasonName": "globalInteractionReason"}]}, "venue": {"id": "4b8ff46bf964a520f46b33e3", "name": "Panago", "location": {"address": "133 Bremner Blvd.", "lat": 43.64251764051932, "lng": -79.38359138522554, "labeledLatLngs": [{"label": "display", "lat": 43.64251764051932, "lng": -79.38359138522554}], "distance": 240, "postalCode": "M5J 3A7", "cc": "CA", "city": "Toronto", "state": "ON", "country": "Canada", "formattedAddress": ["133 Bremner Blvd.", "Toronto ON M5J 3A7", "Canada"]}, "categories": [{"id": "4bf58dd8d48988d1ca941735", "name": "Pizza Place", "pluralName": "Pizza Places", "shortName": "Pizza", "icon": {"prefix": "https://ss3.4sqi.net/img/categories_v2/food/pizza_", "suffix": ".png"}, "primary": true}], "photos": {"count": 0, "groups": []}}, "referralId": "e-0-4b8ff46bf964a520f46b33e3-79"}, {"reasons": {"count": 0, "items": [{"summary": "This spot is popular", "type": "general", "reasonName": "globalInteractionReason"}]}, "venue": {"id": "5526b50e498e3acfe3916daf", "name": "Buster's Sea Cove", "location": {"address": "120 Bremner Blvd.", "lat": 43.642636994917666, "lng": -79.38337001427526, "labeledLatLngs": [{"label": "display", "lat": 43.642636994917666, "lng": -79.38337001427526}], "distance": 241, "cc": "CA", "city": "Toronto", "state": "ON", "country": "Canada", "formattedAddress": ["120 Bremner Blvd.", "Toronto ON", "Canada"]}, "categories": [{"id": "4bf58dd8d48988d1ce941735", "name": "Seafood Restaurant", "pluralName": "Seafood Restaurants", "shortName": "Seafood", "icon": {"prefix": "https://ss3.4sqi.net/img/categories_v2/food/seafood_", "suffix": ".png"}, "primary": true}], "photos": {"count": 0, "groups": []}}, "referralId": "e-0-5526b50e498e3acfe3916daf-80"}, {"reasons": {"count": 0, "items": [{"summary": "This spot is popular", "type": "general", "reasonName": "globalInteractionReason"}]}, "venue": {"id": "4b10746cf964a520ca7023e3", "name": "Enwave Theatre", "location": {"address": "231 Queen's Quay W", "lat": 43.63863608843057, "lng": -79.38229942602973, "labeledLatLngs": [{"label": "display", "lat": 43.63863608843057, "lng": -79.38229942602973}], "distance": 246, "cc": "CA", "city": "Toronto", "state": "ON", "country": "Canada", "formattedAddress": ["231 Queen's Quay W", "Toronto ON", "Canada"]}, "categories": [{"id": "4bf58dd8d48988d137941735", "name": "Theater", "pluralName": "Theaters", "shortName": "Theater", "icon": {"prefix": "https://ss3.4sqi.net/img/categories_v2/arts_entertainment/performingarts_theater_", "suffix": ".png"}, "primary": true}], "photos": {"count": 0, "groups": []}}, "referralId": "e-0-4b10746cf964a520ca7023e3-81"}, {"reasons": {"count": 0, "items": [{"summary": "This spot is popular", "type": "general", "reasonName": "globalInteractionReason"}]}, "venue": {"id": "5669c9fd498e28dcd049abbd", "name": "McCaf\u00e9", "location": {"address": "61 Front St West", "crossStreet": "York St", "lat": 43.644490691919735, "lng": -79.38110912246584, "labeledLatLngs": [{"label": "display", "lat": 43.644490691919735, "lng": -79.38110912246584}], "distance": 412, "postalCode": "M5J 1E6", "cc": "CA", "city": "Toronto", "state": "ON", "country": "Canada", "formattedAddress": ["61 Front St West (York St)", "Toronto ON M5J 1E6", "Canada"]}, "categories": [{"id": "4bf58dd8d48988d16d941735", "name": "Caf\u00e9", "pluralName": "Caf\u00e9s", "shortName": "Caf\u00e9", "icon": {"prefix": "https://ss3.4sqi.net/img/categories_v2/food/cafe_", "suffix": ".png"}, "primary": true}], "photos": {"count": 0, "groups": []}}, "referralId": "e-0-5669c9fd498e28dcd049abbd-82"}, {"reasons": {"count": 0, "items": [{"summary": "This spot is popular", "type": "general", "reasonName": "globalInteractionReason"}]}, "venue": {"id": "5c268f8f8a6f17002c32acce", "name": "Dollarama", "location": {"address": "1 York St", "lat": 43.641765, "lng": -79.379589, "labeledLatLngs": [{"label": "display", "lat": 43.641765, "lng": -79.379589}], "distance": 203, "postalCode": "M5J 0B6", "cc": "CA", "city": "Toronto", "state": "ON", "country": "Canada", "formattedAddress": ["1 York St", "Toronto ON M5J 0B6", "Canada"]}, "categories": [{"id": "52dea92d3cf9994f4e043dbb", "name": "Discount Store", "pluralName": "Discount Stores", "shortName": "Discount Store", "icon": {"prefix": "https://ss3.4sqi.net/img/categories_v2/shops/discountstore_", "suffix": ".png"}, "primary": true}], "photos": {"count": 0, "groups": []}}, "referralId": "e-0-5c268f8f8a6f17002c32acce-83"}, {"reasons": {"count": 0, "items": [{"summary": "This spot is popular", "type": "general", "reasonName": "globalInteractionReason"}]}, "venue": {"id": "5a0f2414c3658815295727a5", "name": "The Danish Pastry House", "location": {"address": "65 Front St W", "crossStreet": "York", "lat": 43.64526188121351, "lng": -79.38084966956498, "labeledLatLngs": [{"label": "display", "lat": 43.64526188121351, "lng": -79.38084966956498}], "distance": 500, "postalCode": "M5X 4A6", "cc": "CA", "city": "Toronto", "state": "ON", "country": "Canada", "formattedAddress": ["65 Front St W (York)", "Toronto ON M5X 4A6", "Canada"]}, "categories": [{"id": "4bf58dd8d48988d16a941735", "name": "Bakery", "pluralName": "Bakeries", "shortName": "Bakery", "icon": {"prefix": "https://ss3.4sqi.net/img/categories_v2/food/bakery_", "suffix": ".png"}, "primary": true}], "photos": {"count": 0, "groups": []}}, "referralId": "e-0-5a0f2414c3658815295727a5-84"}, {"reasons": {"count": 0, "items": [{"summary": "This spot is popular", "type": "general", "reasonName": "globalInteractionReason"}]}, "venue": {"id": "4c927dd2418ea1cd576aa585", "name": "Starbucks", "location": {"address": "123 Front St W", "crossStreet": "at University Ave.", "lat": 43.64510181136508, "lng": -79.38360972232998, "labeledLatLngs": [{"label": "display", "lat": 43.64510181136508, "lng": -79.38360972232998}], "distance": 500, "postalCode": "M5J 2M2", "cc": "CA", "city": "Toronto", "state": "ON", "country": "Canada", "formattedAddress": ["123 Front St W (at University Ave.)", "Toronto ON M5J 2M2", "Canada"]}, "categories": [{"id": "4bf58dd8d48988d1e0931735", "name": "Coffee Shop", "pluralName": "Coffee Shops", "shortName": "Coffee Shop", "icon": {"prefix": "https://ss3.4sqi.net/img/categories_v2/food/coffeeshop_", "suffix": ".png"}, "primary": true}], "photos": {"count": 0, "groups": []}}, "referralId": "e-0-4c927dd2418ea1cd576aa585-85"}, {"reasons": {"count": 0, "items": [{"summary": "This spot is popular", "type": "general", "reasonName": "globalInteractionReason"}]}, "venue": {"id": "4ba3d8def964a520086638e3", "name": "Tim Hortons", "location": {"address": "207 Queens Quay", "crossStreet": "on Queen's Quay Terminal", "lat": 43.63882773618699, "lng": -79.38037276268005, "labeledLatLngs": [{"label": "display", "lat": 43.63882773618699, "lng": -79.38037276268005}], "distance": 247, "postalCode": "M5J 1A7", "cc": "CA", "city": "Toronto", "state": "ON", "country": "Canada", "formattedAddress": ["207 Queens Quay (on Queen's Quay Terminal)", "Toronto ON M5J 1A7", "Canada"]}, "categories": [{"id": "4bf58dd8d48988d1e0931735", "name": "Coffee Shop", "pluralName": "Coffee Shops", "shortName": "Coffee Shop", "icon": {"prefix": "https://ss3.4sqi.net/img/categories_v2/food/coffeeshop_", "suffix": ".png"}, "primary": true}], "photos": {"count": 0, "groups": []}}, "referralId": "e-0-4ba3d8def964a520086638e3-86"}, {"reasons": {"count": 0, "items": [{"summary": "This spot is popular", "type": "general", "reasonName": "globalInteractionReason"}]}, "venue": {"id": "5ac3763afebf311c5484e49f", "name": "Winners", "location": {"address": "1 York St", "crossStreet": "Harbour St", "lat": 43.64206291678669, "lng": -79.37900143460836, "labeledLatLngs": [{"label": "display", "lat": 43.64206291678669, "lng": -79.37900143460836}], "distance": 261, "postalCode": "M5J 3B2", "cc": "CA", "neighborhood": "Harbourfront", "city": "Toronto", "state": "ON", "country": "Canada", "formattedAddress": ["1 York St (Harbour St)", "Toronto ON M5J 3B2", "Canada"]}, "categories": [{"id": "4bf58dd8d48988d1f6941735", "name": "Department Store", "pluralName": "Department Stores", "shortName": "Department Store", "icon": {"prefix": "https://ss3.4sqi.net/img/categories_v2/shops/departmentstore_", "suffix": ".png"}, "primary": true}], "photos": {"count": 0, "groups": []}}, "referralId": "e-0-5ac3763afebf311c5484e49f-87"}, {"reasons": {"count": 0, "items": [{"summary": "This spot is popular", "type": "general", "reasonName": "globalInteractionReason"}]}, "venue": {"id": "4fd71d33e4b0b5e7100bfde6", "name": "The Chartroom Bar & Lounge", "location": {"address": "1 Harbor Square", "lat": 43.640485908474695, "lng": -79.37604353917551, "labeledLatLngs": [{"label": "display", "lat": 43.640485908474695, "lng": -79.37604353917551}], "distance": 461, "cc": "CA", "city": "Toronto", "state": "ON", "country": "Canada", "formattedAddress": ["1 Harbor Square", "Toronto ON", "Canada"]}, "categories": [{"id": "4bf58dd8d48988d1d5941735", "name": "Hotel Bar", "pluralName": "Hotel Bars", "shortName": "Hotel Bar", "icon": {"prefix": "https://ss3.4sqi.net/img/categories_v2/travel/hotel_bar_", "suffix": ".png"}, "primary": true}], "photos": {"count": 0, "groups": []}}, "referralId": "e-0-4fd71d33e4b0b5e7100bfde6-88"}, {"reasons": {"count": 0, "items": [{"summary": "This spot is popular", "type": "general", "reasonName": "globalInteractionReason"}]}, "venue": {"id": "4d93325e7ac3a35d43b8d025", "name": "Toronto Blue Jays Box Office", "location": {"address": "Rogers Centre", "lat": 43.64241616569043, "lng": -79.38586232130253, "labeledLatLngs": [{"label": "display", "lat": 43.64241616569043, "lng": -79.38586232130253}], "distance": 375, "cc": "CA", "city": "Toronto", "state": "ON", "country": "Canada", "formattedAddress": ["Rogers Centre", "Toronto ON", "Canada"]}, "categories": [{"id": "4bf58dd8d48988d18c941735", "name": "Baseball Stadium", "pluralName": "Baseball Stadiums", "shortName": "Baseball", "icon": {"prefix": "https://ss3.4sqi.net/img/categories_v2/arts_entertainment/stadium_baseball_", "suffix": ".png"}, "primary": true}], "photos": {"count": 0, "groups": []}}, "referralId": "e-0-4d93325e7ac3a35d43b8d025-89"}, {"reasons": {"count": 0, "items": [{"summary": "This spot is popular", "type": "general", "reasonName": "globalInteractionReason"}]}, "venue": {"id": "5b9299663d479100392ebe10", "name": "Popeyes Louisiana Kitchen", "location": {"address": "208 Queens Quay W", "lat": 43.639864, "lng": -79.381136, "labeledLatLngs": [{"label": "display", "lat": 43.639864, "lng": -79.381136}], "distance": 116, "postalCode": "M5J 2Y5", "cc": "CA", "city": "Toronto", "state": "ON", "country": "Canada", "formattedAddress": ["208 Queens Quay W", "Toronto ON M5J 2Y5", "Canada"]}, "categories": [{"id": "4d4ae6fc7a7b7dea34424761", "name": "Fried Chicken Joint", "pluralName": "Fried Chicken Joints", "shortName": "Fried Chicken", "icon": {"prefix": "https://ss3.4sqi.net/img/categories_v2/food/friedchicken_", "suffix": ".png"}, "primary": true}], "photos": {"count": 0, "groups": []}}, "referralId": "e-0-5b9299663d479100392ebe10-90"}, {"reasons": {"count": 0, "items": [{"summary": "This spot is popular", "type": "general", "reasonName": "globalInteractionReason"}]}, "venue": {"id": "4c38f4103849c9285a76c0b1", "name": "Redpath Stage", "location": {"address": "235 Queens Quay W", "crossStreet": "at Harbourfront Centre", "lat": 43.63876358449261, "lng": -79.38331731184844, "labeledLatLngs": [{"label": "display", "lat": 43.63876358449261, "lng": -79.38331731184844}], "distance": 260, "cc": "CA", "city": "Toronto", "state": "ON", "country": "Canada", "formattedAddress": ["235 Queens Quay W (at Harbourfront Centre)", "Toronto ON", "Canada"]}, "categories": [{"id": "4bf58dd8d48988d1e5931735", "name": "Music Venue", "pluralName": "Music Venues", "shortName": "Music Venue", "icon": {"prefix": "https://ss3.4sqi.net/img/categories_v2/arts_entertainment/musicvenue_", "suffix": ".png"}, "primary": true}], "photos": {"count": 0, "groups": []}}, "referralId": "e-0-4c38f4103849c9285a76c0b1-91"}, {"reasons": {"count": 0, "items": [{"summary": "This spot is popular", "type": "general", "reasonName": "globalInteractionReason"}]}, "venue": {"id": "5bfed453894eac002ce0fde5", "name": "Union Food Court", "location": {"lat": 43.644596060712175, "lng": -79.3811995633232, "labeledLatLngs": [{"label": "display", "lat": 43.644596060712175, "lng": -79.3811995633232}], "distance": 423, "postalCode": "M5J 1E6", "cc": "CA", "city": "Toronto", "state": "ON", "country": "Canada", "formattedAddress": ["Toronto ON M5J 1E6", "Canada"]}, "categories": [{"id": "4bf58dd8d48988d120951735", "name": "Food Court", "pluralName": "Food Courts", "shortName": "Food Court", "icon": {"prefix": "https://ss3.4sqi.net/img/categories_v2/shops/food_foodcourt_", "suffix": ".png"}, "primary": true}], "photos": {"count": 0, "groups": []}}, "referralId": "e-0-5bfed453894eac002ce0fde5-92"}, {"reasons": {"count": 0, "items": [{"summary": "This spot is popular", "type": "general", "reasonName": "globalInteractionReason"}]}, "venue": {"id": "4f15c767e4b0380207013250", "name": "Chipotle Mexican Grill", "location": {"address": "123 Front St W, Unit 103", "crossStreet": "at University Ave", "lat": 43.64489, "lng": -79.38305, "labeledLatLngs": [{"label": "display", "lat": 43.64489, "lng": -79.38305}], "distance": 465, "postalCode": "M5J 2M2", "cc": "CA", "city": "Toronto", "state": "ON", "country": "Canada", "formattedAddress": ["123 Front St W, Unit 103 (at University Ave)", "Toronto ON M5J 2M2", "Canada"]}, "categories": [{"id": "4bf58dd8d48988d1c1941735", "name": "Mexican Restaurant", "pluralName": "Mexican Restaurants", "shortName": "Mexican", "icon": {"prefix": "https://ss3.4sqi.net/img/categories_v2/food/mexican_", "suffix": ".png"}, "primary": true}], "photos": {"count": 0, "groups": []}}, "referralId": "e-0-4f15c767e4b0380207013250-93"}, {"reasons": {"count": 0, "items": [{"summary": "This spot is popular", "type": "general", "reasonName": "globalInteractionReason"}]}, "venue": {"id": "56cf4d80498ebf41870d5317", "name": "Starbucks", "location": {"address": "65 Front St West", "crossStreet": "York St", "lat": 43.644580752794965, "lng": -79.38167197782931, "labeledLatLngs": [{"label": "display", "lat": 43.644580752794965, "lng": -79.38167197782931}], "distance": 419, "postalCode": "M5J 1E5", "cc": "CA", "neighborhood": "Financial District", "city": "Toronto", "state": "ON", "country": "Canada", "formattedAddress": ["65 Front St West (York St)", "Toronto ON M5J 1E5", "Canada"]}, "categories": [{"id": "4bf58dd8d48988d1e0931735", "name": "Coffee Shop", "pluralName": "Coffee Shops", "shortName": "Coffee Shop", "icon": {"prefix": "https://ss3.4sqi.net/img/categories_v2/food/coffeeshop_", "suffix": ".png"}, "primary": true}], "photos": {"count": 0, "groups": []}}, "referralId": "e-0-56cf4d80498ebf41870d5317-94"}, {"reasons": {"count": 0, "items": [{"summary": "This spot is popular", "type": "general", "reasonName": "globalInteractionReason"}]}, "venue": {"id": "5224e2f911d29a39139cb2ec", "name": "Iron Rose Tea Gallery", "location": {"address": "228 Queens Quay W.", "crossStreet": "Lower Simcoe St.", "lat": 43.6400591104487, "lng": -79.38315167425998, "labeledLatLngs": [{"label": "display", "lat": 43.6400591104487, "lng": -79.38315167425998}], "distance": 140, "cc": "CA", "city": "Toronto", "state": "ON", "country": "Canada", "formattedAddress": ["228 Queens Quay W. (Lower Simcoe St.)", "Toronto ON", "Canada"]}, "categories": [{"id": "4bf58dd8d48988d1dc931735", "name": "Tea Room", "pluralName": "Tea Rooms", "shortName": "Tea Room", "icon": {"prefix": "https://ss3.4sqi.net/img/categories_v2/food/tearoom_", "suffix": ".png"}, "primary": true}], "photos": {"count": 0, "groups": []}}, "referralId": "e-0-5224e2f911d29a39139cb2ec-95"}, {"reasons": {"count": 0, "items": [{"summary": "This spot is popular", "type": "general", "reasonName": "globalInteractionReason"}]}, "venue": {"id": "4e4fe00cc65bb313ba8bd2a8", "name": "WestJet Stage", "location": {"address": "235 Queens Quay West", "lat": 43.63802210524934, "lng": -79.38353594515505, "labeledLatLngs": [{"label": "display", "lat": 43.63802210524934, "lng": -79.38353594515505}], "distance": 342, "postalCode": "M5J 2G8", "cc": "CA", "city": "Toronto", "state": "ON", "country": "Canada", "formattedAddress": ["235 Queens Quay West", "Toronto ON M5J 2G8", "Canada"]}, "categories": [{"id": "4bf58dd8d48988d1e5931735", "name": "Music Venue", "pluralName": "Music Venues", "shortName": "Music Venue", "icon": {"prefix": "https://ss3.4sqi.net/img/categories_v2/arts_entertainment/musicvenue_", "suffix": ".png"}, "primary": true}], "photos": {"count": 0, "groups": []}}, "referralId": "e-0-4e4fe00cc65bb313ba8bd2a8-96"}, {"reasons": {"count": 0, "items": [{"summary": "This spot is popular", "type": "general", "reasonName": "globalInteractionReason"}]}, "venue": {"id": "4bc1fe8bb492d13aa9bba660", "name": "Jays Shop Stadium Edition", "location": {"address": "1 Blue Jays Way", "crossStreet": "in Rogers Centre", "lat": 43.64172087102789, "lng": -79.38712659895614, "labeledLatLngs": [{"label": "display", "lat": 43.64172087102789, "lng": -79.38712659895614}], "distance": 444, "cc": "CA", "city": "Toronto", "state": "ON", "country": "Canada", "formattedAddress": ["1 Blue Jays Way (in Rogers Centre)", "Toronto ON", "Canada"]}, "categories": [{"id": "4bf58dd8d48988d1f2941735", "name": "Sporting Goods Shop", "pluralName": "Sporting Goods Shops", "shortName": "Sporting Goods", "icon": {"prefix": "https://ss3.4sqi.net/img/categories_v2/shops/sports_outdoors_", "suffix": ".png"}, "primary": true}], "photos": {"count": 0, "groups": []}}, "referralId": "e-0-4bc1fe8bb492d13aa9bba660-97"}, {"reasons": {"count": 0, "items": [{"summary": "This spot is popular", "type": "general", "reasonName": "globalInteractionReason"}]}, "venue": {"id": "5026a3f8e4b0044139dee33c", "name": "Roundhouse Craft Beer Festival", "location": {"address": "Roundhouse Park", "lat": 43.64137952795035, "lng": -79.38463071869337, "labeledLatLngs": [{"label": "display", "lat": 43.64137952795035, "lng": -79.38463071869337}], "distance": 240, "cc": "CA", "city": "Toronto", "state": "ON", "country": "Canada", "formattedAddress": ["Roundhouse Park", "Toronto ON", "Canada"]}, "categories": [{"id": "5267e4d9e4b0ec79466e48c7", "name": "Festival", "pluralName": "Festivals", "shortName": "Festival", "icon": {"prefix": "https://ss3.4sqi.net/img/categories_v2/event/default_", "suffix": ".png"}, "primary": true}], "photos": {"count": 0, "groups": []}}, "referralId": "e-0-5026a3f8e4b0044139dee33c-98"}, {"reasons": {"count": 0, "items": [{"summary": "This spot is popular", "type": "general", "reasonName": "globalInteractionReason"}]}, "venue": {"id": "53ce90f9498e1f551850bf30", "name": "SportChek", "location": {"lat": 43.642814842317044, "lng": -79.38040776035005, "labeledLatLngs": [{"label": "display", "lat": 43.642814842317044, "lng": -79.38040776035005}], "distance": 247, "cc": "CA", "country": "Canada", "formattedAddress": ["Canada"]}, "categories": [{"id": "4bf58dd8d48988d1f2941735", "name": "Sporting Goods Shop", "pluralName": "Sporting Goods Shops", "shortName": "Sporting Goods", "icon": {"prefix": "https://ss3.4sqi.net/img/categories_v2/shops/sports_outdoors_", "suffix": ".png"}, "primary": true}], "photos": {"count": 0, "groups": []}}, "referralId": "e-0-53ce90f9498e1f551850bf30-99"}]}]}}