{"meta": {"code": 200, "requestId": "5e1f6c0e78a484001b8b9083"}, "response": {"headerLocation": "Bermondsey", "headerFullLocation": "Bermondsey, Toronto", "headerLocationGranularity": "neighborhood", "totalResults": 6, "suggestedBounds": {"ne": {"lat": 43.730382304500004, "lng": -79.30935618239715}, "sw": {"lat": 43.7213822955, "lng": -79.32178701760282}}, "groups": [{"type": "Recommended Places", "name": "recommended", "items": [{"reasons": {"count": 0, "items": [{"summary": "This spot is popular", "type": "general", "reasonName": "globalInteractionReason"}]}, "venue": {"id": "4c633acb86b6be9a61268e34", "name": "Victoria Village Arena", "location": {"lat": 43.72348055545508, "lng": -79.31563520925143, "labeledLatLngs": [{"label": "display", "lat": 43.72348055545508, "lng": -79.31563520925143}], "distance": 267, "cc": "CA", "country": "Canada", "formattedAddress": ["Canada"]}, "categories": [{"id": "4bf58dd8d48988d185941735", "name": "Hockey Arena", "pluralName": "Hockey Arenas", "shortName": "Hockey", "icon": {"prefix": "https://ss3.4sqi.net/img/categories_v2/arts_entertainment/stadium_hockey_", "suffix": ".png"}, "primary": true}], "photos": {"count": 0, "groups": []}}, "referralId": "e-0-4c633acb86b6be9a61268e34-0"}, {"reasons": {"count": 0, "items": [{"summary": "This spot is popular", "type": "general", "reasonName": "globalInteractionReason"}]}, "venue": {"id": "4bbe904a85fbb713420d7167", "name": "Tim Hortons", "location": {"address": "1733 Eglinton Ave East", "crossStreet": "at Bermondsey Rd", "lat": 43.725516631714754, "lng": -79.31310251366091, "labeledLatLngs": [{"label": "display", "lat": 43.725516631714754, "lng": -79.31310251366091}], "distance": 202, "postalCode": "M4A 1J8", "cc": "CA", "city": "Toronto", "state": "ON", "country": "Canada", "formattedAddress": ["1733 Eglinton Ave East (at Bermondsey Rd)", "Toronto ON M4A 1J8", "Canada"]}, "categories": [{"id": "4bf58dd8d48988d1e0931735", "name": "Coffee Shop", "pluralName": "Coffee Shops", "shortName": "Coffee Shop", "icon": {"prefix": "https://ss3.4sqi.net/img/categories_v2/food/coffeeshop_", "suffix": ".png"}, "primary": true}], "photos": {"count": 0, "groups": []}}, "referralId": "e-0-4bbe904a85fbb713420d7167-1"}, {"reasons": {"count": 0, "items": [{"summary": "This spot is popular", "type": "general", "reasonName": "globalInteractionReason"}]}, "venue": {"id": "4f3ecce6e4b0587016b6f30d", "name": "Portugril", "location": {"address": "1733 Eglinton Avenue East", "crossStreet": "Bermondsey", "lat": 43.72581876267242, "lng": -79.31278541470671, "labeledLatLngs": [{"label": "display", "lat": 43.72581876267242, "lng": -79.31278541470671}], "distance": 224, "cc": "CA", "city": "Toronto", "state": "ON", "country": "Canada", "formattedAddress": ["1733 Eglinton Avenue East (Bermondsey)", "Toronto ON", "Canada"]}, "categories": [{"id": "4def73e84765ae376e57713a", "name": "Portuguese Restaurant", "pluralName": "Portuguese Restaurants", "shortName": "Portuguese", "icon": {"prefix": "https://ss3.4sqi.net/img/categories_v2/food/portuguese_", "suffix": ".png"}, "primary": true}], "photos": {"count": 0, "groups": []}}, "referralId": "e-0-4f3ecce6e4b0587016b6f30d-2"}, {"reasons": {"count": 0, "items": [{"summary": "This spot is popular", "type": "general", "reasonName": "globalInteractionReason"}]}, "venue": {"id": "4d689350b6f46dcb77ee15b2", "name": "The Frig", "location": {"lat": 43.72705130603407, "lng": -79.31741760908679, "labeledLatLngs": [{"label": "display", "lat": 43.72705130603407, "lng": -79.31741760908679}], "distance": 197, "cc": "CA", "country": "Canada", "formattedAddress": ["Canada"]}, "categories": [{"id": "4bf58dd8d48988d10c941735", "name": "French Restaurant", "pluralName": "French Restaurants", "shortName": "French", "icon": {"prefix": "https://ss3.4sqi.net/img/categories_v2/food/french_", "suffix": ".png"}, "primary": true}], "photos": {"count": 0, "groups": []}}, "referralId": "e-0-4d689350b6f46dcb77ee15b2-3"}, {"reasons": {"count": 0, "items": [{"summary": "This spot is popular", "type": "general", "reasonName": "globalInteractionReason"}]}, "venue": {"id": "51e594d5498e07837484f577", "name": "Eglinton Ave E & Sloane Ave/Bermondsey Rd", "location": {"address": "Eglinton Avenue East", "crossStreet": "at Sloan Avenue / Bermondsey Road", "lat": 43.726086, "lng": -79.31362, "labeledLatLngs": [{"label": "display", "lat": 43.726086, "lng": -79.31362}], "distance": 158, "postalCode": "M4A", "cc": "CA", "city": "Toronto", "state": "ON", "country": "Canada", "formattedAddress": ["Eglinton Avenue East (at Sloan Avenue / Bermondsey Road)", "Toronto ON M4A", "Canada"]}, "categories": [{"id": "52f2ab2ebcbc57f1066b8b4c", "name": "Intersection", "pluralName": "Intersections", "shortName": "Intersection", "icon": {"prefix": "https://ss3.4sqi.net/img/categories_v2/travel/default_", "suffix": ".png"}, "primary": true}], "photos": {"count": 0, "groups": []}}, "referralId": "e-0-51e594d5498e07837484f577-4"}, {"reasons": {"count": 0, "items": [{"summary": "This spot is popular", "type": "general", "reasonName": "globalInteractionReason"}]}, "venue": {"id": "4b8fe578f964a520106833e3", "name": "Pizza Nova", "location": {"address": "1733 Eglinton Ave. E", "crossStreet": "at Bermondsey Rd.", "lat": 43.725823726352196, "lng": -79.31286041792907, "labeledLatLngs": [{"label": "display", "lat": 43.725823726352196, "lng": -79.31286041792907}], "distance": 218, "postalCode": "M4A 1J8", "cc": "CA", "city": "Toronto", "state": "ON", "country": "Canada", "formattedAddress": ["1733 Eglinton Ave. E (at Bermondsey Rd.)", "Toronto ON M4A 1J8", "Canada"]}, "categories": [{"id": "4bf58dd8d48988d1ca941735", "name": "Pizza Place", "pluralName": "Pizza Places", "shortName": "Pizza", "icon": {"prefix": "https://ss3.4sqi.net/img/categories_v2/food/pizza_", "suffix": ".png"}, "primary": true}], "photos": {"count": 0, "groups": []}}, "referralId": "e-0-4b8fe578f964a520106833e3-5"}]}]}}