{"meta": {"code": 200, "requestId": "5e1f6c2a216785001b7b0a02"}, "response": {"suggestedFilters": {"header": "Tap to show:", "filters": [{"name": "Open now", "key": "openNow"}]}, "headerLocation": "Bay Street Corridor", "headerFullLocation": "Bay Street Corridor, Toronto", "headerLocationGranularity": "neighborhood", "totalResults": 38, "suggestedBounds": {"ne": {"lat": 43.6668015045, "lng": -79.38328496866619}, "sw": {"lat": 43.657801495499996, "lng": -79.3957026313338}}, "groups": [{"type": "Recommended Places", "name": "recommended", "items": [{"reasons": {"count": 0, "items": [{"summary": "This spot is popular", "type": "general", "reasonName": "globalInteractionReason"}]}, "venue": {"id": "4b9d206bf964a520e69136e3", "name": "Queen's Park", "location": {"address": "University Ave.", "crossStreet": "at Wellesley Ave.", "lat": 43.66394609897775, "lng": -79.39217952520835, "labeledLatLngs": [{"label": "display", "lat": 43.66394609897775, "lng": -79.39217952520835}], "distance": 283, "postalCode": "M5R 2E8", "cc": "CA", "city": "Toronto", "state": "ON", "country": "Canada", "formattedAddress": ["University Ave. (at Wellesley Ave.)", "Toronto ON M5R 2E8", "Canada"]}, "categories": [{"id": "4bf58dd8d48988d163941735", "name": "Park", "pluralName": "Parks", "shortName": "Park", "icon": {"prefix": "https://ss3.4sqi.net/img/categories_v2/parks_outdoors/park_", "suffix": ".png"}, "primary": true}], "photos": {"count": 0, "groups": []}}, "referralId": "e-0-4b9d206bf964a520e69136e3-0"}, {"reasons": {"count": 0, "items": [{"summary": "This spot is popular", "type": "general", "reasonName": "globalInteractionReason"}]}, "venue": {"id": "52d884c5498ecf5c7cafe5ab", "name": "Nando's", "location": {"address": "832 Bay St", "crossStreet": "Grenville St", "lat": 43.66172826, "lng": -79.38639146, "labeledLatLngs": [{"label": "display", "lat": 43.66172826, "lng": -79.38639146}], "distance": 257, "postalCode": "M5S 1Z6", "cc": "CA", "city": "Toronto", "state": "ON", "country": "Canada", "formattedAddress": ["832 Bay St (Grenville St)", "Toronto ON M5S 1Z6", "Canada"]}, "categories": [{"id": "4def73e84765ae376e57713a", "name": "Portuguese Restaurant", "pluralName": "Portuguese Restaurants", "shortName": "Portuguese", "icon": {"prefix": "https://ss3.4sqi.net/img/categories_v2/food/portuguese_", "suffix": ".png"}, "primary": true}], "photos": {"count": 0, "groups": []}, "venuePage": {"id": "550386889"}}, "referralId": "e-0-52d884c5498ecf5c7cafe5ab-1"}, {"reasons": {"count": 0, "items": [{"summary": "This spot is popular", "type": "general", "reasonName": "globalInteractionReason"}]}, "venue": {"id": "4a8355bff964a520d3fa1fe3", "name": "Mercatto", "location": {"address": "101 College St", "lat": 43.660390911898546, "lng": -79.38766421192705, "labeledLatLngs": [{"label": "display", "lat": 43.660390911898546, "lng": -79.38766421192705}], "distance": 258, "postalCode": "M5G", "cc": "CA", "city": "Toronto", "state": "ON", "country": "Canada", "formattedAddress": ["101 College St", "Toronto ON M5G", "Canada"]}, "categories": [{"id": "4bf58dd8d48988d110941735", "name": "Italian Restaurant", "pluralName": "Italian Restaurants", "shortName": "Italian", "icon": {"prefix": "https://ss3.4sqi.net/img/categories_v2/food/italian_", "suffix": ".png"}, "primary": true}], "photos": {"count": 0, "groups": []}}, "referralId": "e-0-4a8355bff964a520d3fa1fe3-2"}, {"reasons": {"count": 0, "items": [{"summary": "This spot is popular", "type": "general", "reasonName": "globalInteractionReason"}]}, "venue": {"id": "4ad8d773f964a5203e1521e3", "name": "YMCA", "location": {"address": "20 Grosvenor St", "crossStreet": "btwn St. Vincent Ln & St. Lukes Ln", "lat": 43.66275344493089, "lng": -79.3848492869005, "labeledLatLngs": [{"label": "display", "lat": 43.66275344493089, "lng": -79.3848492869005}], "distance": 377, "postalCode": "M4Y 1C2", "cc": "CA", "city": "Toronto", "state": "ON", "country": "Canada", "formattedAddress": ["20 Grosvenor St (btwn St. Vincent Ln & St. Lukes Ln)", "Toronto ON M4Y 1C2", "Canada"]}, "categories": [{"id": "4bf58dd8d48988d176941735", "name": "Gym", "pluralName": "Gyms", "shortName": "Gym", "icon": {"prefix": "https://ss3.4sqi.net/img/categories_v2/building/gym_", "suffix": ".png"}, "primary": true}], "photos": {"count": 0, "groups": []}}, "referralId": "e-0-4ad8d773f964a5203e1521e3-3"}, {"reasons": {"count": 0, "items": [{"summary": "This spot is popular", "type": "general", "reasonName": "globalInteractionReason"}]}, "venue": {"id": "576d30ed498ef2e95e26e6d0", "name": "Starbucks", "location": {"address": "101 College St", "crossStreet": "University Ave", "lat": 43.65945605353152, "lng": -79.39041123272168, "labeledLatLngs": [{"label": "display", "lat": 43.65945605353152, "lng": -79.39041123272168}], "distance": 325, "postalCode": "M5G 1L7", "cc": "CA", "city": "Toronto", "state": "ON", "country": "Canada", "formattedAddress": ["101 College St (University Ave)", "Toronto ON M5G 1L7", "Canada"]}, "categories": [{"id": "4bf58dd8d48988d1e0931735", "name": "Coffee Shop", "pluralName": "Coffee Shops", "shortName": "Coffee Shop", "icon": {"prefix": "https://ss3.4sqi.net/img/categories_v2/food/coffeeshop_", "suffix": ".png"}, "primary": true}], "photos": {"count": 0, "groups": []}}, "referralId": "e-0-576d30ed498ef2e95e26e6d0-4"}, {"reasons": {"count": 0, "items": [{"summary": "This spot is popular", "type": "general", "reasonName": "globalInteractionReason"}]}, "venue": {"id": "568bcf61498e3aaff5e351f8", "name": "Coffee Public", "location": {"address": "800 Bay St", "crossStreet": "at College St", "lat": 43.66076299149323, "lng": -79.38618409033066, "labeledLatLngs": [{"label": "display", "lat": 43.66076299149323, "lng": -79.38618409033066}], "distance": 316, "postalCode": "M5S 3A9", "cc": "CA", "city": "Toronto", "state": "ON", "country": "Canada", "formattedAddress": ["800 Bay St (at College St)", "Toronto ON M5S 3A9", "Canada"]}, "categories": [{"id": "4bf58dd8d48988d1e0931735", "name": "Coffee Shop", "pluralName": "Coffee Shops", "shortName": "Coffee Shop", "icon": {"prefix": "https://ss3.4sqi.net/img/categories_v2/food/coffeeshop_", "suffix": ".png"}, "primary": true}], "photos": {"count": 0, "groups": []}}, "referralId": "e-0-568bcf61498e3aaff5e351f8-5"}, {"reasons": {"count": 0, "items": [{"summary": "This spot is popular", "type": "general", "reasonName": "globalInteractionReason"}]}, "venue": {"id": "4fb593c0e4b05a76e2ab2951", "name": "Como En Casa", "location": {"address": "565 Yonge St", "lat": 43.66516, "lng": -79.384796, "labeledLatLngs": [{"label": "display", "lat": 43.66516, "lng": -79.384796}], "distance": 494, "postalCode": "M4Y-1Z2", "cc": "CA", "city": "Toronto", "state": "ON", "country": "Canada", "formattedAddress": ["565 Yonge St", "Toronto ON M4Y-1Z2", "Canada"]}, "categories": [{"id": "4bf58dd8d48988d1c1941735", "name": "Mexican Restaurant", "pluralName": "Mexican Restaurants", "shortName": "Mexican", "icon": {"prefix": "https://ss3.4sqi.net/img/categories_v2/food/mexican_", "suffix": ".png"}, "primary": true}], "photos": {"count": 0, "groups": []}}, "referralId": "e-0-4fb593c0e4b05a76e2ab2951-6"}, {"reasons": {"count": 0, "items": [{"summary": "This spot is popular", "type": "general", "reasonName": "globalInteractionReason"}]}, "venue": {"id": "594ff53c2be42528bcc1bdb7", "name": "T-Swirl Crepe", "location": {"address": "510 Yonge Street", "lat": 43.663452, "lng": -79.384125, "labeledLatLngs": [{"label": "display", "lat": 43.663452, "lng": -79.384125}], "distance": 450, "postalCode": "M4Y 1X9", "cc": "CA", "city": "Toronto", "state": "ON", "country": "Canada", "formattedAddress": ["510 Yonge Street", "Toronto ON M4Y 1X9", "Canada"]}, "categories": [{"id": "52e81612bcbc57f1066b79f2", "name": "Creperie", "pluralName": "Creperies", "shortName": "Creperie", "icon": {"prefix": "https://ss3.4sqi.net/img/categories_v2/food/creperie_", "suffix": ".png"}, "primary": true}], "photos": {"count": 0, "groups": []}, "venuePage": {"id": "455073193"}}, "referralId": "e-0-594ff53c2be42528bcc1bdb7-7"}, {"reasons": {"count": 0, "items": [{"summary": "This spot is popular", "type": "general", "reasonName": "globalInteractionReason"}]}, "venue": {"id": "5d9399e49b61d90008bac7b0", "name": "Bar Volo", "location": {"address": "17 St. Nicholas St.", "lat": 43.66546184849369, "lng": -79.38569158315659, "labeledLatLngs": [{"label": "display", "lat": 43.66546184849369, "lng": -79.38569158315659}], "distance": 466, "postalCode": "M4Y 3G4", "cc": "CA", "city": "Toronto", "state": "ON", "country": "Canada", "formattedAddress": ["17 St. Nicholas St.", "Toronto ON M4Y 3G4", "Canada"]}, "categories": [{"id": "56aa371ce4b08b9a8d57356c", "name": "Beer Bar", "pluralName": "Beer Bars", "shortName": "Beer Bar", "icon": {"prefix": "https://ss3.4sqi.net/img/categories_v2/nightlife/pub_", "suffix": ".png"}, "primary": true}], "photos": {"count": 0, "groups": []}}, "referralId": "e-0-5d9399e49b61d90008bac7b0-8"}, {"reasons": {"count": 0, "items": [{"summary": "This spot is popular", "type": "general", "reasonName": "globalInteractionReason"}]}, "venue": {"id": "4afca145f964a5208e2422e3", "name": "Tokyo Sushi", "location": {"address": "33 St. Joseph St.", "crossStreet": "Yonge and Wellesley", "lat": 43.665885330936845, "lng": -79.38697684868161, "labeledLatLngs": [{"label": "display", "lat": 43.665885330936845, "lng": -79.38697684868161}], "distance": 447, "postalCode": "M4Y 1J8", "cc": "CA", "city": "Toronto", "state": "ON", "country": "Canada", "formattedAddress": ["33 St. Joseph St. (Yonge and Wellesley)", "Toronto ON M4Y 1J8", "Canada"]}, "categories": [{"id": "4bf58dd8d48988d1d2941735", "name": "Sushi Restaurant", "pluralName": "Sushi Restaurants", "shortName": "Sushi", "icon": {"prefix": "https://ss3.4sqi.net/img/categories_v2/food/sushi_", "suffix": ".png"}, "primary": true}], "photos": {"count": 0, "groups": []}}, "referralId": "e-0-4afca145f964a5208e2422e3-9"}, {"reasons": {"count": 0, "items": [{"summary": "This spot is popular", "type": "general", "reasonName": "globalInteractionReason"}]}, "venue": {"id": "4aeb5989f964a5203ec121e3", "name": "The Yoga Sanctuary", "location": {"address": "2 College St. W, Suite 306", "crossStreet": "at Yonge St.", "lat": 43.661499497597596, "lng": -79.38363613350754, "labeledLatLngs": [{"label": "display", "lat": 43.661499497597596, "lng": -79.38363613350754}], "distance": 480, "postalCode": "M5G 1K3", "cc": "CA", "city": "Toronto", "state": "ON", "country": "Canada", "formattedAddress": ["2 College St. W, Suite 306 (at Yonge St.)", "Toronto ON M5G 1K3", "Canada"]}, "categories": [{"id": "4bf58dd8d48988d102941735", "name": "Yoga Studio", "pluralName": "Yoga Studios", "shortName": "Yoga Studio", "icon": {"prefix": "https://ss3.4sqi.net/img/categories_v2/shops/gym_yogastudio_", "suffix": ".png"}, "primary": true}], "photos": {"count": 0, "groups": []}}, "referralId": "e-0-4aeb5989f964a5203ec121e3-10"}, {"reasons": {"count": 0, "items": [{"summary": "This spot is popular", "type": "general", "reasonName": "globalInteractionReason"}]}, "venue": {"id": "4c8facf91664b1f79c90aa2f", "name": "College Park Area", "location": {"address": "College St.", "lat": 43.65975136823981, "lng": -79.38491112965691, "labeledLatLngs": [{"label": "display", "lat": 43.65975136823981, "lng": -79.38491112965691}], "distance": 465, "cc": "CA", "city": "Toronto", "state": "ON", "country": "Canada", "formattedAddress": ["College St.", "Toronto ON", "Canada"]}, "categories": [{"id": "4bf58dd8d48988d163941735", "name": "Park", "pluralName": "Parks", "shortName": "Park", "icon": {"prefix": "https://ss3.4sqi.net/img/categories_v2/parks_outdoors/park_", "suffix": ".png"}, "primary": true}], "photos": {"count": 0, "groups": []}}, "referralId": "e-0-4c8facf91664b1f79c90aa2f-11"}, {"reasons": {"count": 0, "items": [{"summary": "This spot is popular", "type": "general", "reasonName": "globalInteractionReason"}]}, "venue": {"id": "4b6b189cf964a52089f22be3", "name": "Curry's Art Store Ltd.", "location": {"address": "490 Yonge St.", "crossStreet": "At Grosvenor", "lat": 43.66283810530193, "lng": -79.38373201352064, "labeledLatLngs": [{"label": "display", "lat": 43.66283810530193, "lng": -79.38373201352064}], "distance": 467, "postalCode": "M4Y 1X5", "cc": "CA", "city": "Toronto", "state": "ON", "country": "Canada", "formattedAddress": ["490 Yonge St. (At Grosvenor)", "Toronto ON M4Y 1X5", "Canada"]}, "categories": [{"id": "4bf58dd8d48988d127951735", "name": "Arts & Crafts Store", "pluralName": "Arts & Crafts Stores", "shortName": "Arts & Crafts", "icon": {"prefix": "https://ss3.4sqi.net/img/categories_v2/shops/artstore_", "suffix": ".png"}, "primary": true}], "photos": {"count": 0, "groups": []}}, "referralId": "e-0-4b6b189cf964a52089f22be3-12"}, {"reasons": {"count": 0, "items": [{"summary": "This spot is popular", "type": "general", "reasonName": "globalInteractionReason"}]}, "venue": {"id": "4d927b8352ed224b27d008ac", "name": "Burrito Bandidos", "location": {"address": "496 Yonge St.", "crossStreet": "at Grosvenor St.", "lat": 43.662962178169344, "lng": -79.38395554190546, "labeledLatLngs": [{"label": "display", "lat": 43.662962178169344, "lng": -79.38395554190546}], "distance": 452, "postalCode": "M4Y 1X9", "cc": "CA", "city": "Toronto", "state": "ON", "country": "Canada", "formattedAddress": ["496 Yonge St. (at Grosvenor St.)", "Toronto ON M4Y 1X9", "Canada"]}, "categories": [{"id": "4bf58dd8d48988d153941735", "name": "Burrito Place", "pluralName": "Burrito Places", "shortName": "Burritos", "icon": {"prefix": "https://ss3.4sqi.net/img/categories_v2/food/burrito_", "suffix": ".png"}, "primary": true}], "photos": {"count": 0, "groups": []}}, "referralId": "e-0-4d927b8352ed224b27d008ac-13"}, {"reasons": {"count": 0, "items": [{"summary": "This spot is popular", "type": "general", "reasonName": "globalInteractionReason"}]}, "venue": {"id": "590a649bdee77071100a6a15", "name": "Coffee Island", "location": {"address": "925 Bay street", "lat": 43.66427089680226, "lng": -79.38697157138014, "labeledLatLngs": [{"label": "display", "lat": 43.66427089680226, "lng": -79.38697157138014}], "distance": 298, "postalCode": "M5S 3L6", "cc": "CA", "city": "Toronto", "state": "ON", "country": "Canada", "formattedAddress": ["925 Bay street", "Toronto ON M5S 3L6", "Canada"]}, "categories": [{"id": "4bf58dd8d48988d1e0931735", "name": "Coffee Shop", "pluralName": "Coffee Shops", "shortName": "Coffee Shop", "icon": {"prefix": "https://ss3.4sqi.net/img/categories_v2/food/coffeeshop_", "suffix": ".png"}, "primary": true}], "photos": {"count": 0, "groups": []}}, "referralId": "e-0-590a649bdee77071100a6a15-14"}, {"reasons": {"count": 0, "items": [{"summary": "This spot is popular", "type": "general", "reasonName": "globalInteractionReason"}]}, "venue": {"id": "4b3d1e49f964a5205c8e25e3", "name": "401 Games", "location": {"address": "518 Yonge St.", "crossStreet": "btwn Breadalbane & Grosvenor", "lat": 43.663623277853254, "lng": -79.3840374323983, "labeledLatLngs": [{"label": "display", "lat": 43.663623277853254, "lng": -79.3840374323983}], "distance": 463, "postalCode": "M4Y 1X9", "cc": "CA", "city": "Toronto", "state": "ON", "country": "Canada", "formattedAddress": ["518 Yonge St. (btwn Breadalbane & Grosvenor)", "Toronto ON M4Y 1X9", "Canada"]}, "categories": [{"id": "4bf58dd8d48988d1fb941735", "name": "Hobby Shop", "pluralName": "Hobby Shops", "shortName": "Hobbies", "icon": {"prefix": "https://ss3.4sqi.net/img/categories_v2/shops/hobbyshop_", "suffix": ".png"}, "primary": true}], "photos": {"count": 0, "groups": []}}, "referralId": "e-0-4b3d1e49f964a5205c8e25e3-15"}, {"reasons": {"count": 0, "items": [{"summary": "This spot is popular", "type": "general", "reasonName": "globalInteractionReason"}]}, "venue": {"id": "5db70a0c306d6b000861ac9f", "name": "Neo Coffee Bar", "location": {"address": "770 Bay Street Unit 3", "lat": 43.66014, "lng": -79.38587, "labeledLatLngs": [{"label": "display", "lat": 43.66014, "lng": -79.38587}], "distance": 378, "postalCode": "M5G 0A6", "cc": "CA", "city": "Toronto", "state": "ON", "country": "Canada", "formattedAddress": ["770 Bay Street Unit 3", "Toronto ON M5G 0A6", "Canada"]}, "categories": [{"id": "4bf58dd8d48988d1e0931735", "name": "Coffee Shop", "pluralName": "Coffee Shops", "shortName": "Coffee Shop", "icon": {"prefix": "https://ss3.4sqi.net/img/categories_v2/food/coffeeshop_", "suffix": ".png"}, "primary": true}], "photos": {"count": 0, "groups": []}}, "referralId": "e-0-5db70a0c306d6b000861ac9f-16"}, {"reasons": {"count": 0, "items": [{"summary": "This spot is popular", "type": "general", "reasonName": "globalInteractionReason"}]}, "venue": {"id": "4b2d27b4f964a520a6cf24e3", "name": "Coach House Restaurant", "location": {"address": "574 Yonge St.", "crossStreet": "Wellesley", "lat": 43.66499059853204, "lng": -79.38481415727767, "labeledLatLngs": [{"label": "display", "lat": 43.66499059853204, "lng": -79.38481415727767}], "distance": 481, "cc": "CA", "city": "Toronto", "state": "ON", "country": "Canada", "formattedAddress": ["574 Yonge St. (Wellesley)", "Toronto ON", "Canada"]}, "categories": [{"id": "4bf58dd8d48988d147941735", "name": "Diner", "pluralName": "Diners", "shortName": "Diner", "icon": {"prefix": "https://ss3.4sqi.net/img/categories_v2/food/diner_", "suffix": ".png"}, "primary": true}], "photos": {"count": 0, "groups": []}}, "referralId": "e-0-4b2d27b4f964a520a6cf24e3-17"}, {"reasons": {"count": 0, "items": [{"summary": "This spot is popular", "type": "general", "reasonName": "globalInteractionReason"}]}, "venue": {"id": "4ad4c061f964a520abf720e3", "name": "Tokyo Grill", "location": {"address": "582 Yonge St", "crossStreet": "at Wellesley St W", "lat": 43.665085238149395, "lng": -79.38470692554789, "labeledLatLngs": [{"label": "display", "lat": 43.665085238149395, "lng": -79.38470692554789}], "distance": 494, "postalCode": "M4Y 1Z3", "cc": "CA", "city": "Toronto", "state": "ON", "country": "Canada", "formattedAddress": ["582 Yonge St (at Wellesley St W)", "Toronto ON M4Y 1Z3", "Canada"]}, "categories": [{"id": "4bf58dd8d48988d111941735", "name": "Japanese Restaurant", "pluralName": "Japanese Restaurants", "shortName": "Japanese", "icon": {"prefix": "https://ss3.4sqi.net/img/categories_v2/food/japanese_", "suffix": ".png"}, "primary": true}], "photos": {"count": 0, "groups": []}}, "referralId": "e-0-4ad4c061f964a520abf720e3-18"}, {"reasons": {"count": 0, "items": [{"summary": "This spot is popular", "type": "general", "reasonName": "globalInteractionReason"}]}, "venue": {"id": "4af1b6e5f964a5206be221e3", "name": "W Burger Bar", "location": {"address": "10 College St", "crossStreet": "at Yonge St.", "lat": 43.66133100835633, "lng": -79.3835570768382, "labeledLatLngs": [{"label": "display", "lat": 43.66133100835633, "lng": -79.3835570768382}], "distance": 490, "postalCode": "M5B 1L5", "cc": "CA", "city": "Toronto", "state": "ON", "country": "Canada", "formattedAddress": ["10 College St (at Yonge St.)", "Toronto ON M5B 1L5", "Canada"]}, "categories": [{"id": "4bf58dd8d48988d16c941735", "name": "Burger Joint", "pluralName": "Burger Joints", "shortName": "Burgers", "icon": {"prefix": "https://ss3.4sqi.net/img/categories_v2/food/burger_", "suffix": ".png"}, "primary": true}], "photos": {"count": 0, "groups": []}}, "referralId": "e-0-4af1b6e5f964a5206be221e3-19"}, {"reasons": {"count": 0, "items": [{"summary": "This spot is popular", "type": "general", "reasonName": "globalInteractionReason"}]}, "venue": {"id": "4ce47a4bc850721e2b8bc38a", "name": "Hart House Theatre", "location": {"address": "7 Hart House Cir.", "crossStreet": "University of Toronto", "lat": 43.66357134217992, "lng": -79.3946163990837, "labeledLatLngs": [{"label": "display", "lat": 43.66357134217992, "lng": -79.3946163990837}], "distance": 436, "postalCode": "M5S 3H3", "cc": "CA", "city": "Toronto", "state": "ON", "country": "Canada", "formattedAddress": ["7 Hart House Cir. (University of Toronto)", "Toronto ON M5S 3H3", "Canada"]}, "categories": [{"id": "4bf58dd8d48988d137941735", "name": "Theater", "pluralName": "Theaters", "shortName": "Theater", "icon": {"prefix": "https://ss3.4sqi.net/img/categories_v2/arts_entertainment/performingarts_theater_", "suffix": ".png"}, "primary": true}], "photos": {"count": 0, "groups": []}}, "referralId": "e-0-4ce47a4bc850721e2b8bc38a-20"}, {"reasons": {"count": 0, "items": [{"summary": "This spot is popular", "type": "general", "reasonName": "globalInteractionReason"}]}, "venue": {"id": "59ea2931f96b2c78d41cc639", "name": "Flock Rotisserie + Greens", "location": {"address": "661 University Ave", "crossStreet": "College", "lat": 43.659167, "lng": -79.389475, "labeledLatLngs": [{"label": "display", "lat": 43.659167, "lng": -79.389475}], "distance": 348, "postalCode": "M5G 0A3", "cc": "CA", "city": "Toronto", "state": "ON", "country": "Canada", "formattedAddress": ["661 University Ave (College)", "Toronto ON M5G 0A3", "Canada"]}, "categories": [{"id": "4d4ae6fc7a7b7dea34424761", "name": "Fried Chicken Joint", "pluralName": "Fried Chicken Joints", "shortName": "Fried Chicken", "icon": {"prefix": "https://ss3.4sqi.net/img/categories_v2/food/friedchicken_", "suffix": ".png"}, "primary": true}], "photos": {"count": 0, "groups": []}}, "referralId": "e-0-59ea2931f96b2c78d41cc639-21"}, {"reasons": {"count": 0, "items": [{"summary": "This spot is popular", "type": "general", "reasonName": "globalInteractionReason"}]}, "venue": {"id": "4ad7a7b6f964a520520d21e3", "name": "Buddies In Bad Times Theatre", "location": {"address": "12 Alexander St", "crossStreet": "Yonge St", "lat": 43.663058539371825, "lng": -79.38344927771267, "labeledLatLngs": [{"label": "display", "lat": 43.663058539371825, "lng": -79.38344927771267}], "distance": 494, "postalCode": "M4Y 1B4", "cc": "CA", "city": "Toronto", "state": "ON", "country": "Canada", "formattedAddress": ["12 Alexander St (Yonge St)", "Toronto ON M4Y 1B4", "Canada"]}, "categories": [{"id": "4bf58dd8d48988d11f941735", "name": "Nightclub", "pluralName": "Nightclubs", "shortName": "Nightclub", "icon": {"prefix": "https://ss3.4sqi.net/img/categories_v2/nightlife/nightclub_", "suffix": ".png"}, "primary": true}], "photos": {"count": 0, "groups": []}}, "referralId": "e-0-4ad7a7b6f964a520520d21e3-22"}, {"reasons": {"count": 0, "items": [{"summary": "This spot is popular", "type": "general", "reasonName": "globalInteractionReason"}]}, "venue": {"id": "4ad5de88f964a520ca0321e3", "name": "Starbucks", "location": {"address": "450 Yonge St", "crossStreet": "at College St.", "lat": 43.661527, "lng": -79.383411, "labeledLatLngs": [{"label": "display", "lat": 43.661527, "lng": -79.383411}], "distance": 497, "postalCode": "M4Y 1X1", "cc": "CA", "city": "Toronto", "state": "ON", "country": "Canada", "formattedAddress": ["450 Yonge St (at College St.)", "Toronto ON M4Y 1X1", "Canada"]}, "categories": [{"id": "4bf58dd8d48988d1e0931735", "name": "Coffee Shop", "pluralName": "Coffee Shops", "shortName": "Coffee Shop", "icon": {"prefix": "https://ss3.4sqi.net/img/categories_v2/food/coffeeshop_", "suffix": ".png"}, "primary": true}], "photos": {"count": 0, "groups": []}}, "referralId": "e-0-4ad5de88f964a520ca0321e3-23"}, {"reasons": {"count": 0, "items": [{"summary": "This spot is popular", "type": "general", "reasonName": "globalInteractionReason"}]}, "venue": {"id": "4c792e4981bca093af5efc14", "name": "Crown Princess Fine Dining \u4f2f\u7235\u540d\u5bb4", "location": {"address": "1033 Bay St.", "crossStreet": "at Irwin Ave.", "lat": 43.66645492941117, "lng": -79.38769789187712, "labeledLatLngs": [{"label": "display", "lat": 43.66645492941117, "lng": -79.38769789187712}], "distance": 484, "postalCode": "M5S 3A5", "cc": "CA", "city": "Toronto", "state": "ON", "country": "Canada", "formattedAddress": ["1033 Bay St. (at Irwin Ave.)", "Toronto ON M5S 3A5", "Canada"]}, "categories": [{"id": "4bf58dd8d48988d145941735", "name": "Chinese Restaurant", "pluralName": "Chinese Restaurants", "shortName": "Chinese", "icon": {"prefix": "https://ss3.4sqi.net/img/categories_v2/food/asian_", "suffix": ".png"}, "primary": true}], "photos": {"count": 0, "groups": []}}, "referralId": "e-0-4c792e4981bca093af5efc14-24"}, {"reasons": {"count": 0, "items": [{"summary": "This spot is popular", "type": "general", "reasonName": "globalInteractionReason"}]}, "venue": {"id": "4aeb5014f964a520c7c021e3", "name": "Starbucks", "location": {"address": "585 University Ave,R-16", "crossStreet": "at Toronto General Hospital", "lat": 43.658204, "lng": -79.388998, "labeledLatLngs": [{"label": "display", "lat": 43.658204, "lng": -79.388998}], "distance": 457, "postalCode": "M5G 2N2", "cc": "CA", "city": "Toronto", "state": "ON", "country": "Canada", "formattedAddress": ["585 University Ave,R-16 (at Toronto General Hospital)", "Toronto ON M5G 2N2", "Canada"]}, "categories": [{"id": "4bf58dd8d48988d1e0931735", "name": "Coffee Shop", "pluralName": "Coffee Shops", "shortName": "Coffee Shop", "icon": {"prefix": "https://ss3.4sqi.net/img/categories_v2/food/coffeeshop_", "suffix": ".png"}, "primary": true}], "photos": {"count": 0, "groups": []}}, "referralId": "e-0-4aeb5014f964a520c7c021e3-25"}, {"reasons": {"count": 0, "items": [{"summary": "This spot is popular", "type": "general", "reasonName": "globalInteractionReason"}]}, "venue": {"id": "4b9a73ecf964a5209db635e3", "name": "Booster Juice", "location": {"address": "200 Elizabeth Street, Kiosk R5 (Toronto General Hospital)", "crossStreet": "btwn Gerrard & College", "lat": 43.65865699, "lng": -79.38868207, "labeledLatLngs": [{"label": "display", "lat": 43.65865699, "lng": -79.38868207}], "distance": 410, "postalCode": "M5G 2C4", "cc": "CA", "city": "Toronto", "state": "ON", "country": "Canada", "formattedAddress": ["200 Elizabeth Street, Kiosk R5 (Toronto General Hospital) (btwn Gerrard & College)", "Toronto ON M5G 2C4", "Canada"]}, "categories": [{"id": "4bf58dd8d48988d112941735", "name": "Juice Bar", "pluralName": "Juice Bars", "shortName": "Juice Bar", "icon": {"prefix": "https://ss3.4sqi.net/img/categories_v2/food/juicebar_", "suffix": ".png"}, "primary": true}], "photos": {"count": 0, "groups": []}}, "referralId": "e-0-4b9a73ecf964a5209db635e3-26"}, {"reasons": {"count": 0, "items": [{"summary": "This spot is popular", "type": "general", "reasonName": "globalInteractionReason"}]}, "venue": {"id": "5671be66498efccf89f7e21f", "name": "Aroma Espresso Bar", "location": {"lat": 43.658927676749364, "lng": -79.38990298985978, "labeledLatLngs": [{"label": "display", "lat": 43.658927676749364, "lng": -79.38990298985978}], "distance": 377, "cc": "CA", "city": "Toronto", "state": "ON", "country": "Canada", "formattedAddress": ["Toronto ON", "Canada"]}, "categories": [{"id": "4bf58dd8d48988d16d941735", "name": "Caf\u00e9", "pluralName": "Caf\u00e9s", "shortName": "Caf\u00e9", "icon": {"prefix": "https://ss3.4sqi.net/img/categories_v2/food/cafe_", "suffix": ".png"}, "primary": true}], "photos": {"count": 0, "groups": []}}, "referralId": "e-0-5671be66498efccf89f7e21f-27"}, {"reasons": {"count": 0, "items": [{"summary": "This spot is popular", "type": "general", "reasonName": "globalInteractionReason"}]}, "venue": {"id": "4bc64a7ad35d9c742083e23a", "name": "Hart House Gym", "location": {"address": "7 Hart House Cir.", "crossStreet": "University of Toronto", "lat": 43.66417202442517, "lng": -79.39488839857401, "labeledLatLngs": [{"label": "display", "lat": 43.66417202442517, "lng": -79.39488839857401}], "distance": 481, "postalCode": "M5S 3H3", "cc": "CA", "city": "Toronto", "state": "ON", "country": "Canada", "formattedAddress": ["7 Hart House Cir. (University of Toronto)", "Toronto ON M5S 3H3", "Canada"]}, "categories": [{"id": "4bf58dd8d48988d176941735", "name": "Gym", "pluralName": "Gyms", "shortName": "Gym", "icon": {"prefix": "https://ss3.4sqi.net/img/categories_v2/building/gym_", "suffix": ".png"}, "primary": true}], "photos": {"count": 0, "groups": []}}, "referralId": "e-0-4bc64a7ad35d9c742083e23a-28"}, {"reasons": {"count": 0, "items": [{"summary": "This spot is popular", "type": "general", "reasonName": "globalInteractionReason"}]}, "venue": {"id": "4e98751acc217f441ef3f429", "name": "Subway", "location": {"address": "700 University Avenue, Unit 4", "crossStreet": "Hydro Office Building", "lat": 43.659132014268515, "lng": -79.39111410032399, "labeledLatLngs": [{"label": "display", "lat": 43.659132014268515, "lng": -79.39111410032399}], "distance": 376, "postalCode": "M5G 1X6", "cc": "CA", "city": "Toronto", "state": "ON", "country": "Canada", "formattedAddress": ["700 University Avenue, Unit 4 (Hydro Office Building)", "Toronto ON M5G 1X6", "Canada"]}, "categories": [{"id": "4bf58dd8d48988d1c5941735", "name": "Sandwich Place", "pluralName": "Sandwich Places", "shortName": "Sandwiches", "icon": {"prefix": "https://ss3.4sqi.net/img/categories_v2/food/deli_", "suffix": ".png"}, "primary": true}], "photos": {"count": 0, "groups": []}}, "referralId": "e-0-4e98751acc217f441ef3f429-29"}, {"reasons": {"count": 0, "items": [{"summary": "This spot is popular", "type": "general", "reasonName": "globalInteractionReason"}]}, "venue": {"id": "4bc0c71b74a9a5935fa6d0f6", "name": "Tim Hortons", "location": {"address": "1 King's College Circle", "crossStreet": "in the Medical Science Building", "lat": 43.6610382, "lng": -79.3937966, "labeledLatLngs": [{"label": "display", "lat": 43.6610382, "lng": -79.3937966}], "distance": 373, "postalCode": "M5S 1A8", "cc": "CA", "city": "Toronto", "state": "ON", "country": "Canada", "formattedAddress": ["1 King's College Circle (in the Medical Science Building)", "Toronto ON M5S 1A8", "Canada"]}, "categories": [{"id": "4bf58dd8d48988d1e0931735", "name": "Coffee Shop", "pluralName": "Coffee Shops", "shortName": "Coffee Shop", "icon": {"prefix": "https://ss3.4sqi.net/img/categories_v2/food/coffeeshop_", "suffix": ".png"}, "primary": true}], "photos": {"count": 0, "groups": []}}, "referralId": "e-0-4bc0c71b74a9a5935fa6d0f6-30"}, {"reasons": {"count": 0, "items": [{"summary": "This spot is popular", "type": "general", "reasonName": "globalInteractionReason"}]}, "venue": {"id": "4d385c97e6bdf04d924d63b4", "name": "Starbucks", "location": {"address": "1 King's College Circle", "crossStreet": "Medical Sciences Building", "lat": 43.660887, "lng": -79.39372, "labeledLatLngs": [{"label": "display", "lat": 43.660887, "lng": -79.39372}], "distance": 375, "postalCode": "M5S 1A8", "cc": "CA", "city": "Toronto", "state": "ON", "country": "Canada", "formattedAddress": ["1 King's College Circle (Medical Sciences Building)", "Toronto ON M5S 1A8", "Canada"]}, "categories": [{"id": "4bf58dd8d48988d1e0931735", "name": "Coffee Shop", "pluralName": "Coffee Shops", "shortName": "Coffee Shop", "icon": {"prefix": "https://ss3.4sqi.net/img/categories_v2/food/coffeeshop_", "suffix": ".png"}, "primary": true}], "photos": {"count": 0, "groups": []}}, "referralId": "e-0-4d385c97e6bdf04d924d63b4-31"}, {"reasons": {"count": 0, "items": [{"summary": "This spot is popular", "type": "general", "reasonName": "globalInteractionReason"}]}, "venue": {"id": "4ad4c062f964a520f9f720e3", "name": "Convocation Hall", "location": {"address": "31 King's College Cir.", "crossStreet": "University of Toronto", "lat": 43.66082829233904, "lng": -79.39524545662506, "labeledLatLngs": [{"label": "display", "lat": 43.66082829233904, "lng": -79.39524545662506}], "distance": 491, "postalCode": "M5S 1A1", "cc": "CA", "city": "Toronto", "state": "ON", "country": "Canada", "formattedAddress": ["31 King's College Cir. (University of Toronto)", "Toronto ON M5S 1A1", "Canada"]}, "categories": [{"id": "4bf58dd8d48988d1af941735", "name": "College Auditorium", "pluralName": "College Auditoriums", "shortName": "Auditorium", "icon": {"prefix": "https://ss3.4sqi.net/img/categories_v2/building/auditorium_", "suffix": ".png"}, "primary": true}], "photos": {"count": 0, "groups": []}}, "referralId": "e-0-4ad4c062f964a520f9f720e3-32"}, {"reasons": {"count": 0, "items": [{"summary": "This spot is popular", "type": "general", "reasonName": "globalInteractionReason"}]}, "venue": {"id": "4bc867cc6501c9b6cf024029", "name": "Tim Hortons", "location": {"address": "610 University Ave", "crossStreet": "Princess Margaret Hospital", "lat": 43.658175, "lng": -79.3906813, "labeledLatLngs": [{"label": "display", "lat": 43.658175, "lng": -79.3906813}], "distance": 469, "postalCode": "M5J 1A7", "cc": "CA", "city": "Toronto", "state": "ON", "country": "Canada", "formattedAddress": ["610 University Ave (Princess Margaret Hospital)", "Toronto ON M5J 1A7", "Canada"]}, "categories": [{"id": "4bf58dd8d48988d1e0931735", "name": "Coffee Shop", "pluralName": "Coffee Shops", "shortName": "Coffee Shop", "icon": {"prefix": "https://ss3.4sqi.net/img/categories_v2/food/coffeeshop_", "suffix": ".png"}, "primary": true}], "photos": {"count": 0, "groups": []}}, "referralId": "e-0-4bc867cc6501c9b6cf024029-33"}, {"reasons": {"count": 0, "items": [{"summary": "This spot is popular", "type": "general", "reasonName": "globalInteractionReason"}]}, "venue": {"id": "4cc5e76091413704e955cc55", "name": "SUDS", "location": {"address": "10 King's College Rd", "crossStreet": "University of Toronto", "lat": 43.65988035580764, "lng": -79.39471219966201, "labeledLatLngs": [{"label": "display", "lat": 43.65988035580764, "lng": -79.39471219966201}], "distance": 499, "postalCode": "M5S 3G4", "cc": "CA", "city": "Toronto", "state": "ON", "country": "Canada", "formattedAddress": ["10 King's College Rd (University of Toronto)", "Toronto ON M5S 3G4", "Canada"]}, "categories": [{"id": "4bf58dd8d48988d116941735", "name": "Bar", "pluralName": "Bars", "shortName": "Bar", "icon": {"prefix": "https://ss3.4sqi.net/img/categories_v2/nightlife/pub_", "suffix": ".png"}, "primary": true}], "photos": {"count": 0, "groups": []}}, "referralId": "e-0-4cc5e76091413704e955cc55-34"}, {"reasons": {"count": 0, "items": [{"summary": "This spot is popular", "type": "general", "reasonName": "globalInteractionReason"}]}, "venue": {"id": "4b7c2a57f964a5208c812fe3", "name": "Tim Hortons", "location": {"address": "700 University Ave", "crossStreet": "Ontario Power Generation Building", "lat": 43.6594149, "lng": -79.3912214, "labeledLatLngs": [{"label": "display", "lat": 43.6594149, "lng": -79.3912214}], "distance": 350, "postalCode": "M5G 1Z5", "cc": "CA", "city": "Toronto", "state": "ON", "country": "Canada", "formattedAddress": ["700 University Ave (Ontario Power Generation Building)", "Toronto ON M5G 1Z5", "Canada"]}, "categories": [{"id": "4bf58dd8d48988d1e0931735", "name": "Coffee Shop", "pluralName": "Coffee Shops", "shortName": "Coffee Shop", "icon": {"prefix": "https://ss3.4sqi.net/img/categories_v2/food/coffeeshop_", "suffix": ".png"}, "primary": true}], "photos": {"count": 0, "groups": []}}, "referralId": "e-0-4b7c2a57f964a5208c812fe3-35"}, {"reasons": {"count": 0, "items": [{"summary": "This spot is popular", "type": "general", "reasonName": "globalInteractionReason"}]}, "venue": {"id": "4c0f812d98102d7f8a44e506", "name": "Tim Hortons", "location": {"address": "657 University Ave", "crossStreet": "Toronto General Hospital", "lat": 43.658599, "lng": -79.388498, "labeledLatLngs": [{"label": "display", "lat": 43.658599, "lng": -79.388498}], "distance": 419, "postalCode": "M5G 2C4", "cc": "CA", "city": "Toronto", "state": "ON", "country": "Canada", "formattedAddress": ["657 University Ave (Toronto General Hospital)", "Toronto ON M5G 2C4", "Canada"]}, "categories": [{"id": "4bf58dd8d48988d1e0931735", "name": "Coffee Shop", "pluralName": "Coffee Shops", "shortName": "Coffee Shop", "icon": {"prefix": "https://ss3.4sqi.net/img/categories_v2/food/coffeeshop_", "suffix": ".png"}, "primary": true}], "photos": {"count": 0, "groups": []}}, "referralId": "e-0-4c0f812d98102d7f8a44e506-36"}, {"reasons": {"count": 0, "items": [{"summary": "This spot is popular", "type": "general", "reasonName": "globalInteractionReason"}]}, "venue": {"id": "540e1fa1498e9b339bc79212", "name": "The Green Beet Cafe", "location": {"address": "Lower Level, 9 King\u2019s College Circle", "lat": 43.66209577172247, "lng": -79.39415302454405, "labeledLatLngs": [{"label": "display", "lat": 43.66209577172247, "lng": -79.39415302454405}], "distance": 375, "postalCode": "M5S 3K1", "cc": "CA", "city": "Toronto", "state": "ON", "country": "Canada", "formattedAddress": ["Lower Level, 9 King\u2019s College Circle", "Toronto ON M5S 3K1", "Canada"]}, "categories": [{"id": "4bf58dd8d48988d1d3941735", "name": "Vegetarian / Vegan Restaurant", "pluralName": "Vegetarian / Vegan Restaurants", "shortName": "Vegetarian / Vegan", "icon": {"prefix": "https://ss3.4sqi.net/img/categories_v2/food/vegetarian_", "suffix": ".png"}, "primary": true}], "photos": {"count": 0, "groups": []}}, "referralId": "e-0-540e1fa1498e9b339bc79212-37"}]}]}}