{"meta": {"code": 200, "requestId": "5e1f6ba2bae9a20026187ba4"}, "response": {"suggestedFilters": {"header": "Tap to show:", "filters": [{"name": "Open now", "key": "openNow"}]}, "headerLocation": "Toronto", "headerFullLocation": "Toronto", "headerLocationGranularity": "city", "totalResults": 9, "suggestedBounds": {"ne": {"lat": 43.699843904500014, "lng": -79.31217644853614}, "sw": {"lat": 43.69084389550001, "lng": -79.32460095146386}}, "groups": [{"type": "Recommended Places", "name": "recommended", "items": [{"reasons": {"count": 0, "items": [{"summary": "This spot is popular", "type": "general", "reasonName": "globalInteractionReason"}]}, "venue": {"id": "4b575507f964a520e03128e3", "name": "East York Memorial Arena", "location": {"address": "888 Cosburn Ave.", "crossStreet": "Woodbine", "lat": 43.69722441688202, "lng": -79.31539709142582, "labeledLatLngs": [{"label": "display", "lat": 43.69722441688202, "lng": -79.31539709142582}], "distance": 319, "cc": "CA", "city": "Toronto", "state": "ON", "country": "Canada", "formattedAddress": ["888 Cosburn Ave. (Woodbine)", "Toronto ON", "Canada"]}, "categories": [{"id": "4bf58dd8d48988d168941735", "name": "Skating Rink", "pluralName": "Skating Rinks", "shortName": "Skating Rink", "icon": {"prefix": "https://ss3.4sqi.net/img/categories_v2/parks_outdoors/skatingrink_", "suffix": ".png"}, "primary": true}], "photos": {"count": 0, "groups": []}}, "referralId": "e-0-4b575507f964a520e03128e3-0"}, {"reasons": {"count": 0, "items": [{"summary": "This spot is popular", "type": "general", "reasonName": "globalInteractionReason"}]}, "venue": {"id": "4b6ba0e7f964a5204b132ce3", "name": "East York Curling Club", "location": {"address": "901 Cosburn Ave.", "lat": 43.69682672948465, "lng": -79.31365836861947, "labeledLatLngs": [{"label": "display", "lat": 43.69682672948465, "lng": -79.31365836861947}], "distance": 414, "cc": "CA", "city": "Toronto", "state": "ON", "country": "Canada", "formattedAddress": ["901 Cosburn Ave.", "Toronto ON", "Canada"]}, "categories": [{"id": "56aa371be4b08b9a8d57351a", "name": "Curling Ice", "pluralName": "Curling Ices", "shortName": "Curling Ice", "icon": {"prefix": "https://ss3.4sqi.net/img/categories_v2/parks_outdoors/skatingrink_", "suffix": ".png"}, "primary": true}], "photos": {"count": 0, "groups": []}}, "referralId": "e-0-4b6ba0e7f964a5204b132ce3-1"}, {"reasons": {"count": 0, "items": [{"summary": "This spot is popular", "type": "general", "reasonName": "globalInteractionReason"}]}, "venue": {"id": "4af5cc04f964a520f9fc21e3", "name": "The Beer Store", "location": {"address": "1270 Woodbine Ave", "crossStreet": "at Mortimer Ave.", "lat": 43.6937312, "lng": -79.3167591, "labeledLatLngs": [{"label": "display", "lat": 43.6937312, "lng": -79.3167591}], "distance": 222, "postalCode": "M4C 4E6", "cc": "CA", "city": "Toronto", "state": "ON", "country": "Canada", "formattedAddress": ["1270 Woodbine Ave (at Mortimer Ave.)", "Toronto ON M4C 4E6", "Canada"]}, "categories": [{"id": "5370f356bcbc57f1066c94c2", "name": "Beer Store", "pluralName": "Beer Stores", "shortName": "Beer Store", "icon": {"prefix": "https://ss3.4sqi.net/img/categories_v2/nightlife/beergarden_", "suffix": ".png"}, "primary": true}], "photos": {"count": 0, "groups": []}}, "referralId": "e-0-4af5cc04f964a520f9fc21e3-2"}, {"reasons": {"count": 0, "items": [{"summary": "This spot is popular", "type": "general", "reasonName": "globalInteractionReason"}]}, "venue": {"id": "5b7bb75e419a9e002c0d0c3c", "name": "Shoppers Drug Mart", "location": {"address": "1500 Woodbine Ave", "lat": 43.699244, "lng": -79.318939, "labeledLatLngs": [{"label": "display", "lat": 43.699244, "lng": -79.318939}], "distance": 436, "postalCode": "M4C 4G9", "cc": "CA", "city": "Toronto", "state": "ON", "country": "Canada", "formattedAddress": ["1500 Woodbine Ave", "Toronto ON M4C 4G9", "Canada"]}, "categories": [{"id": "4bf58dd8d48988d10f951735", "name": "Pharmacy", "pluralName": "Pharmacies", "shortName": "Pharmacy", "icon": {"prefix": "https://ss3.4sqi.net/img/categories_v2/shops/pharmacy_", "suffix": ".png"}, "primary": true}], "photos": {"count": 0, "groups": []}}, "referralId": "e-0-5b7bb75e419a9e002c0d0c3c-3"}, {"reasons": {"count": 0, "items": [{"summary": "This spot is popular", "type": "general", "reasonName": "globalInteractionReason"}]}, "venue": {"id": "4c012a56efa2ef3b516daa8c", "name": "Stan Wadlow Park", "location": {"address": "373 Cedarvale Ave.", "crossStreet": "at Cosburn Ave.", "lat": 43.697835820584395, "lng": -79.31430328766514, "labeledLatLngs": [{"label": "display", "lat": 43.697835820584395, "lng": -79.31430328766514}], "distance": 430, "postalCode": "M4C 4K7", "cc": "CA", "city": "Toronto", "state": "ON", "country": "Canada", "formattedAddress": ["373 Cedarvale Ave. (at Cosburn Ave.)", "Toronto ON M4C 4K7", "Canada"]}, "categories": [{"id": "4bf58dd8d48988d163941735", "name": "Park", "pluralName": "Parks", "shortName": "Park", "icon": {"prefix": "https://ss3.4sqi.net/img/categories_v2/parks_outdoors/park_", "suffix": ".png"}, "primary": true}], "photos": {"count": 0, "groups": []}}, "referralId": "e-0-4c012a56efa2ef3b516daa8c-4"}, {"reasons": {"count": 0, "items": [{"summary": "This spot is popular", "type": "general", "reasonName": "globalInteractionReason"}]}, "venue": {"id": "4c841690d92ea0930d355a72", "name": "Thai Wok", "location": {"address": "1235 Woodbine Ave.", "crossStreet": "Mortimer", "lat": 43.692789, "lng": -79.315951, "labeledLatLngs": [{"label": "display", "lat": 43.692789, "lng": -79.315951}], "distance": 345, "cc": "CA", "city": "Toronto", "state": "ON", "country": "Canada", "formattedAddress": ["1235 Woodbine Ave. (Mortimer)", "Toronto ON", "Canada"]}, "categories": [{"id": "4bf58dd8d48988d142941735", "name": "Asian Restaurant", "pluralName": "Asian Restaurants", "shortName": "Asian", "icon": {"prefix": "https://ss3.4sqi.net/img/categories_v2/food/asian_", "suffix": ".png"}, "primary": true}], "photos": {"count": 0, "groups": []}}, "referralId": "e-0-4c841690d92ea0930d355a72-5"}, {"reasons": {"count": 0, "items": [{"summary": "This spot is popular", "type": "general", "reasonName": "globalInteractionReason"}]}, "venue": {"id": "4d71744350a9a143e3e43f27", "name": "East York Memorial Arena", "location": {"address": "888 Cosburn Ave.", "crossStreet": "at Cedarvale Ave.", "lat": 43.697623791570656, "lng": -79.31514515513003, "labeledLatLngs": [{"label": "display", "lat": 43.697623791570656, "lng": -79.31514515513003}], "distance": 364, "postalCode": "M4C 2W6", "cc": "CA", "city": "Toronto", "state": "ON", "country": "Canada", "formattedAddress": ["888 Cosburn Ave. (at Cedarvale Ave.)", "Toronto ON M4C 2W6", "Canada"]}, "categories": [{"id": "4f4528bc4b90abdf24c9de85", "name": "Athletics & Sports", "pluralName": "Athletics & Sports", "shortName": "Athletics & Sports", "icon": {"prefix": "https://ss3.4sqi.net/img/categories_v2/shops/sports_outdoors_", "suffix": ".png"}, "primary": true}], "photos": {"count": 0, "groups": []}}, "referralId": "e-0-4d71744350a9a143e3e43f27-6"}, {"reasons": {"count": 0, "items": [{"summary": "This spot is popular", "type": "general", "reasonName": "globalInteractionReason"}]}, "venue": {"id": "4c7d874dd461a143f0797df5", "name": "New Star Video", "location": {"address": "1233 Woodbine Ave.", "crossStreet": "Lumsden", "lat": 43.692565, "lng": -79.315937, "labeledLatLngs": [{"label": "display", "lat": 43.692565, "lng": -79.315937}], "distance": 366, "postalCode": "M4C 4E5", "cc": "CA", "city": "Toronto", "state": "ON", "country": "Canada", "formattedAddress": ["1233 Woodbine Ave. (Lumsden)", "Toronto ON M4C 4E5", "Canada"]}, "categories": [{"id": "4bf58dd8d48988d126951735", "name": "Video Store", "pluralName": "Video Stores", "shortName": "Video Store", "icon": {"prefix": "https://ss3.4sqi.net/img/categories_v2/shops/video_", "suffix": ".png"}, "primary": true}], "photos": {"count": 0, "groups": []}}, "referralId": "e-0-4c7d874dd461a143f0797df5-7"}, {"reasons": {"count": 0, "items": [{"summary": "This spot is popular", "type": "general", "reasonName": "globalInteractionReason"}]}, "venue": {"id": "4bc934dd3740b71360785e65", "name": "Beauty Boutique by Shoppers Drug Mart", "location": {"address": "1500 Woodbine Ave", "lat": 43.699232, "lng": -79.319319, "labeledLatLngs": [{"label": "display", "lat": 43.699232, "lng": -79.319319}], "distance": 439, "postalCode": "M4C 4G9", "cc": "CA", "city": "Toronto", "state": "ON", "country": "Canada", "formattedAddress": ["1500 Woodbine Ave", "Toronto ON M4C 4G9", "Canada"]}, "categories": [{"id": "4bf58dd8d48988d10c951735", "name": "Cosmetics Shop", "pluralName": "Cosmetics Shops", "shortName": "Cosmetics", "icon": {"prefix": "https://ss3.4sqi.net/img/categories_v2/shops/beauty_cosmetic_", "suffix": ".png"}, "primary": true}], "photos": {"count": 0, "groups": []}}, "referralId": "e-0-4bc934dd3740b71360785e65-8"}]}]}}