{"meta": {"code": 200, "requestId": "5e1f6c3783525f001b42f1cb"}, "response": {"headerLocation": "Wexford", "headerFullLocation": "Wexford, Toronto", "headerLocationGranularity": "neighborhood", "totalResults": 8, "suggestedBounds": {"ne": {"lat": 43.7545715045, "lng": -79.28963117098037}, "sw": {"lat": 43.745571495499995, "lng": -79.30206702901963}}, "groups": [{"type": "Recommended Places", "name": "recommended", "items": [{"reasons": {"count": 0, "items": [{"summary": "This spot is popular", "type": "general", "reasonName": "globalInteractionReason"}]}, "venue": {"id": "569d1d81498e73b3eba22d2f", "name": "Crown Pastries", "location": {"lat": 43.746098, "lng": -79.293142, "labeledLatLngs": [{"label": "display", "lat": 43.746098, "lng": -79.293142}], "distance": 492, "cc": "CA", "country": "Canada", "formattedAddress": ["Canada"]}, "categories": [{"id": "4bf58dd8d48988d16a941735", "name": "Bakery", "pluralName": "Bakeries", "shortName": "Bakery", "icon": {"prefix": "https://ss3.4sqi.net/img/categories_v2/food/bakery_", "suffix": ".png"}, "primary": true}], "photos": {"count": 0, "groups": []}}, "referralId": "e-0-569d1d81498e73b3eba22d2f-0"}, {"reasons": {"count": 0, "items": [{"summary": "This spot is popular", "type": "general", "reasonName": "globalInteractionReason"}]}, "venue": {"id": "4b8e9db3f964a5201b2c33e3", "name": "Wexford Restaurant", "location": {"address": "2072 Lawrence Ave. E", "crossStreet": "at Warden Ave.", "lat": 43.7460300445972, "lng": -79.29384330907153, "labeledLatLngs": [{"label": "display", "lat": 43.7460300445972, "lng": -79.29384330907153}], "distance": 477, "postalCode": "M1R 2Z5", "cc": "CA", "city": "Toronto", "state": "ON", "country": "Canada", "formattedAddress": ["2072 Lawrence Ave. E (at Warden Ave.)", "Toronto ON M1R 2Z5", "Canada"]}, "categories": [{"id": "4bf58dd8d48988d143941735", "name": "Breakfast Spot", "pluralName": "Breakfast Spots", "shortName": "Breakfast", "icon": {"prefix": "https://ss3.4sqi.net/img/categories_v2/food/breakfast_", "suffix": ".png"}, "primary": true}], "photos": {"count": 0, "groups": []}}, "referralId": "e-0-4b8e9db3f964a5201b2c33e3-1"}, {"reasons": {"count": 0, "items": [{"summary": "This spot is popular", "type": "general", "reasonName": "globalInteractionReason"}]}, "venue": {"id": "50d1df1de4b08030c212ee26", "name": "Subway\u00ae Restaurants", "location": {"address": "2084-A Lawrence Avenue East", "crossStreet": "at Warden Ave", "lat": 43.746267251959516, "lng": -79.29319313129918, "labeledLatLngs": [{"label": "display", "lat": 43.746267251959516, "lng": -79.29319313129918}], "distance": 474, "postalCode": "M1R 2Z5", "cc": "CA", "neighborhood": "Wexford", "city": "Toronto", "state": "ON", "country": "Canada", "formattedAddress": ["2084-A Lawrence Avenue East (at Warden Ave)", "Toronto ON M1R 2Z5", "Canada"]}, "categories": [{"id": "4bf58dd8d48988d1c5941735", "name": "Sandwich Place", "pluralName": "Sandwich Places", "shortName": "Sandwiches", "icon": {"prefix": "https://ss3.4sqi.net/img/categories_v2/food/deli_", "suffix": ".png"}, "primary": true}], "photos": {"count": 0, "groups": []}}, "referralId": "e-0-50d1df1de4b08030c212ee26-2"}, {"reasons": {"count": 0, "items": [{"summary": "This spot is popular", "type": "general", "reasonName": "globalInteractionReason"}]}, "venue": {"id": "5246febc498e78d2103563a0", "name": "Lebanese bakery", "location": {"address": "2094 Lawrence ave e", "lat": 43.74670137305754, "lng": -79.29289639281615, "labeledLatLngs": [{"label": "display", "lat": 43.74670137305754, "lng": -79.29289639281615}], "distance": 443, "postalCode": "m1r2z6", "cc": "CA", "city": "Scarborough", "state": "ON", "country": "Canada", "formattedAddress": ["2094 Lawrence ave e", "Scarborough ON m1r2z6", "Canada"]}, "categories": [{"id": "4bf58dd8d48988d115941735", "name": "Middle Eastern Restaurant", "pluralName": "Middle Eastern Restaurants", "shortName": "Middle Eastern", "icon": {"prefix": "https://ss3.4sqi.net/img/categories_v2/food/middleeastern_", "suffix": ".png"}, "primary": true}], "photos": {"count": 0, "groups": []}}, "referralId": "e-0-5246febc498e78d2103563a0-3"}, {"reasons": {"count": 0, "items": [{"summary": "This spot is popular", "type": "general", "reasonName": "globalInteractionReason"}]}, "venue": {"id": "50ce05b2e4b0f2cbde4882e6", "name": "Wexford Heights Plaza", "location": {"lat": 43.74613567457937, "lng": -79.29378248248864, "labeledLatLngs": [{"label": "display", "lat": 43.74613567457937, "lng": -79.29378248248864}], "distance": 468, "cc": "CA", "country": "Canada", "formattedAddress": ["Canada"]}, "categories": [{"id": "4bf58dd8d48988d1fd941735", "name": "Shopping Mall", "pluralName": "Shopping Malls", "shortName": "Mall", "icon": {"prefix": "https://ss3.4sqi.net/img/categories_v2/shops/mall_", "suffix": ".png"}, "primary": true}], "photos": {"count": 0, "groups": []}}, "referralId": "e-0-50ce05b2e4b0f2cbde4882e6-4"}, {"reasons": {"count": 0, "items": [{"summary": "This spot is popular", "type": "general", "reasonName": "globalInteractionReason"}]}, "venue": {"id": "57f745dc498e32fba20af9f2", "name": "Scarborough Garage Door Repair", "location": {"address": "1256 Warden Ave", "lat": 43.75128820404063, "lng": -79.30150777101517, "labeledLatLngs": [{"label": "display", "lat": 43.75128820404063, "lng": -79.30150777101517}], "distance": 474, "postalCode": "M1R 2R3", "cc": "CA", "city": "Scarborough", "state": "ON", "country": "Canada", "formattedAddress": ["1256 Warden Ave", "Scarborough ON M1R 2R3", "Canada"]}, "categories": [{"id": "52f2ab2ebcbc57f1066b8b44", "name": "Auto Garage", "pluralName": "Auto Garages", "shortName": "Auto Garage", "icon": {"prefix": "https://ss3.4sqi.net/img/categories_v2/shops/automotive_", "suffix": ".png"}, "primary": true}], "photos": {"count": 0, "groups": []}}, "referralId": "e-0-57f745dc498e32fba20af9f2-5"}, {"reasons": {"count": 0, "items": [{"summary": "This spot is popular", "type": "general", "reasonName": "globalInteractionReason"}]}, "venue": {"id": "5b5e1b70c03635002c11f75f", "name": "Banh Mi Metro", "location": {"lat": 43.74583, "lng": -79.295309, "labeledLatLngs": [{"label": "display", "lat": 43.74583, "lng": -79.295309}], "distance": 474, "postalCode": "M1R 0A1", "cc": "CA", "city": "Toronto", "state": "ON", "country": "Canada", "formattedAddress": ["Toronto ON M1R 0A1", "Canada"]}, "categories": [{"id": "4bf58dd8d48988d14a941735", "name": "Vietnamese Restaurant", "pluralName": "Vietnamese Restaurants", "shortName": "Vietnamese", "icon": {"prefix": "https://ss3.4sqi.net/img/categories_v2/food/vietnamese_", "suffix": ".png"}, "primary": true}], "photos": {"count": 0, "groups": []}}, "referralId": "e-0-5b5e1b70c03635002c11f75f-6"}, {"reasons": {"count": 0, "items": [{"summary": "This spot is popular", "type": "general", "reasonName": "globalInteractionReason"}]}, "venue": {"id": "4e0e43f3fa76d62f444738eb", "name": "Sequoia Lounge", "location": {"address": "2034 Lawrence Ave. E", "lat": 43.74564498729392, "lng": -79.29573737087405, "labeledLatLngs": [{"label": "display", "lat": 43.74564498729392, "lng": -79.29573737087405}], "distance": 492, "postalCode": "M1R 2Z3", "cc": "CA", "city": "Toronto", "state": "ON", "country": "Canada", "formattedAddress": ["2034 Lawrence Ave. E", "Toronto ON M1R 2Z3", "Canada"]}, "categories": [{"id": "4bf58dd8d48988d115941735", "name": "Middle Eastern Restaurant", "pluralName": "Middle Eastern Restaurants", "shortName": "Middle Eastern", "icon": {"prefix": "https://ss3.4sqi.net/img/categories_v2/food/middleeastern_", "suffix": ".png"}, "primary": true}], "photos": {"count": 0, "groups": []}}, "referralId": "e-0-4e0e43f3fa76d62f444738eb-7"}]}]}}