{"meta": {"code": 200, "requestId": "5e1f6c82df2774001cd6ab4e"}, "response": {"suggestedFilters": {"header": "Tap to show:", "filters": [{"name": "Open now", "key": "openNow"}]}, "headerLocation": "Woburn", "headerFullLocation": "Woburn, Toronto", "headerLocationGranularity": "neighborhood", "totalResults": 8, "suggestedBounds": {"ne": {"lat": 43.7776360045, "lng": -79.23325577341039}, "sw": {"lat": 43.7686359955, "lng": -79.24569642658956}}, "groups": [{"type": "Recommended Places", "name": "recommended", "items": [{"reasons": {"count": 0, "items": [{"summary": "This spot is popular", "type": "general", "reasonName": "globalInteractionReason"}]}, "venue": {"id": "4b1711a6f964a520cbc123e3", "name": "Federick Restaurant", "location": {"address": "1920 Ellesmere Rd", "crossStreet": "at Bellamy Rd. N", "lat": 43.77469659057996, "lng": -79.24114242818267, "labeledLatLngs": [{"label": "display", "lat": 43.77469659057996, "lng": -79.24114242818267}], "distance": 219, "postalCode": "M1H 2V6", "cc": "CA", "city": "Scarborough", "state": "ON", "country": "Canada", "formattedAddress": ["1920 Ellesmere Rd (at Bellamy Rd. N)", "Scarborough ON M1H 2V6", "Canada"]}, "categories": [{"id": "52af3ac83cf9994f4e043bf3", "name": "Hakka Restaurant", "pluralName": "Hakka Restaurants", "shortName": "Hakka", "icon": {"prefix": "https://ss3.4sqi.net/img/categories_v2/food/asian_", "suffix": ".png"}, "primary": true}], "photos": {"count": 0, "groups": []}}, "referralId": "e-0-4b1711a6f964a520cbc123e3-0"}, {"reasons": {"count": 0, "items": [{"summary": "This spot is popular", "type": "general", "reasonName": "globalInteractionReason"}]}, "venue": {"id": "4e261f261f6eb1ae13930699", "name": "Drupati's Roti & Doubles", "location": {"address": "1085 Bellamy Rd N", "crossStreet": "Bellamy & Ellesmere", "lat": 43.775222138791534, "lng": -79.24167761001029, "labeledLatLngs": [{"label": "display", "lat": 43.775222138791534, "lng": -79.24167761001029}], "distance": 291, "cc": "CA", "city": "Scarborough", "state": "ON", "country": "Canada", "formattedAddress": ["1085 Bellamy Rd N (Bellamy & Ellesmere)", "Scarborough ON", "Canada"]}, "categories": [{"id": "4bf58dd8d48988d144941735", "name": "Caribbean Restaurant", "pluralName": "Caribbean Restaurants", "shortName": "Caribbean", "icon": {"prefix": "https://ss3.4sqi.net/img/categories_v2/food/caribbean_", "suffix": ".png"}, "primary": true}], "photos": {"count": 0, "groups": []}}, "referralId": "e-0-4e261f261f6eb1ae13930699-1"}, {"reasons": {"count": 0, "items": [{"summary": "This spot is popular", "type": "general", "reasonName": "globalInteractionReason"}]}, "venue": {"id": "4b931d41f964a520d43534e3", "name": "Centennial Recreation Centre", "location": {"address": "1967 Ellesmere Rd", "lat": 43.77459330890341, "lng": -79.23649962433035, "labeledLatLngs": [{"label": "display", "lat": 43.77459330890341, "lng": -79.23649962433035}], "distance": 289, "postalCode": "M1H 2W5", "cc": "CA", "city": "Scarborough", "state": "ON", "country": "Canada", "formattedAddress": ["1967 Ellesmere Rd", "Scarborough ON M1H 2W5", "Canada"]}, "categories": [{"id": "4f4528bc4b90abdf24c9de85", "name": "Athletics & Sports", "pluralName": "Athletics & Sports", "shortName": "Athletics & Sports", "icon": {"prefix": "https://ss3.4sqi.net/img/categories_v2/shops/sports_outdoors_", "suffix": ".png"}, "primary": true}], "photos": {"count": 0, "groups": []}}, "referralId": "e-0-4b931d41f964a520d43534e3-2"}, {"reasons": {"count": 0, "items": [{"summary": "This spot is popular", "type": "general", "reasonName": "globalInteractionReason"}]}, "venue": {"id": "4c27da423492a593158cb628", "name": "Thai One On", "location": {"address": "1911 Ellesmere Road", "crossStreet": "Bellamy and Ellesmere", "lat": 43.77446763641413, "lng": -79.24126833717742, "labeledLatLngs": [{"label": "display", "lat": 43.77446763641413, "lng": -79.24126833717742}], "distance": 206, "postalCode": "M1H 2W5", "cc": "CA", "city": "Toronto", "state": "ON", "country": "Canada", "formattedAddress": ["1911 Ellesmere Road (Bellamy and Ellesmere)", "Toronto ON M1H 2W5", "Canada"]}, "categories": [{"id": "4bf58dd8d48988d149941735", "name": "Thai Restaurant", "pluralName": "Thai Restaurants", "shortName": "Thai", "icon": {"prefix": "https://ss3.4sqi.net/img/categories_v2/food/thai_", "suffix": ".png"}, "primary": true}], "photos": {"count": 0, "groups": []}}, "referralId": "e-0-4c27da423492a593158cb628-3"}, {"reasons": {"count": 0, "items": [{"summary": "This spot is popular", "type": "general", "reasonName": "globalInteractionReason"}]}, "venue": {"id": "4cf987f9c6cca35d2d988032", "name": "TD Canada Trust", "location": {"address": "1900 Ellesmere Rd", "crossStreet": "Ellesmere and Bellamy", "lat": 43.77495189482367, "lng": -79.24134314060211, "labeledLatLngs": [{"label": "display", "lat": 43.77495189482367, "lng": -79.24134314060211}], "distance": 251, "postalCode": "M1H 2V6", "cc": "CA", "city": "Scarborough", "state": "ON", "country": "Canada", "formattedAddress": ["1900 Ellesmere Rd (Ellesmere and Bellamy)", "Scarborough ON M1H 2V6", "Canada"]}, "categories": [{"id": "4bf58dd8d48988d10a951735", "name": "Bank", "pluralName": "Banks", "shortName": "Bank", "icon": {"prefix": "https://ss3.4sqi.net/img/categories_v2/shops/financial_", "suffix": ".png"}, "primary": true}], "photos": {"count": 0, "groups": []}}, "referralId": "e-0-4cf987f9c6cca35d2d988032-4"}, {"reasons": {"count": 0, "items": [{"summary": "This spot is popular", "type": "general", "reasonName": "globalInteractionReason"}]}, "venue": {"id": "4e8673fcd66a9b178e912072", "name": "Petro-Canada", "location": {"address": "1860 Ellesmere Rd", "lat": 43.774106, "lng": -79.243097, "labeledLatLngs": [{"label": "display", "lat": 43.774106, "lng": -79.243097}], "distance": 310, "postalCode": "M1H 2V5", "cc": "CA", "city": "Scarborough", "state": "ON", "country": "Canada", "formattedAddress": ["1860 Ellesmere Rd", "Scarborough ON M1H 2V5", "Canada"]}, "categories": [{"id": "4bf58dd8d48988d113951735", "name": "Gas Station", "pluralName": "Gas Stations", "shortName": "Gas Station", "icon": {"prefix": "https://ss3.4sqi.net/img/categories_v2/shops/gas_", "suffix": ".png"}, "primary": true}], "photos": {"count": 0, "groups": []}}, "referralId": "e-0-4e8673fcd66a9b178e912072-5"}, {"reasons": {"count": 0, "items": [{"summary": "This spot is popular", "type": "general", "reasonName": "globalInteractionReason"}]}, "venue": {"id": "4e42cfc56284d1faa44a1083", "name": "B&A Bakery", "location": {"address": "1820 Ellesmere Rd.", "lat": 43.77439074389114, "lng": -79.24387684648542, "labeledLatLngs": [{"label": "display", "lat": 43.77439074389114, "lng": -79.24387684648542}], "distance": 380, "cc": "CA", "city": "Toronto", "state": "ON", "country": "Canada", "formattedAddress": ["1820 Ellesmere Rd.", "Toronto ON", "Canada"]}, "categories": [{"id": "4bf58dd8d48988d16a941735", "name": "Bakery", "pluralName": "Bakeries", "shortName": "Bakery", "icon": {"prefix": "https://ss3.4sqi.net/img/categories_v2/food/bakery_", "suffix": ".png"}, "primary": true}], "photos": {"count": 0, "groups": []}}, "referralId": "e-0-4e42cfc56284d1faa44a1083-6"}, {"reasons": {"count": 0, "items": [{"summary": "This spot is popular", "type": "general", "reasonName": "globalInteractionReason"}]}, "venue": {"id": "4cddfe25db125481ff0b2ece", "name": "Popeyes Louisiana Kitchen", "location": {"address": "2030 Ellesmere Rd", "crossStreet": "Dolly Varden Blvd", "lat": 43.7759298356196, "lng": -79.23532833470263, "labeledLatLngs": [{"label": "display", "lat": 43.7759298356196, "lng": -79.23532833470263}], "distance": 455, "postalCode": "M1H 2V6", "cc": "CA", "city": "Toronto", "state": "ON", "country": "Canada", "formattedAddress": ["2030 Ellesmere Rd (Dolly Varden Blvd)", "Toronto ON M1H 2V6", "Canada"]}, "categories": [{"id": "4d4ae6fc7a7b7dea34424761", "name": "Fried Chicken Joint", "pluralName": "Fried Chicken Joints", "shortName": "Fried Chicken", "icon": {"prefix": "https://ss3.4sqi.net/img/categories_v2/food/friedchicken_", "suffix": ".png"}, "primary": true}], "photos": {"count": 0, "groups": []}}, "referralId": "e-0-4cddfe25db125481ff0b2ece-7"}]}]}}