{"meta": {"code": 200, "requestId": "5e1f6c1b98205d001b66e4cf"}, "response": {"headerLocation": "Toronto", "headerFullLocation": "Toronto", "headerLocationGranularity": "city", "totalResults": 4, "suggestedBounds": {"ne": {"lat": 43.677685304499995, "lng": -79.4810519427574}, "sw": {"lat": 43.66868529549999, "lng": -79.49347185724264}}, "groups": [{"type": "Recommended Places", "name": "recommended", "items": [{"reasons": {"count": 0, "items": [{"summary": "This spot is popular", "type": "general", "reasonName": "globalInteractionReason"}]}, "venue": {"id": "4e8365edd3e32ff4a87fc756", "name": "Bigger's Jamaican Restaurant", "location": {"lat": 43.672725293535585, "lng": -79.48250832756949, "labeledLatLngs": [{"label": "display", "lat": 43.672725293535585, "lng": -79.48250832756949}], "distance": 386, "cc": "CA", "city": "Toronto", "state": "ON", "country": "Canada", "formattedAddress": ["Toronto ON", "Canada"]}, "categories": [{"id": "4bf58dd8d48988d144941735", "name": "Caribbean Restaurant", "pluralName": "Caribbean Restaurants", "shortName": "Caribbean", "icon": {"prefix": "https://ss3.4sqi.net/img/categories_v2/food/caribbean_", "suffix": ".png"}, "primary": true}], "photos": {"count": 0, "groups": []}}, "referralId": "e-0-4e8365edd3e32ff4a87fc756-0"}, {"reasons": {"count": 0, "items": [{"summary": "This spot is popular", "type": "general", "reasonName": "globalInteractionReason"}]}, "venue": {"id": "4e90e126722ebb868be39300", "name": "Wonderfood", "location": {"address": "Woolner Ave", "crossStreet": "Jane & Woolner", "lat": 43.67235238324323, "lng": -79.49257115909873, "labeledLatLngs": [{"label": "display", "lat": 43.67235238324323, "lng": -79.49257115909873}], "distance": 437, "postalCode": "M6N 1Y6", "cc": "CA", "city": "Toronto", "state": "ON", "country": "Canada", "formattedAddress": ["Woolner Ave (Jane & Woolner)", "Toronto ON M6N 1Y6", "Canada"]}, "categories": [{"id": "4d954b0ea243a5684a65b473", "name": "Convenience Store", "pluralName": "Convenience Stores", "shortName": "Convenience Store", "icon": {"prefix": "https://ss3.4sqi.net/img/categories_v2/shops/conveniencestore_", "suffix": ".png"}, "primary": true}], "photos": {"count": 0, "groups": []}}, "referralId": "e-0-4e90e126722ebb868be39300-1"}, {"reasons": {"count": 0, "items": [{"summary": "This spot is popular", "type": "general", "reasonName": "globalInteractionReason"}]}, "venue": {"id": "53ea81ae498ef5f75620dde0", "name": "195 Jane Rocket", "location": {"lat": 43.672334850841, "lng": -79.49263389979957, "labeledLatLngs": [{"label": "display", "lat": 43.672334850841, "lng": -79.49263389979957}], "distance": 442, "cc": "CA", "country": "Canada", "formattedAddress": ["Canada"]}, "categories": [{"id": "4bf58dd8d48988d12b951735", "name": "Bus Line", "pluralName": "Bus Lines", "shortName": "Bus", "icon": {"prefix": "https://ss3.4sqi.net/img/categories_v2/travel/busstation_", "suffix": ".png"}, "primary": true}], "photos": {"count": 0, "groups": []}}, "referralId": "e-0-53ea81ae498ef5f75620dde0-2"}, {"reasons": {"count": 0, "items": [{"summary": "This spot is popular", "type": "general", "reasonName": "globalInteractionReason"}]}, "venue": {"id": "5b7b27d4791871002cd6eeee", "name": "High Park Brewery", "location": {"address": "839 Runnymede Rd, Toronto, ON M6N 3V8", "crossStreet": "Runnymede Rd. & St. Claire Ave.", "lat": 43.669903, "lng": -79.48343, "labeledLatLngs": [{"label": "display", "lat": 43.669903, "lng": -79.48343}], "distance": 478, "postalCode": "M6N 3V8", "cc": "CA", "city": "Toronto", "state": "ON", "country": "Canada", "formattedAddress": ["839 Runnymede Rd, Toronto, ON M6N 3V8 (Runnymede Rd. & St. Claire Ave.)", "Toronto ON M6N 3V8", "Canada"]}, "categories": [{"id": "50327c8591d4c4b30a586d5d", "name": "Brewery", "pluralName": "Breweries", "shortName": "Brewery", "icon": {"prefix": "https://ss3.4sqi.net/img/categories_v2/food/brewery_", "suffix": ".png"}, "primary": true}], "photos": {"count": 0, "groups": []}}, "referralId": "e-0-5b7b27d4791871002cd6eeee-3"}]}]}}