{"meta": {"code": 200, "requestId": "5e1f6c449fcb92001b0d1073"}, "response": {"headerLocation": "Sunnybrook - York Mills", "headerFullLocation": "Sunnybrook - York Mills, Toronto", "headerLocationGranularity": "neighborhood", "totalResults": 5, "suggestedBounds": {"ne": {"lat": 43.750405804500005, "lng": -79.34597050370319}, "sw": {"lat": 43.7414057955, "lng": -79.35840549629681}}, "groups": [{"type": "Recommended Places", "name": "recommended", "items": [{"reasons": {"count": 0, "items": [{"summary": "This spot is popular", "type": "general", "reasonName": "globalInteractionReason"}]}, "venue": {"id": "4c18e819d4d9c9284e19f029", "name": "LA Fitness", "location": {"address": "1380 Don Mills Road", "crossStreet": "Mallard Rd", "lat": 43.74766522888878, "lng": -79.34707696065234, "labeledLatLngs": [{"label": "display", "lat": 43.74766522888878, "lng": -79.34707696065234}], "distance": 455, "postalCode": "M3B 2X2", "cc": "CA", "city": "Toronto", "state": "ON", "country": "Canada", "formattedAddress": ["1380 Don Mills Road (Mallard Rd)", "Toronto ON M3B 2X2", "Canada"]}, "categories": [{"id": "4bf58dd8d48988d175941735", "name": "Gym / Fitness Center", "pluralName": "Gyms or Fitness Centers", "shortName": "Gym / Fitness", "icon": {"prefix": "https://ss3.4sqi.net/img/categories_v2/building/gym_", "suffix": ".png"}, "primary": true}], "photos": {"count": 0, "groups": []}}, "referralId": "e-0-4c18e819d4d9c9284e19f029-0"}, {"reasons": {"count": 0, "items": [{"summary": "This spot is popular", "type": "general", "reasonName": "globalInteractionReason"}]}, "venue": {"id": "4b0aed06f964a520202a23e3", "name": "Island Foods", "location": {"address": "1310 Don Mills Rd.", "lat": 43.745866073988985, "lng": -79.34603533317939, "labeledLatLngs": [{"label": "display", "lat": 43.745866073988985, "lng": -79.34603533317939}], "distance": 494, "cc": "CA", "city": "Toronto", "state": "ON", "country": "Canada", "formattedAddress": ["1310 Don Mills Rd.", "Toronto ON", "Canada"]}, "categories": [{"id": "4bf58dd8d48988d144941735", "name": "Caribbean Restaurant", "pluralName": "Caribbean Restaurants", "shortName": "Caribbean", "icon": {"prefix": "https://ss3.4sqi.net/img/categories_v2/food/caribbean_", "suffix": ".png"}, "primary": true}], "photos": {"count": 0, "groups": []}}, "referralId": "e-0-4b0aed06f964a520202a23e3-1"}, {"reasons": {"count": 0, "items": [{"summary": "This spot is popular", "type": "general", "reasonName": "globalInteractionReason"}]}, "venue": {"id": "50c3ae15e4b08c3b596c6069", "name": "Baretto Caff\u00e9", "location": {"address": "1262 Don Mills Rd", "lat": 43.74445646349851, "lng": -79.34645978471785, "labeledLatLngs": [{"label": "display", "lat": 43.74445646349851, "lng": -79.34645978471785}], "distance": 488, "cc": "CA", "city": "Toronto", "state": "ON", "country": "Canada", "formattedAddress": ["1262 Don Mills Rd", "Toronto ON", "Canada"]}, "categories": [{"id": "4bf58dd8d48988d16d941735", "name": "Caf\u00e9", "pluralName": "Caf\u00e9s", "shortName": "Caf\u00e9", "icon": {"prefix": "https://ss3.4sqi.net/img/categories_v2/food/cafe_", "suffix": ".png"}, "primary": true}], "photos": {"count": 0, "groups": []}}, "referralId": "e-0-50c3ae15e4b08c3b596c6069-2"}, {"reasons": {"count": 0, "items": [{"summary": "This spot is popular", "type": "general", "reasonName": "globalInteractionReason"}]}, "venue": {"id": "4b639286f964a5203c842ae3", "name": "Gonoe Sushi", "location": {"address": "1310 Don Mills Rd, Unit 1", "crossStreet": "at Bond Ave.", "lat": 43.74573681959921, "lng": -79.34599119916211, "labeledLatLngs": [{"label": "display", "lat": 43.74573681959921, "lng": -79.34599119916211}], "distance": 498, "postalCode": "M3B 2W6", "cc": "CA", "city": "Toronto", "state": "ON", "country": "Canada", "formattedAddress": ["1310 Don Mills Rd, Unit 1 (at Bond Ave.)", "Toronto ON M3B 2W6", "Canada"]}, "categories": [{"id": "4bf58dd8d48988d111941735", "name": "Japanese Restaurant", "pluralName": "Japanese Restaurants", "shortName": "Japanese", "icon": {"prefix": "https://ss3.4sqi.net/img/categories_v2/food/japanese_", "suffix": ".png"}, "primary": true}], "photos": {"count": 0, "groups": []}}, "referralId": "e-0-4b639286f964a5203c842ae3-3"}, {"reasons": {"count": 0, "items": [{"summary": "This spot is popular", "type": "general", "reasonName": "globalInteractionReason"}]}, "venue": {"id": "57e7d6bd498e0d78f21a4169", "name": "Elite Camps", "location": {"address": "20 Scarsdale Rd", "lat": 43.745053, "lng": -79.354296, "labeledLatLngs": [{"label": "display", "lat": 43.745053, "lng": -79.354296}], "distance": 194, "postalCode": "M3B 2R7", "cc": "CA", "city": "Toronto", "state": "ON", "country": "Canada", "formattedAddress": ["20 Scarsdale Rd", "Toronto ON M3B 2R7", "Canada"]}, "categories": [{"id": "4bf58dd8d48988d1e1941735", "name": "Basketball Court", "pluralName": "Basketball Courts", "shortName": "Basketball Court", "icon": {"prefix": "https://ss3.4sqi.net/img/categories_v2/parks_outdoors/basketballcourt_", "suffix": ".png"}, "primary": true}], "photos": {"count": 0, "groups": []}}, "referralId": "e-0-57e7d6bd498e0d78f21a4169-4"}]}]}}