{"meta": {"code": 200, "requestId": "5e1f6c7077af03001bfbcdf0"}, "response": {"suggestedFilters": {"header": "Tap to show:", "filters": [{"name": "Open now", "key": "openNow"}]}, "headerLocation": "Rexdale", "headerFullLocation": "Rexdale, Toronto", "headerLocationGranularity": "neighborhood", "totalResults": 10, "suggestedBounds": {"ne": {"lat": 43.743916404500006, "lng": -79.58222007762089}, "sw": {"lat": 43.7349163955, "lng": -79.59465372237912}}, "groups": [{"type": "Recommended Places", "name": "recommended", "items": [{"reasons": {"count": 0, "items": [{"summary": "This spot is popular", "type": "general", "reasonName": "globalInteractionReason"}]}, "venue": {"id": "4be58dc4cf200f479154133c", "name": "Shoppers Drug Mart", "location": {"address": "1530 Albion Rd", "crossStreet": "Albion Mall", "lat": 43.741685, "lng": -79.584487, "labeledLatLngs": [{"label": "display", "lat": 43.741685, "lng": -79.584487}], "distance": 405, "postalCode": "M9V 1B4", "cc": "CA", "city": "Etobicoke", "state": "ON", "country": "Canada", "formattedAddress": ["1530 Albion Rd (Albion Mall)", "Etobicoke ON M9V 1B4", "Canada"]}, "categories": [{"id": "4bf58dd8d48988d10f951735", "name": "Pharmacy", "pluralName": "Pharmacies", "shortName": "Pharmacy", "icon": {"prefix": "https://ss3.4sqi.net/img/categories_v2/shops/pharmacy_", "suffix": ".png"}, "primary": true}], "photos": {"count": 0, "groups": []}}, "referralId": "e-0-4be58dc4cf200f479154133c-0"}, {"reasons": {"count": 0, "items": [{"summary": "This spot is popular", "type": "general", "reasonName": "globalInteractionReason"}]}, "venue": {"id": "4c633939e1621b8d48842553", "name": "Subway", "location": {"address": "6210 Finch Ave West, Store 103", "crossStreet": "at Albion Rd.", "lat": 43.74264512142215, "lng": -79.58964323010724, "labeledLatLngs": [{"label": "display", "lat": 43.74264512142215, "lng": -79.58964323010724}], "distance": 372, "postalCode": "M9V 0A1", "cc": "CA", "city": "Toronto", "state": "ON", "country": "Canada", "formattedAddress": ["6210 Finch Ave West, Store 103 (at Albion Rd.)", "Toronto ON M9V 0A1", "Canada"]}, "categories": [{"id": "4bf58dd8d48988d1c5941735", "name": "Sandwich Place", "pluralName": "Sandwich Places", "shortName": "Sandwiches", "icon": {"prefix": "https://ss3.4sqi.net/img/categories_v2/food/deli_", "suffix": ".png"}, "primary": true}], "photos": {"count": 0, "groups": []}}, "referralId": "e-0-4c633939e1621b8d48842553-1"}, {"reasons": {"count": 0, "items": [{"summary": "This spot is popular", "type": "general", "reasonName": "globalInteractionReason"}]}, "venue": {"id": "4be70e26cf200f47e334153c", "name": "Popeyes Louisiana Kitchen", "location": {"address": "1530 Albion Rd.", "crossStreet": "at Kipling Ave. (Albion Centre)", "lat": 43.74120165509377, "lng": -79.58454469276013, "labeledLatLngs": [{"label": "display", "lat": 43.74120165509377, "lng": -79.58454469276013}], "distance": 370, "postalCode": "M9V 1B4", "cc": "CA", "city": "Etobicoke", "state": "ON", "country": "Canada", "formattedAddress": ["1530 Albion Rd. (at Kipling Ave. (Albion Centre))", "Etobicoke ON M9V 1B4", "Canada"]}, "categories": [{"id": "4d4ae6fc7a7b7dea34424761", "name": "Fried Chicken Joint", "pluralName": "Fried Chicken Joints", "shortName": "Fried Chicken", "icon": {"prefix": "https://ss3.4sqi.net/img/categories_v2/food/friedchicken_", "suffix": ".png"}, "primary": true}], "photos": {"count": 0, "groups": []}}, "referralId": "e-0-4be70e26cf200f47e334153c-2"}, {"reasons": {"count": 0, "items": [{"summary": "This spot is popular", "type": "general", "reasonName": "globalInteractionReason"}]}, "venue": {"id": "4cd4738cdfb4a1cd4337535c", "name": "The Beer Store", "location": {"address": "1530 Albion Rd", "crossStreet": "Near Finch Ave. W.", "lat": 43.7416936, "lng": -79.5843728, "labeledLatLngs": [{"label": "display", "lat": 43.7416936, "lng": -79.5843728}], "distance": 413, "postalCode": "M9V 1B4", "cc": "CA", "city": "Etobicoke", "state": "ON", "country": "Canada", "formattedAddress": ["1530 Albion Rd (Near Finch Ave. W.)", "Etobicoke ON M9V 1B4", "Canada"]}, "categories": [{"id": "5370f356bcbc57f1066c94c2", "name": "Beer Store", "pluralName": "Beer Stores", "shortName": "Beer Store", "icon": {"prefix": "https://ss3.4sqi.net/img/categories_v2/nightlife/beergarden_", "suffix": ".png"}, "primary": true}], "photos": {"count": 0, "groups": []}}, "referralId": "e-0-4cd4738cdfb4a1cd4337535c-3"}, {"reasons": {"count": 0, "items": [{"summary": "This spot is popular", "type": "general", "reasonName": "globalInteractionReason"}]}, "venue": {"id": "4b04a05bf964a520c45522e3", "name": "No Frills", "location": {"address": "1530 Albion Rd", "crossStreet": "at Finch Ave. W.", "lat": 43.741696, "lng": -79.584379, "labeledLatLngs": [{"label": "display", "lat": 43.741696, "lng": -79.584379}], "distance": 413, "postalCode": "M9V 1B4", "cc": "CA", "city": "Etobicoke", "state": "ON", "country": "Canada", "formattedAddress": ["1530 Albion Rd (at Finch Ave. W.)", "Etobicoke ON M9V 1B4", "Canada"]}, "categories": [{"id": "4bf58dd8d48988d118951735", "name": "Grocery Store", "pluralName": "Grocery Stores", "shortName": "Grocery Store", "icon": {"prefix": "https://ss3.4sqi.net/img/categories_v2/shops/food_grocery_", "suffix": ".png"}, "primary": true}], "photos": {"count": 0, "groups": []}}, "referralId": "e-0-4b04a05bf964a520c45522e3-4"}, {"reasons": {"count": 0, "items": [{"summary": "This spot is popular", "type": "general", "reasonName": "globalInteractionReason"}]}, "venue": {"id": "4d8ba6910c4e41bdaaf7667f", "name": "Pizza Pizza", "location": {"address": "1530 Albion Road, Unit T25", "lat": 43.74156896801906, "lng": -79.58448886871338, "labeledLatLngs": [{"label": "display", "lat": 43.74156896801906, "lng": -79.58448886871338}], "distance": 397, "postalCode": "M9V 1B4", "cc": "CA", "city": "Etobicoke", "state": "ON", "country": "Canada", "formattedAddress": ["1530 Albion Road, Unit T25", "Etobicoke ON M9V 1B4", "Canada"]}, "categories": [{"id": "4bf58dd8d48988d1ca941735", "name": "Pizza Place", "pluralName": "Pizza Places", "shortName": "Pizza", "icon": {"prefix": "https://ss3.4sqi.net/img/categories_v2/food/pizza_", "suffix": ".png"}, "primary": true}], "photos": {"count": 0, "groups": []}}, "referralId": "e-0-4d8ba6910c4e41bdaaf7667f-5"}, {"reasons": {"count": 0, "items": [{"summary": "This spot is popular", "type": "general", "reasonName": "globalInteractionReason"}]}, "venue": {"id": "5112b872e4b0c0a78d7bcd27", "name": "Sunny Foodmart", "location": {"address": "1620 Albion road", "crossStreet": "Albion Road and Finch Ave", "lat": 43.74184023292111, "lng": -79.59056069637506, "labeledLatLngs": [{"label": "display", "lat": 43.74184023292111, "lng": -79.59056069637506}], "distance": 319, "cc": "CA", "city": "Toronto", "state": "ON", "country": "Canada", "formattedAddress": ["1620 Albion road (Albion Road and Finch Ave)", "Toronto ON", "Canada"]}, "categories": [{"id": "4bf58dd8d48988d118951735", "name": "Grocery Store", "pluralName": "Grocery Stores", "shortName": "Grocery Store", "icon": {"prefix": "https://ss3.4sqi.net/img/categories_v2/shops/food_grocery_", "suffix": ".png"}, "primary": true}], "photos": {"count": 0, "groups": []}}, "referralId": "e-0-5112b872e4b0c0a78d7bcd27-6"}, {"reasons": {"count": 0, "items": [{"summary": "This spot is popular", "type": "general", "reasonName": "globalInteractionReason"}]}, "venue": {"id": "4c1951d6834e2d7f2d3a2a80", "name": "McDonald's", "location": {"address": "1530 Albion Road, Unit F-1", "lat": 43.7417571, "lng": -79.5842303, "labeledLatLngs": [{"label": "display", "lat": 43.7417571, "lng": -79.5842303}], "distance": 427, "postalCode": "M9V 1B4", "cc": "CA", "city": "Toronto", "state": "ON", "country": "Canada", "formattedAddress": ["1530 Albion Road, Unit F-1", "Toronto ON M9V 1B4", "Canada"]}, "categories": [{"id": "4bf58dd8d48988d16e941735", "name": "Fast Food Restaurant", "pluralName": "Fast Food Restaurants", "shortName": "Fast Food", "icon": {"prefix": "https://ss3.4sqi.net/img/categories_v2/food/fastfood_", "suffix": ".png"}, "primary": true}], "photos": {"count": 0, "groups": []}}, "referralId": "e-0-4c1951d6834e2d7f2d3a2a80-7"}, {"reasons": {"count": 0, "items": [{"summary": "This spot is popular", "type": "general", "reasonName": "globalInteractionReason"}]}, "venue": {"id": "4f035c5c5c5c51dd31b52e55", "name": "Dollarama", "location": {"address": "1620 Albion Rd,Finch Albion Centre", "lat": 43.742018, "lng": -79.591076, "labeledLatLngs": [{"label": "display", "lat": 43.742018, "lng": -79.591076}], "distance": 359, "postalCode": "M9V 4B4", "cc": "CA", "city": "Etobicoke", "state": "ON", "country": "Canada", "formattedAddress": ["1620 Albion Rd,Finch Albion Centre", "Etobicoke ON M9V 4B4", "Canada"]}, "categories": [{"id": "52dea92d3cf9994f4e043dbb", "name": "Discount Store", "pluralName": "Discount Stores", "shortName": "Discount Store", "icon": {"prefix": "https://ss3.4sqi.net/img/categories_v2/shops/discountstore_", "suffix": ".png"}, "primary": true}], "photos": {"count": 0, "groups": []}}, "referralId": "e-0-4f035c5c5c5c51dd31b52e55-8"}, {"reasons": {"count": 0, "items": [{"summary": "This spot is popular", "type": "general", "reasonName": "globalInteractionReason"}]}, "venue": {"id": "54e521a9498e559c968e8083", "name": "NORI SUSHI", "location": {"lat": 43.742775, "lng": -79.586985, "labeledLatLngs": [{"label": "display", "lat": 43.742775, "lng": -79.586985}], "distance": 391, "cc": "CA", "country": "Canada", "formattedAddress": ["Canada"]}, "categories": [{"id": "4bf58dd8d48988d111941735", "name": "Japanese Restaurant", "pluralName": "Japanese Restaurants", "shortName": "Japanese", "icon": {"prefix": "https://ss3.4sqi.net/img/categories_v2/food/japanese_", "suffix": ".png"}, "primary": true}], "photos": {"count": 0, "groups": []}}, "referralId": "e-0-54e521a9498e559c968e8083-9"}]}]}}